VehicleRef,Latitude,Longitude,Vehicle,LineNum,StartName,DestinationName,StopPointName,Delay
3350387030,60.2617999725044,5.34371003508568,bus,29,Nesttun terminal D,skyss.no,GARASJE Fana Bussdepot,-PT2M8S
3350387031,60.3197999764234,5.35244003869593,bus,29,Arna terminal B,Nesttun terminal,Nesttun terminal D,-PT1M42S
3350447631,60.3652682807297,5.22585988976061,bus,3,Vadmyra,Støbotn,Vadmyra,-PT10M40S
3350447621,60.3492202050984,5.28788580559194,bus,4,Flaktveit snuplass,Hesjaholtet,Fyllingsdalen terminal C,PT9S
3350447634,60.4868422541767,5.27829548344016,bus,3,Støbotn,Vadmyra,Støbotn,-PT19M42S
3350447624,60.3487746231258,5.28663673438132,bus,4,Hesjaholtet,skyss.no,Fyllingsdalen terminal E,-PT1M32S
3350447614,60.3496211953461,5.28820993378758,bus,5,Fyllingsdalen terminal E,Sletten,Skarphaugen,PT27S
3350447633,60.3653328213841,5.22581370547414,bus,3,Vadmyra,Støbotn,Vestre Vadmyra,-PT44S
3350447615,60.344850635156,5.26025176048279,bus,5,Fyllingsdalen terminal K,skyss.no,Garasje Haukås,-PT1M17S
3350447638,60.4868753626943,5.27831769548357,bus,3,Støbotn,Vadmyra,Toppe,-PT9M29S
3350447639,60.4403625894338,5.32587938010693,bus,3,Vadmyra,Støbotn,Åsane terminal B,PT9M46S
3350447629,60.4632153455168,5.32122583128512,bus,4,Flaktveit snuplass,Hesjaholtet,Åsane terminal A,PT1M16S
3350361462,60.5694967042655,5.23624188266695,bus,345,Knarvik vgs.,skyss.no,Alversund skule,PT10M20S
3350361472,60.6261020433158,5.47340179793537,bus,344,Ostereidet senter,skyss.no,Ostereidet garasje,PT1M31S
3350361483,60.6264701765031,5.47375626862049,bus,343,Ostereidet skule stopp 5,skyss.no,Ostereidet garasje,-PT48S
3350361491,60.6052834913135,5.39869615808129,bus,342,Eikanger bru,Myking,Eikanger bru,-PT28M2S
3350324146,59.7364203538746,5.34551750868559,bus,552,Kulleseidkanalen sør,Gassasundet,Gassasundet,PT38S
3350324148,59.7972561232746,5.20549236796796,bus,552,Svortland terminal D,Langevåg,Svortland terminal D,-PT1H51M49S
3350324145,59.7972034849226,5.20456918515265,bus,552,Svortland terminal D,Kuleseidkanalen,Svortland terminal D,-PT37M30S
3350324150,59.7941931243986,5.17930713482201,bus,552,Langevåg kai,Svortland,Svortland terminal D,PT23S
3350447621,60.3652951028198,5.22583214566112,bus,3,Støbotn,Vadmyra,Vadmyra,PT19S
3350447603,60.3646869957447,5.22528832778335,bus,5,Fyllingsdalen terminal K,skyss.no,Vadmyra,-PT4M16S
3350387046,60.3197999764234,5.35239997319877,bus,29,Arna terminal B,Nesttun terminal,Nesttun terminal D,-PT2M27S
3350447612,60.4625324718654,5.37055014632642,bus,4,Flaktveit snuplass,Hesjaholtet,Flaktveit snuplass,-PT12M35S
3350447615,60.4709064122289,5.32799505628645,bus,4,Hesjaholtet,Flaktveit,IKEA,PT6M49S
3350447625,60.4623356647789,5.29442762956023,bus,3,Støbotn,Vadmyra,Spondalen,-PT26S
3350447604,60.3846925031394,5.31787080690265,bus,5,Sletten,Fyllingsdalen terminal,Gyldenpris,PT2M31S
3350447627,60.4828164260834,5.38431851193309,bus,3,Vadmyra,skyss.no,Garasje Haukås,-PT5M52S
3350447616,60.3449384775013,5.26043490506709,bus,4,Hesjaholtet,Flaktveit,Hesjaholtet,-PT39M8S
3350447606,60.3571818396449,5.29731703922153,bus,5,Fyllingsdalen terminal E,Sletten,Hamregården,PT2M24S
3350447619,60.4869425017387,5.27909528464079,bus,4,Hesjaholtet,skyss.no,Støbotn,PT2M19S
3350387047,60.3385999985039,5.50332996994257,bus,29,Nesttun terminal D,skyss.no,Lund snuplass,-PT9M43S
3350447628,60.3981970902532,5.32074219547212,bus,3,Vadmyra,Støbotn,Bontelabo,PT1M
3440189694,61.7767275497317,6.2140635587275,bus,100,Byrkjelo,Sandane,Sandane rutebilstasjon,-PT48S
3350361477,60.6353835761547,5.48942690715194,bus,345,Ostereidet senter,Andvik,Ostereidet senter,-PT2H31M57S
3350324135,59.7369285486639,5.34608747810125,bus,554,Gassasundet,skyss.no,Garasje Stord,-PT4S
3350324136,59.7942874208093,5.17917528748512,bus,554,Gassasundet,skyss.no,Svortland terminal B,PT34M36S
3350324156,59.7384180128574,5.23242350667715,bus,552,Våge skule,Svortland,Kulleseidkanalen sør,-PT1M23S
3350447580,60.4828248079866,5.38432530127466,bus,39,Viddalen,skyss.no,Garasje Haukås,-PT6M38S
3350447642,60.3485921490937,5.28450018726289,bus,4,Hesjaholtet,Flaktveit,Fyllingsdalen terminal J,PT27S
3350447654,60.4364820197225,5.32164693810046,bus,3,Vadmyra,Støbotn,Åsane terminal B,PT15S
3350324163,59.7942403145134,5.17918509431183,bus,552,Svortland skule til Mækjebakken,skyss.no,Svortland terminal B,PT3M41S
3350447653,60.4044932406396,5.32105475664139,bus,3,Støbotn,Vadmyra,Skutevikstorget,PT1M46S
3350447636,60.3884915169328,5.34176325425506,bus,5,Sletten,Fyllingsdalen terminal,Stadsporten,PT40S
3350447645,60.3901854157448,5.32440324313939,bus,4,Hesjaholtet,Flaktveit,Festplassen M,-PT1M30S
3350387080,60.2618999686092,5.34372000955045,bus,22,Lagunen terminal I,skyss.no,GARASJE Fana Bussdepot,-PT14S
3350447648,60.3975445590913,5.32195748761296,bus,4,Hesjaholtet,Flaktveit,Bryggen B,PT6M27S
3350447657,60.4246501252055,5.30426278710365,bus,3,Støbotn,Vadmyra,Handelshøyskolen,-PT2M19S
3350447649,60.3452609293163,5.26027120649815,bus,4,Hesjaholtet,Flaktveit,Allestadhaugen,-PT4M50S
3350361442,60.7544433977455,5.36825845018029,bus,345,Sandnes skule,Ådnekvam,Sandnes skule,-PT3H12M34S
3350361438,60.8287900406867,5.57434497401118,bus,346,Andås kryss,skyss.no,Haukeland,PT30M59S
3350447573,60.4636353626847,5.32190132886171,bus,39,Viddalen,skyss.no,Åsane terminal E,PT5M39S
3350324136,59.7962630353868,5.18485360778868,bus,555,Svortland terminal B,skyss.no,Garasje Bømlo,PT4M10S
3350447640,60.4670683387667,5.34435586072505,bus,4,Flaktveit snuplass,Hesjaholtet,Industrihuset,-PT48S
3350324146,59.7962305974215,5.18462972715497,bus,554,Svortland terminal E,skyss.no,Garasje Bømlo,-PT11S
3350324167,59.7961865924299,5.18449058756232,bus,552,Svortland terminal D,skyss.no,Garasje Bømlo,PT44S
3350447630,60.3451115638018,5.26040791533887,bus,4,Flaktveit snuplass,Hesjaholtet,Hesjaholtet,-PT1M40S
3350447623,60.3487850166857,5.28669926337898,bus,5,Sletten,Fyllingsdalen terminal,Fyllingsdalen terminal K,-PT3M39S
3350447622,60.3645870834589,5.36584278568625,bus,5,Sletten,Fyllingsdalen terminal,Langhaugen,PT7S
3350387023,60.2986999601126,5.32790997996926,bus,29,Nesttun terminal D,skyss.no,Lagunen terminal F,PT28S
3350447635,60.4828079603612,5.3843264747411,bus,4,Hesjaholtet,skyss.no,Garasje Haukås,-PT8M7S
3350447624,60.3720541018993,5.3595545142889,bus,5,Fyllingsdalen terminal E,Sletten,Fridalen,PT1M26S
3350387021,60.4202000051737,5.46436996199191,bus,29,Arna terminal B,Nesttun terminal,Bommane,-PT1M53S
3350447647,60.3716784249991,5.25209658779204,bus,3,Vadmyra,Støbotn,Lyngbø rv. 555 B,PT1M39S
3350447646,60.4750650934875,5.26464773342013,bus,3,Vadmyra,Støbotn,Kollbudalen,PT4M38S
3350387026,60.2899999637157,5.34873004071414,bus,29,Nesttun terminal D,skyss.no,Smørås snuplass,-PT3M33S
3350387029,60.3199999686331,5.35223996266723,bus,29,Arna terminal B,Nesttun terminal,Nesttun terminal D,PT48S
3350361481,60.7463079225272,5.174002898857,bus,342,Lindås senter,skyss.no,Fanebust garasje,-PT4M8S
3350324149,59.7971936780959,5.20518123172224,bus,555,Svortland skule til Nese,Økland/Gåsland,"Svortland skule, til Nese",-PT2H12M1S
3350361486,60.7842087093741,4.93086526170373,bus,342,Austrheim vgs.,skyss.no,Mastrevik garasje,PT2M26S
3350361469,60.6263949070126,5.47369373962283,bus,344,Ostereidet skule stopp 5,skyss.no,Ostereidet garasje,-PT3M23S
3350324156,59.7364765964448,5.3455376252532,bus,554,Mosterhamn kai,Gassasundet,Gassasundet,-PT36S
3350324147,59.7972402814776,5.20548725500703,bus,555,Svortland terminal B,Hiskjo,Svortland terminal B,-PT2H43M21S
3350324148,59.7941924538463,5.17922918312252,bus,555,Svortland terminal B,Halleråker,Svortland terminal B,-PT1M50S
3350361469,60.6258268654346,5.47232975251973,bus,340,Knarvik terminal C,Ostereidet,Ostereidet senter,-PT5M14S
3350387072,60.3203000407666,5.35238002426922,bus,29,Nesttun terminal D,skyss.no,PAUSE Nesttun,PT30M20S
3350453009,60.3452807106078,5.36381243728101,bus,6,Birkelundstoppen A,Lyngbø,Kolstibotn,-PT7M18S
3350453008,60.3644663002342,5.36594906821847,bus,6,Birkelundstoppen A,Lyngbø,Langhaugen,PT1M34S
3350453005,60.3902604337782,5.32441698946059,bus,6,Lyngbø D,Birkelundstoppen,Festplassen N,-PT1M38S
3350453007,60.3845929261297,5.30651165172458,bus,6,Birkelundstoppen A,Lyngbø,Damsgård hovedgård,PT5M22S
3350453006,60.3781051654369,5.36026949062943,bus,6,Birkelundstoppen A,Lyngbø,Statsarkivet,PT21S
3350135723,59.8594146408141,5.77313236892223,bus,760,Husnes ungdomsskule,skyss.no,Garasje Husnes,-PT1M35S
3350453003,60.3890190739185,5.28666263446212,bus,6,Lyngbø D,Birkelundstoppen,Laksevåg senter,PT47S
3350447529,60.4631040338427,5.32101024873555,bus,38,Hetlebakken snuplass,Åsane terminal,Åsane terminal F,PT4M52S
3350447537,60.4632189497352,5.32099985517561,bus,37,Breistein snuplass,Åsane terminal,Åsane terminal F,PT2M42S
3350447558,60.5159105267376,5.28385863639414,bus,35,Åsane terminal D,Salhus - Klauvaneset,"Klauvaneset, Tellevikv.",PT3M44S
3350324159,59.9198434688151,5.32287689857185,bus,680,Rimbareid skule,skyss.no,Garasje Fitjar,-PT2M50S
3350447554,60.4631531517953,5.32103799283504,bus,35,Hordvikneset,Åsane terminal,Åsane terminal F,PT1M42S
3350361472,60.6261509936303,5.4734637401998,bus,340,Knarvik terminal C,Ostereidet,Ostereidet senter,-PT24S
3350447541,60.5162592977285,5.28288901783526,bus,36,Bergen busstasjon K,Hordvik-Klauvaneset,"Klauvaneset, Tellevikv.",PT3M33S
3350447542,60.5162849463522,5.28289195150137,bus,36,Åsane terminal D,Hordvik-Klauvaneset,"Klauvaneset, Tellevikv.",-PT34S
3350361468,60.5580291710794,5.26987326331437,bus,341,Knarvik vgs.,skyss.no,Knarvik garasje,-PT4M32S
3350447559,60.4630655609071,5.32102692872286,bus,34,Langarinden,Åsane terminal,Åsane terminal F,PT52S
3350135705,60.0541962403804,6.01918146014214,bus,760,Husnes sentrum sør,Odda,Årsnes kai,PT1M25S
3350447542,60.5162777379155,5.28293134644628,bus,35,Klauvaneset Tellevikv.,Åsane terminal,Sveisdalen,-PT5M52S
3350447513,60.4630301892757,5.32100119628012,bus,38,Hetlebakken snuplass,Åsane terminal,Åsane terminal F,PT2M40S
3350447533,60.4632303491235,5.32178171910346,bus,36,Åsane terminal D,Hordvik-Klauvaneset,Åsane terminal D,-PT22M4S
3350361484,60.6258429586887,5.47223495319486,bus,340,Ostereidet senter,Knarvik terminal,Ostereidet senter,-PT1H44M8S
3350447541,60.4630516469479,5.32101184129715,bus,35,Klauvaneset Tellevikv.,Åsane terminal,Åsane terminal F,PT56S
3350361461,60.6264431867748,5.47371477819979,bus,342,Ostereidet skule stopp 1,skyss.no,Ostereidet garasje,PT2M4S
3350361487,60.5932601541281,5.40044747292995,bus,340,Ostereidet senter,Knarvik terminal,Fyllingsnes sentrum,PT6M6S
3350387050,60.3473999910057,5.41912998072803,bus,29,Arna terminal B,Nesttun terminal,Grimen,PT5M43S
3350447611,60.4846478719264,5.3830816783011,bus,3,Støbotn snuplass,skyss.no,Garasje Haukås,-PT10M22S
3350387055,60.3197999764234,5.35236996598542,bus,29,Arna terminal B,Nesttun terminal,Nesttun terminal D,-PT1M27S
3350447613,60.4827814735472,5.38435748778284,bus,3,Støbotn snuplass,skyss.no,Garasje Haukås,-PT12M23S
3350447605,60.4071004316211,5.32219176180661,bus,4,Flaktveit snuplass,Hesjaholtet,Skutevikstorget,-PT36S
3350447617,60.4865851812065,5.27671566233039,bus,3,Støbotn,Vadmyra,Toppe,PT49S
3350447607,60.4626123514026,5.37048837170005,bus,4,Flaktveit snuplass,Hesjaholtet,Breimyra,-PT2M46S
3350135726,60.2849936205894,6.24586508609354,bus,980,Jondal skule,Samland,Jondal skule,-PT2H41M34S
3350447609,60.3893778193742,5.3219816274941,bus,4,Flaktveit snuplass,Hesjaholtet,Møhlenpris,PT50S
3350447619,60.4869648814201,5.27837787754834,bus,3,Støbotn,Vadmyra,Støbotn,-PT29M10S
3350135724,60.0701116304845,6.54673308134079,bus,980,Utne,Odda,Odda busstasjon,PT2M6S
3350447552,60.4629336297512,5.32153537496924,bus,37,Åsane terminal D,Breistein,Rollandskrysset,PT25S
3350447603,60.3819731622934,5.3137650154531,bus,3,Støbotn,Vadmyra,Lyngbø rv. 555 A,PT2M3S
3350447608,60.4828401468694,5.38431750610471,bus,3,Støbotn snuplass,skyss.no,Garasje Haukås,-PT4M24S
3350447558,60.4828136600554,5.38432823494077,bus,36,Bergen busstasjon K,skyss.no,Garasje Haukås,-PT2M20S
3350453010,60.3794937115163,5.36040569655597,bus,6,Lyngbø D,Birkelundstoppen,Haukeland sjukehus nord D,PT9S
3350447549,60.5236523039639,5.30114480294287,bus,37,Åsane terminal F,skyss.no,Hordvikneset,PT3M55S
3350447546,60.4631701670587,5.32101519405842,bus,37,Breistein snuplass,Åsane terminal,Åsane terminal F,PT5M13S
3350447542,60.4634134937078,5.32099658623338,bus,37,Breistein snuplass,Åsane terminal,Åsane terminal F,PT34S
3350361451,60.5190656427294,5.24010577239096,bus,341,Knarvik vgs.,skyss.no,Frekhaug terminal,PT3M30S
3440189688,60.9300193749368,5.133659793064,bus,361,Brandanger,Dalsøyra,Dalsøyra,PT4M5S
3350361462,60.5469692498446,5.28840162791312,bus,340,Knarvik terminal C,Ostereidet,Gjervik ytre,-PT10M
3350324182,59.9195205979049,5.32369782216847,bus,680,Rimbareid skule,skyss.no,Garasje Stord,PT21M49S
3350387070,60.2615999802947,5.30383002944291,bus,65,Lagunen terminal I,skyss.no,Hordnes snuplass,PT10M41S
3350135730,60.2845764532685,6.24599835835397,bus,981,Jondal skule,skyss.no,Garasje Jondal,PT24M10S
3350377438,60.3885999787599,5.332269994542,bus,460E,Ågotnes terminal A,Bergen busstasjon,Bergen busstasjon U,-PT10M41S
3350135751,60.0884884502739,6.52788545005023,bus,760,Årsnes kai,Odda,Tokheimsvegen,-PT1M41S
3350361506,60.5461252760142,5.27989936061203,bus,300E,Knarvik terminal A,skyss.no,Knarvik garasje,-PT1M9S
3350361501,60.3885532077402,5.33304439857602,bus,300E,Knarvik terminal A,Bergen busstasjon,Bergen busstasjon J,-PT4M37S
3350387031,60.2981999795884,5.3279600199312,bus,22,Lagunen terminal J,Fyllingsdalen terminal,Lagunen terminal J,-PT37M48S
3350387032,60.2916999813169,5.28428996913135,bus,22,Lagunen terminal I,skyss.no,Sandslihaugen,-PT3M22S
3350361503,60.545199746266,5.28208552859724,bus,300E,Bergen busstasjon J,skyss.no,Knarvik garasje,-PT6M49S
3350135756,59.9298988189548,5.84803934209049,bus,760,Årsnes kai,Husnes,Steinsletta,PT3M51S
3350135757,59.8594364337623,5.77314980328083,bus,760,Husnes sentrum sør,Odda,Onarheimselva,-PT6M49S
3350453404,60.3387548122555,5.32258135266602,bus,40E,Bergen busstasjon Q,skyss.no,Bergveien,PT17M5S
3350377427,60.3617000207305,5.12664003297687,bus,460E,Bergen busstasjon U,skyss.no,GARASJE Straume,-PT25M7S
3350377422,60.3883999865502,5.33227996900678,bus,460E,Ågotnes terminal A,Bergen busstasjon,Bergen busstasjon U,-PT26M18S
3350387083,60.1906999759376,5.34825000911951,bus,62,Lagunen terminal E,Drange,Eidsvik snuplass,-PT5S
3350387061,60.2979999873787,5.32846000045538,bus,64,Lagunen terminal F,Hordnes,"Rådal, Fanavegen",-PT1M43S
3350135618,60.0682806875557,6.55193815939128,bus,995,Odda busstasjon,skyss.no,Garasje Odda,PT40S
3350135617,60.06825260818,6.55194293707609,bus,995,Odda US/VGS,skyss.no,Garasje Odda,PT3S
3350324130,59.8653639480472,5.34943152219057,bus,680,Fitjar terminal B,Rydland,Rydland,PT8S
3350387070,60.296599958092,5.32698000781238,bus,64,Hordnes snuplass,Lagunen terminal,Lagunen terminal I,PT10M33S
3350387060,60.2618999686092,5.34371003508568,bus,65,Lagunen terminal I,skyss.no,GARASJE Fana Bussdepot,-PT1M11S
3350135757,59.8584380652755,5.7542303390801,bus,762,Husnes helsesenter,skyss.no,Husnes sentrum sør,-PT2M5S
3350387120,60.2996000088751,5.32838003709912,bus,610,Nesttun terminal D,skyss.no,Lagunen terminal F,PT4M
3350387121,60.2013999782503,5.44345996342599,bus,610,Nesttun terminal D,skyss.no,GARASJE Os Garasje,-PT47S
3350387127,60.2034999802709,5.44663997367024,bus,610,Osøyro terminal B,skyss.no,GARASJE Os Garasje,-PT1M54S
3350377447,60.3925999905914,5.11352998204529,bus,460E,Bergen busstasjon U,skyss.no,Anglavika snuplass,PT4M26S
3350387124,60.2603000309318,5.43583997525275,bus,610,Osøyro terminal A,Nesttun terminal,Fortun,PT2M23S
3350387125,60.3865999728441,5.33492999151349,bus,610,Nesttun terminal D,skyss.no,Bergen busstasjon L,PT25S
3350324142,59.9178279563785,5.3176108840853,bus,680,Rimbareid skule,skyss.no,Fitjar terminal A,PT54S
3350387128,60.1846999581903,5.4685699660331,bus,610,Osøyro terminal A,Nesttun terminal,Osøyro terminal A,-PT11M48S
3350387129,60.286100031808,5.3957599774003,bus,610,Nesttun terminal C,Osøyro,Nedre Sandven,PT1M14S
3350387062,60.297799995169,5.32825003378093,bus,22,Fyllingsdalen terminal D,Lagunen terminal,Lagunen terminal I,-PT1M58S
3350135735,60.0687269400805,6.55247200280428,bus,985,Odda busstasjon,skyss.no,Garasje Odda,-PT1M48S
3350135708,60.3986000083387,5.74508333578706,bus,940,Samnanger ungdomsskule,skyss.no,Garasje Samnanger,-PT1M33S
3350387112,60.1853000186384,5.46900004148483,bus,610,Nesttun terminal C,Osøyro,Osøyro terminal B,-PT3M37S
3350387110,60.3865999728441,5.33486000262201,bus,610,Nesttun terminal D,skyss.no,Bergen busstasjon L,PT2M3S
3350387116,60.3211000096053,5.35336003638804,bus,610,Nesttun terminal C,Osøyro,Nesttun terminal C,-PT19M25S
3440189696,61.6049533523619,5.17618604935706,bus,250,Florø terminal,Førde,Klavelandet,PT7M10S
3350447591,60.4828238021582,5.38429286330938,bus,39,Viddalen,skyss.no,Garasje Haukås,-PT3M14S
3350387071,60.3262999746948,5.27370002120733,bus,22,Lagunen terminal J,Fyllingsdalen terminal,Sandeide terminal A,PT3M18S
3350135775,59.8528871499002,5.70822156965733,bus,762,Husnes sentrum nord,Ringbuss Husnes,"Våge, Sunde",PT6M6S
3350135735,60.0959946960211,6.52993658557534,bus,984,Odda barneskole,skyss.no,Eitrheim,PT3M25S
3350135724,60.0690443627536,6.55261977575719,bus,985,Odda busstasjon Eitrheimsstopp,Eitrheim,Odda busstasjon Eitrheimsstopp,-PT15M26S
3350387104,60.2034999802709,5.44672002084553,bus,610,Osøyro terminal B,skyss.no,GARASJE Os Garasje,-PT1M15S
3350387109,60.3197999764234,5.35239997319877,bus,610,Osøyro terminal A,Nesttun terminal,Nesttun terminal D,PT3M51S
3350447586,60.4826949723065,5.38443334400654,bus,39,Viddalen,skyss.no,Garasje Haukås,-PT7M41S
3440189674,61.4524692669511,5.85420423187315,bus,240,Stavang,Naustdal-Førde,Førde rutebilstasjon,PT42S
3350447585,60.4828308429569,5.38429797627032,bus,39,Viddalen,skyss.no,Garasje Haukås,-PT1M24S
3350447583,60.482902508229,5.38423452526331,bus,39,Viddalen,skyss.no,Garasje Haukås,PT21M21S
3350135751,60.0680747441947,6.54224398545921,bus,985,Askane,Skulerute,Odda barneskole,PT1M27S
3350135766,60.0683160591871,6.55169432982802,bus,984,Odda busstasjon,Odda,Odda busstasjon,-PT41M36S
3350135765,60.0547297485173,6.54723121784627,bus,984,Odda busstasjon,Odda,Brucehagen,PT19S
3350387043,60.2978999912739,5.32826000824571,bus,22,Fyllingsdalen terminal D,Lagunen terminal,Lagunen terminal I,-PT5M12S
3350387046,60.2978999912739,5.32826998271048,bus,22,Fyllingsdalen terminal D,Lagunen terminal,Lagunen terminal I,-PT4M12S
3350387048,60.297799995169,5.32825003378093,bus,22,Fyllingsdalen terminal D,Lagunen terminal,Lagunen terminal I,PT2M16S
3350387054,60.3144000191242,5.28611999005079,bus,22,Fyllingsdalen terminal D,Lagunen terminal,Markaneset,PT20S
3350135698,60.6290866713971,6.41186163760722,bus,990,Voss stasjon E,Odda,Palmafossen,-PT1M38S
3350135697,60.0683667697012,6.55216027982533,bus,990,Odda US/VGS,skyss.no,Garasje Odda,PT3M25S
3350387052,60.2618999686092,5.34365999512374,bus,22,Lagunen terminal I,skyss.no,GARASJE Fana Bussdepot,PT2M38S
3350134008,59.861166626215,5.75425162911415,bus,760,Seldal,Husnes,Husnes sentrum sør,PT49S
3350387056,60.2974000107497,5.32750999554992,bus,22,Lagunen terminal J,Fyllingsdalen terminal,Søråsskiftet,-PT7M56S
3350387059,60.2968000341207,5.32721000723541,bus,22,Fyllingsdalen terminal D,Lagunen terminal,Lagunen terminal I,-PT1M42S
3440189678,61.5999651979655,5.02535194158554,bus,260,Davik,Svelgen-Florø,Florø terminal,PT2M40S
3350387012,60.2877999655902,5.26153997518122,bus,75,Nesttun terminal D,skyss.no,Birkelandsskiftet C,-PT5M33S
3350387035,60.2581000328064,5.24104999378324,bus,73,Nesttun terminal D,skyss.no,Hjellestad snuplass,-PT3M10S
3350387055,60.2952000126243,5.38147998042405,bus,71,Nesttun terminal D,skyss.no,Valle,PT36S
3350387058,60.3198999725282,5.35232998430729,bus,71,Riple snuplass,Nesttun terminal,Nesttun terminal D,-PT14S
3350453116,60.3778444044292,5.35281244665384,bus,12,Lønborglien snuplass,Lægdene - Montana,Haukeland sjukehus nord D,PT1M22S
3350377431,60.3714999742806,5.21498001180589,bus,424,Ramsvik snuplass,Storavatnet term.,Storavatnet terminal B,-PT2M28S
3350135766,60.070660058409,6.54720892198384,bus,985,Eitrheim,Odda,Odda busstasjon,-PT2M13S
3350135765,60.0707536004484,6.5470832772553,bus,985,Eitrheim,Odda,Odda busstasjon,-PT4M2S
3350453113,60.3909242805094,5.32368617132306,bus,13,Festplassen M,skyss.no,Olav Kyrres gate J,-PT12S
3350387072,60.3162000328302,5.35550999455154,bus,70,Nesttun terminal C,Nesttun terminal,Nesttun terminal D,PT28S
3350387023,60.3207000251859,5.35258999094367,bus,75,Nesttun terminal D,skyss.no,PAUSE Nesttun,PT2M57S
3350387047,60.2616999763995,5.34397004172206,bus,73,Kaland skole (rundkjøring),skyss.no,GARASJE Fana Bussdepot,-PT5M44S
3350387035,60.3385999985039,5.50331002101302,bus,74,Kalandseidet,skyss.no,Lund snuplass,PT47S
3350387045,60.2795000374317,5.40691000409424,bus,73,Kaland skole,Bontveit,"Kaland, Bontveitvegen",-PT1M58S
3350453128,60.355591122061,5.36796751432121,bus,12,Wiers-Jenssens vei,Lønborglien,Wiers-Jenssens vei,-PT3H16M8S
3350453148,60.3560300823301,5.36812786012888,bus,10,Garasje Mannsverk,skyss.no,Mindeveien snuplass,-PT1M43S
3350453117,60.3900268301368,5.33295278437436,bus,13,Festplassen M,skyss.no,Bergen busstasjon M,-PT35M37S
3350377376,60.2673000097275,5.10670996271074,bus,475,Sotra vgs. Sund,skyss.no,Skaganeset snuplass,PT27S
3350135736,60.0228832941502,6.55730123631656,bus,725,Garasje Odda,skyss.no,Liamyrane snuplass,-PT10M24S
3350377441,60.2687000390142,5.07420997135341,bus,420,Spildepollen skule,skyss.no,Skogsskiftet terminal A,PT1M18S
3350387030,60.3197999764234,5.35242998041213,bus,71,Riple snuplass,Nesttun terminal,Nesttun terminal D,PT2M2S
3350387043,60.3112999722362,5.37572999484837,bus,70,Nesttun terminal C,Nesttun terminal,Elveneset nord,PT7S
3350387042,60.3199999686331,5.35226996988058,bus,70,Nesttun terminal C,Nesttun terminal,Nesttun terminal D,-PT24S
3350387018,60.2617999725044,5.34394003450871,bus,73,Kaland skole (rundkjøring),skyss.no,GARASJE Fana Bussdepot,-PT1M44S
3350387015,60.2678999863565,5.43041001074016,bus,73,Kaland skole (rundkjøring),skyss.no,Kalandseidet,PT11M23S
3350387006,60.2697999961674,5.37090998142958,bus,74,Sandven,skyss.no,Vågsbro,-PT4M7S
3350453114,60.3561054356396,5.36817672662437,bus,10,Mindeveien snuplass,skyss.no,Garasje Mannsverk,-PT2M24S
3350453123,60.3561425674707,5.36824570968747,bus,10,Wergeland C,skyss.no,Garasje Mannsverk,-PT8M28S
3350453113,60.3503075893968,5.28809593990445,bus,11,Tollbodallm. i Strandgt,skyss.no,Fyllingsdalen terminal E,-PT15S
3350453101,60.3720914013684,5.21275931037962,bus,12,Mannsverk garasje,skyss.no,Storavatnet terminal B,-PT48S
3350387050,60.3198999725282,5.35229000262916,bus,70,Sørlien,Øvsttun-Nesttun terminal,Nesttun terminal D,-PT1M40S
3350387015,60.300299981609,5.37674998864532,bus,74,Nesttun terminal D,skyss.no,Kirkebirkeland,PT2M40S
3350387042,60.3207000251859,5.3526299726218,bus,71,Nesttun terminal D,skyss.no,PAUSE Nesttun,PT1M15S
3350387058,60.2877999655902,5.26156998239458,bus,70,Nesttun terminal D,skyss.no,Birkelandsskiftet C,-PT3M24S
3350453105,60.389253180474,5.32765039242804,bus,12,Wiers-Jenssens vei,Lønborglien,Festplassen M,-PT15S
3350453128,60.3548660036176,5.33613153733313,bus,10,Wergeland C,skyss.no,Grønnestølen,-PT2M20S
3350453129,60.356082636863,5.36819499917328,bus,10,Wergeland C,skyss.no,Garasje Mannsverk,-PT3M41S
3350377312,60.5896000284702,4.83906003646553,bus,479,Ågotnes terminal B,skyss.no,Tjeldstø terminal,-PT18S
3350135543,60.6594133190811,6.43596665002406,bus,964,Voss Tinghus,skyss.no,Garasje Voss,PT16M30S
3350377310,60.3599000070244,5.12320999056101,bus,479,Blomvåg terminal,Straume terminal,Straume terminal C,PT3S
3350377316,60.4052999988198,4.99656999483705,bus,479,Hellesøy kai,Øygarden US,Ågotnes terminal B,PT2M15S
3350377313,60.3617000207305,5.12667004019022,bus,479,Straume terminal C,skyss.no,GARASJE Straume,-PT5M21S
3350387042,60.2494000364095,5.44123004190624,bus,76,Nesttun terminal D,skyss.no,Tømmernes,-PT32S
3350377459,60.3613000363111,5.12613996863365,bus,465,Straume terminal C,skyss.no,GARASJE Straume,PT9S
3350377318,60.6611000094563,4.80151003226638,bus,479,Hellesøy kai,Ågotnes terminal,Kalfaret,PT1M30S
3350135739,60.5651183333248,6.90566168166697,bus,945,Ulvik sentrum,skyss.no,Garasje Ulvik,PT1M30S
3350324181,59.544088030234,5.35369791090488,bus,633,Sveio sentrum,skyss.no,Sveio,PT15M55S
3350387046,60.289799971506,5.34891997464001,bus,76,Smørås snuplass,Nesttun terminal,Nøttveitlia,-PT1M42S
3350387047,60.3197999764234,5.35241003148258,bus,76,Smørås snuplass,Nesttun terminal,Nesttun terminal D,-PT2M22S
3350377322,60.4733000323176,4.95153998024762,bus,479,Ågotnes terminal B,Hellesøy,"Toftøy, hyttegrenda",PT2M21S
3350387142,60.2601000387222,5.34378999844193,bus,67,Søråshøgda snuplass,Bergen busstasjon,Søråshøgda snuplass,-PT3H19M49S
3350387143,60.2618999686092,5.34369997680187,bus,67,Bergen busstasjon L,skyss.no,GARASJE Fana Bussdepot,-PT2M15S
3350387140,60.2617999725044,5.34373995848,bus,67,Bergen busstasjon L,skyss.no,GARASJE Fana Bussdepot,-PT2M42S
3350387146,60.3872000332922,5.33555000089109,bus,67,Søråshøgda snuplass,Bergen busstasjon,Bergen busstasjon L,PT3M22S
3350447724,60.4204876720905,5.46509575098753,bus,97,Garnesstølen,skyss.no,Arna terminal A,-PT1M1S
3350387074,60.2986999601126,5.32779003493488,bus,74,Kaland skole (rundkjøring),skyss.no,Lagunen terminal F,PT10M12S
3350387145,60.3874000255018,5.33551999367774,bus,67,Søråshøgda snuplass,Bergen busstasjon,Bergen busstasjon L,-PT22S
3350387058,60.3198999725282,5.35231003537774,bus,76,Smørås snuplass,Nesttun terminal,Nesttun terminal D,-PT1M36S
3350387149,60.3885999787599,5.33341999165714,bus,67,Søråshøgda snuplass,Bergen busstasjon,Bergen busstasjon L,PT2M8S
3350387118,60.2968000341207,5.3271499928087,bus,22,Fyllingsdalen terminal D,Lagunen terminal,Lagunen terminal I,-PT1M29S
3350453104,60.3285946883261,5.2931790612638,bus,10,Wergeland C,skyss.no,Bønes senter,PT2M36S
3350453109,60.3607116267085,5.35078243352473,bus,10,Mindeveien snuplass,skyss.no,Wergeland C,-PT3M3S
3350377308,60.3617000207305,5.12664003297687,bus,23,Bergen Lufthavn,skyss.no,GARASJE Straume,PT27M14S
3350377432,60.3617000207305,5.12667004019022,bus,465,Straume terminal C,skyss.no,GARASJE Straume,-PT2M42S
3350453510,60.3874679189175,5.33524431288242,bus,14,Fyllingsdalen terminal E,Bergen busstasjon,Bergen busstasjon L,-PT1M18S
3350377378,60.405200002715,4.99686000868678,bus,471,Solsvik kai,Ågotnes terminal,Ågotnes terminal B,-PT1M58S
3350377376,60.4049000144005,4.99729997478426,bus,471,Aker CCB,skyss.no,Ågotnes terminal A,-PT2M56S
3350377436,60.4052999988198,4.99706997536123,bus,465,Straume terminal C,Ågotnes terminal,Ågotnes terminal B,-PT1M59S
3350387113,60.3468000143766,5.33735001459718,bus,67,Søråshøgda snuplass,Bergen busstasjon,Fjøsangerkrysset,PT5M26S
3350387021,60.3197999764234,5.35235999152064,bus,76,Smørås snuplass,Nesttun terminal,Nesttun terminal D,PT40S
3350387031,60.3197999764234,5.35241003148258,bus,75,Skiparvik snuplass,Nesttun terminal,Nesttun terminal D,-PT48S
3350387026,60.3198999725282,5.35232998430729,bus,76,Smørås snuplass,Nesttun terminal,Nesttun terminal D,PT13S
3350387029,60.3196999803185,5.35246996209025,bus,76,Smørås snuplass,Nesttun terminal,Nesttun terminal D,-PT25S
3350453503,60.3561341017485,5.36824495531619,bus,15,Festplassen M,skyss.no,Garasje Mannsverk,-PT59S
3350453513,60.3871726244688,5.33536375500262,bus,14,Fyllingsdalen terminal E,Bergen busstasjon,Bergen busstasjon L,PT1M14S
3350453504,60.3325372841209,5.30202699825168,bus,15,Bergveien,Bergen sentrum,Tjørnhaugen,PT30S
3350453514,60.328520424664,5.29324083589017,bus,14,Fyllingsdalen terminal K,skyss.no,Bønes senter,PT4M35S
3350135773,60.0680844672024,6.55206019990146,bus,725,Odda busstasjon,skyss.no,Garasje Skare,PT38M54S
3350453509,60.390965519473,5.32524864189327,bus,15,Festplassen M,skyss.no,Olav Kyrres gate G,PT4M23S
3350453507,60.3899986669421,5.33287147991359,bus,15,Festplassen M,skyss.no,Bergen busstasjon H,-PT36S
3350453508,60.3900419175625,5.33291716128588,bus,15,Festplassen M,skyss.no,Bergen busstasjon H,-PT3M25S
3350135543,60.6322083435953,6.42015167512,bus,965,Voss stasjon G,Sentrumsringen,Voss sjukehus,PT1M45S
3350453512,60.3294048830867,5.30108219012618,bus,15,Olav Kyrres gate G,Bønes,Bønes skole,PT21S
3350453513,60.3502680268139,5.28804891742766,bus,15,Festplassen M,skyss.no,Fyllingsdalen terminal E,PT3M17S
3350453511,60.3560940362513,5.36821779794991,bus,15,Bergveien,skyss.no,Garasje Mannsverk,-PT3M15S
3350135746,60.5651766713709,6.90640163607895,bus,945,Hjeltnes snuplass,skyss.no,Garasje Ulvik,PT8M27S
3350387031,60.3197999764234,5.35239997319877,bus,76,Smørås snuplass,Nesttun terminal,Nesttun terminal D,-PT12S
3350377307,60.5665000062436,4.80946001596749,bus,479,Ågotnes terminal B,skyss.no,Herdlevær snuplass,-PT5M13S
3350387034,60.2986999601126,5.3278199583292,bus,76,Nesttun terminal D,skyss.no,Lagunen terminal F,-PT40S
3350387123,60.387300029397,5.33551999367774,bus,67,Søråshøgda snuplass,Bergen busstasjon,Bergen busstasjon L,-PT1M3S
3350387056,60.2986999601126,5.32783001661301,bus,74,Kalandseidet,skyss.no,Lagunen terminal F,-PT2M56S
3350453514,60.3900032769889,5.33289285376668,bus,15,Festplassen M,skyss.no,Bergen busstasjon M,-PT33S
3350135741,60.528642386198,6.72697224654257,bus,945,Hjeltnes snuplass,Granvin,Granvin terminal,-PT4S
3350324162,59.5448666252196,5.35822631791234,bus,631,Sveio skule,skyss.no,Sveio,PT2M2S
3350453136,60.409624138847,5.32652612775564,bus,18,Formanns vei,Barliveien,Kirkegaten,-PT42S
3350324165,59.6052371989936,5.48352076672018,bus,631,Ulveraker sør,skyss.no,"Førde skule, E39",PT7M38S
3350377315,60.2614999841899,5.09100998751819,bus,475,Blomvåg terminal,Sotra VGS,Sotra vgs. Sund,PT6M20S
3350447528,60.4634048603475,5.32175481319427,bus,34,Åsane terminal C,Langarinden,Rollandskrysset,-PT1M44S
3350447538,60.4634036868811,5.3210265096277,bus,33,Rolland snuplass,Åsane terminal,Åsane terminal F,-PT17S
3350447518,60.4631249886006,5.32100966200233,bus,35,Klauvaneset Tellevikv.,Åsane terminal,Åsane terminal F,PT29S
3350447530,60.4633581731468,5.32174869440496,bus,33,Åsane terminal D,Rolland,Barkaleitet,-PT6M54S
3350324169,59.6091419924051,5.47570103779435,bus,631,Sveio skule,Førde skule,Førde sentrum,PT6M12S
3350324165,59.544878192246,5.35832623019814,bus,632,Sveio skule,skyss.no,Sveio,-PT1M1S
3350324162,59.5440809056163,5.35384601913393,bus,632,Vikse skule,Rophus,Vikse skule,-PT5H1M18S
3350377426,60.4052999988198,4.99706000089645,bus,465,Straume terminal C,Ågotnes terminal,Ågotnes terminal B,-PT29S
3350447518,60.4630928020924,5.32101050019264,bus,34,Langarinden,Åsane terminal,Åsane terminal F,PT2M17S
3350453184,60.3492856677622,5.28765060938895,bus,14,Bergen busstasjon M,Fyllingsdalen terminal,Fyllingsdalen terminal K,PT1M40S
3350447556,60.4634131584316,5.32100354321301,bus,30,Viddalen,Åsane terminal,Åsane terminal F,-PT1M4S
3350377429,60.3498999774456,5.16062999144197,bus,465,Straume terminal C,skyss.no,Brattholmen kai,-PT1M31S
3350453183,60.3867651801556,5.33297122456133,bus,14,Bergen busstasjon M,Fyllingsdalen terminal,Bergen busstasjon M,-PT18M5S
3350447527,60.4631643835455,5.32100463286042,bus,33,Rolland snuplass,Åsane terminal,Åsane terminal F,-PT6S
3350447554,60.4636568203568,5.32190166413784,bus,30,Viddalen,skyss.no,Åsane terminal E,PT2M37S
3350447515,60.4827419109643,5.38436285220087,bus,34,Langarinden,skyss.no,Garasje Haukås,PT1M29S
3350447555,60.4827739298344,5.38435681723058,bus,30,Åsane terminal F,skyss.no,Garasje Haukås,-PT1M9S
3350447523,60.4631770402193,5.32101703807712,bus,33,Rolland snuplass,Åsane terminal,Åsane terminal F,PT14S
3350324168,59.4152233097702,5.27761152014136,bus,632,Karmsund vgs,skyss.no,Sveio,PT30M33S
3350324169,59.5441425964236,5.35397266969085,bus,632,Vikse skule snuplass,Mølstrekrossen,Vikse skule snuplass,-PT4H38M1S
3350453175,60.355432620272,5.36797564476728,bus,12,Wiers-Jenssens vei,Lønborglien,Wiers-Jenssens vei,-PT34M15S
3350453115,60.3498071059585,5.27992777526379,bus,18,Formanns vei,Barliveien,Tjernet,-PT52S
3350324165,59.5874269120395,5.42916010133922,bus,633,Våga kai,skyss.no,"Rød, Øklandsvegen",PT16M44S
3350453153,60.3872224129736,5.26194389909506,bus,14,Bergen busstasjon L,skyss.no,Gravdal snuplass,-PT2M12S
3350324162,59.621835462749,5.33432632684708,bus,633,Sveio sentrum,skyss.no,Tjernagel,PT3M28S
3350377444,60.3617000207305,5.12664003297687,bus,460,Bergen busstasjon Q,skyss.no,GARASJE Straume,-PT18S
3350377443,60.3908999729902,5.32514998689294,bus,460,Ågotnes terminal A,Bergen busstasjon,Bergen busstasjon Q,-PT9M47S
3350377302,60.5164000298828,4.91007001139224,bus,474,Stegavika,Øygarden US,Øygarden ungdomsskule,-PT5S
3350377448,60.3889999631792,5.33368997275829,bus,460,Ågotnes terminal A,Bergen busstasjon,Bergen busstasjon Q,-PT2M58S
3350377307,60.4875999782234,4.94249003939331,bus,474,Rong barneskule,skyss.no,GARASJE Tjeldstø,PT36M49S
3350377447,60.3618000168353,5.12714998796582,bus,460,Ågotnes terminal A,skyss.no,Bergen busstasjon G,PT39S
3350453172,60.4069822467864,5.32227734103799,bus,12,Lønborglien snuplass,Lægdene - Montana,Sandvikstorget,PT2M19S
3350377446,60.3610999602824,5.12106003239751,bus,460,Bergen busstasjon G,Ågotnes terminal,Straume terminal D,PT2M47S
3350453150,60.3902657143772,5.32422328367829,bus,14,Bergen busstasjon L,skyss.no,Festplassen N,-PT4M11S
3350447537,60.4633804690093,5.32100815325975,bus,35,Klauvaneset Tellevikv.,Åsane terminal,Åsane terminal F,PT5M28S
3350447527,60.5189450271428,5.2959318459034,bus,36,Klauvaneset Tellevikv.,Åsane terminal,Falkangervegen,PT23S
3350447515,60.472642891109,5.3497426584363,bus,37,Åsane terminal F,skyss.no,Langarinden,-PT3M4S
3350447523,60.4630219750106,5.32102399505675,bus,36,Klauvaneset Tellevikv.,Åsane terminal,Åsane terminal F,PT3M44S
3350447524,60.4630219750106,5.32101888209581,bus,36,Klauvaneset Tellevikv.,Åsane terminal,Åsane terminal F,PT4M40S
3350447541,60.4828121513128,5.38431901484728,bus,34,Åsane terminal F,skyss.no,Garasje Haukås,-PT58S
3350447520,60.4631001781672,5.3210180439055,bus,36,Klauvaneset Tellevikv.,Åsane terminal,Åsane terminal F,-PT17S
3350447510,60.4883378371596,5.37673666141927,bus,37,Breistein snuplass,Åsane terminal,Haukåsvegen,-PT43S
3350453186,60.4357901774347,5.29140218161047,bus,12,Lønborglien snuplass,Lægdene - Montana,Lønborglien,-PT5M48S
3350377451,60.3617000207305,5.12665000744164,bus,460,Straume terminal A,skyss.no,GARASJE Straume,PT29S
3350324181,59.4662921503186,5.36714147776365,bus,632,Vikse skule snuplass,skyss.no,Eilerås,PT3M10S
3350377310,60.5365000013262,4.87836001440883,bus,474,Ovågen,Blomvåg terminal,Blomvåg terminal,-PT57S
3350377450,60.3617000207305,5.12665000744164,bus,460,Bergen busstasjon Q,skyss.no,GARASJE Straume,-PT5M36S
3350453188,60.3553047124296,5.36805342882872,bus,12,Mannsverk garasje,skyss.no,Garasje Mannsverk,PT29M57S
3350377455,60.3888999670744,5.33390002325177,bus,460,Ågotnes terminal A,Bergen busstasjon,Bergen busstasjon Q,-PT7M6S
3350377453,60.3619000129402,5.12727001681924,bus,460,Bergen busstasjon Q,skyss.no,Anglavika snuplass,-PT21M24S
3350377459,60.405200002715,4.99686998315156,bus,460,Bergen busstasjon G,Ågotnes terminal,Ågotnes terminal A,-PT2M8S
3350453173,60.3561086207628,5.36821067333221,bus,13,Festplassen M,skyss.no,Garasje Mannsverk,PT5M29S
3350377458,60.3721000347286,5.21279996261001,bus,460,Bergen busstasjon Q,skyss.no,Storavatnet terminal A,-PT12M40S
3350447558,60.4631764534861,5.32101301476359,bus,32,Skinstø,Åsane terminal,Åsane terminal F,PT39S
3350377457,60.3569000400603,5.10978000238538,bus,460,Ågotnes terminal A,Bergen busstasjon,Straume terminal A,PT3M2S
3350453121,60.356109123677,5.3681908082217,bus,18,Barliveien,skyss.no,Garasje Mannsverk,PT3M13S
3350453181,60.3560935333371,5.36816909909248,bus,12,Lønborglien snuplass,skyss.no,Garasje Mannsverk,-PT4M46S
3350447527,60.5159443058074,5.28379971161485,bus,35,Åsane terminal D,Salhus - Klauvaneset,"Klauvaneset, Tellevikv.",PT6M21S
3350447537,60.4633987415582,5.32102441415191,bus,34,Langarinden,Åsane terminal,Åsane terminal F,PT1M22S
3350447544,60.4634252283722,5.32101519405842,bus,33,Rolland snuplass,Åsane terminal,Åsane terminal F,PT50S
3350447524,60.5159287154675,5.28383566997945,bus,35,Åsane terminal D,Salhus - Klauvaneset,"Klauvaneset, Tellevikv.",PT5M41S
3350447545,60.4631600249559,5.32100488431752,bus,33,Rolland snuplass,Åsane terminal,Åsane terminal F,-PT26S
3350377449,60.4052999988198,4.99617998488247,bus,460,Ågotnes terminal A,Bergen busstasjon,Ågotnes senter,-PT6M54S
3350447542,60.4630482941866,5.32102231867611,bus,33,Rolland snuplass,Åsane terminal,Åsane terminal F,-PT13S
3350447523,60.5160314776003,5.2833706419915,bus,35,Åsane terminal D,Salhus - Klauvaneset,"Klauvaneset, Tellevikv.",PT5M6S
3350447510,60.463334871456,5.32209604047239,bus,36,Bergen busstasjon K,skyss.no,Åsane terminal E,PT6M48S
3350447520,60.515908934176,5.28376350179315,bus,35,Åsane terminal D,Salhus - Klauvaneset,"Klauvaneset, Tellevikv.",PT5M35S
3350453134,60.3555716760457,5.3679196536541,bus,14,Bergen busstasjon L,skyss.no,Mannsverk,-PT16M57S
3350453151,60.3555657248944,5.36826783791184,bus,12,Mannsverk garasje,skyss.no,Mannsverk,PT6M51S
3350453137,60.3493227157742,5.2876478433609,bus,14,Bergen busstasjon M,Fyllingsdalen terminal,Fyllingsdalen terminal K,PT8M53S
3350453157,60.3203642461449,5.35235160961747,bus,12,Mannsverk garasje,skyss.no,Nesttun terminal D,PT9M20S
3350453177,60.3671445697546,5.33945940434933,bus,10,Wergeland C,Mulen,Lærerbakken nedre,-PT50S
3350453178,60.3561237920076,5.36820338107646,bus,10,Mindeveien snuplass,skyss.no,Garasje Mannsverk,-PT4M1S
3350453156,60.3549473918974,5.36809206940234,bus,12,Lønborglien snuplass,Lægdene - Montana,Mannsverk garasje,-PT2M9S
3350377422,60.3595000226051,5.12326003052294,bus,460,Ågotnes terminal A,skyss.no,GARASJE Straume,-PT3M36S
3350377426,60.2688000351191,5.07423997856677,bus,460,Bergen busstasjon Q,skyss.no,Skogsskiftet terminal A,-PT36M33S
3350377316,60.4076999891549,4.99755998142064,bus,471,Ågotnes terminal B,Solsvik - Turøy,Ågotnes terminal B,-PT56M7S
3350453130,60.3658158704638,5.18254045397043,bus,14,Bergen busstasjon L,skyss.no,Ramsvik snuplass,-PT2M12S
3350377425,60.3888999670744,5.33393003046513,bus,460,Landro skule snuplass,Bergen busstasjon,Bergen busstasjon Q,PT9M7S
3350447524,60.4631161037832,5.32172958366573,bus,30,Åsane terminal C,Tertnes,Åsane terminal C,-PT16M56S
3350377313,60.3694999683648,5.0617599952966,bus,471,GARASJE Straume,skyss.no,Vindenes snuplass,PT2M
3350387021,60.3196999803185,5.35245998762548,bus,70,Nesttun terminal C,Nesttun terminal,Nesttun terminal D,-PT50S
3350387026,60.2710000332445,5.274269990623,bus,70,Nesttun terminal D,skyss.no,Grimseid snuplass,PT1M33S
3350387029,60.3197999764234,5.35236996598542,bus,70,Nesttun terminal C,Nesttun terminal,Nesttun terminal D,-PT27S
3350453159,60.3628091979772,5.3410841524601,bus,12,Mannsverk garasje,skyss.no,Mindeveien snuplass,PT3M14S
3350453165,60.4277933388948,5.29562481679022,bus,12,Wiers-Jenssens vei,Lønborglien,Eikeviken,PT4M37S
3350324131,59.7180599626154,5.51776578649879,bus,631,Tittelsnes snuplass,Liereid,Tittelsnes snuplass,-PT3H24M52S
3350453103,60.3561192657799,5.36825601942837,bus,18,Barliveien,skyss.no,Garasje Mannsverk,-PT2M58S
3350453168,60.3560957126319,5.36823607049882,bus,12,Lønborglien snuplass,skyss.no,Garasje Mannsverk,-PT2M14S
3350324160,59.7842892352492,5.49870969727635,bus,676,Leirvik terminal C,skyss.no,Garasje Stord,-PT6M4S
3350453149,60.3493171837181,5.28762864880264,bus,14,Bergen busstasjon M,Fyllingsdalen terminal,Fyllingsdalen terminal K,PT2M2S
3350453166,60.3547334857285,5.36808997392654,bus,12,Wiers-Jenssens vei,Lønborglien,Wiers-Jenssens vei,-PT3H8M40S
3350453106,60.3641431778669,5.29757738113403,bus,18,Barliveien,Formanns vei,Gyldenpris,PT46S
3350453187,60.3561316709965,5.36817203275859,bus,10,Mindeveien snuplass,skyss.no,Garasje Mannsverk,-PT4M52S
3350377433,60.3888999670744,5.33387001603842,bus,460,Ågotnes terminal A,Bergen busstasjon,Bergen busstasjon Q,-PT2M45S
3350377322,60.405200002715,4.99682002700865,bus,471,Ågotnes terminal B,skyss.no,GARASJE Straume,PT5M47S
3350377432,60.405200002715,4.99695003032684,bus,460,Bergen busstasjon G,Ågotnes terminal,Ågotnes terminal A,PT1M28S
3350377320,60.3853000234812,5.05400002934039,bus,471,Vindenes snuplass,skyss.no,Straume terminal B,-PT41S
3350447504,60.4827538970858,5.38440107367933,bus,31,Åsane terminal E,skyss.no,Garasje Haukås,-PT59S
3350453180,60.3978162165731,5.32135340385139,bus,10,Mulen,Søndre Skogveien,Torget D,PT1M3S
3350453150,60.3561846446246,5.36822467111051,bus,13,Festplassen M,skyss.no,Garasje Mannsverk,PT33S
3350377437,60.3880999982357,5.33289997838438,bus,460,Bergen busstasjon G,Ågotnes terminal,Lars Hilles gate K,-PT6M54S
3350453181,60.3991919383407,5.32300539314747,bus,10,Wergeland C,Mulen,Helgesens gate,PT10M45S
3350377436,60.3706000093371,5.15255997888744,bus,460,Bergen busstasjon Q,skyss.no,Knarrevik rv. 555,-PT12M57S
3350447502,60.4824381507933,5.38872848264873,bus,31,Garasje Haukås,skyss.no,Åsane terminal C,-PT7M39S
3440189706,61.2218362558633,6.07365100644529,bus,820,Vadheim,Høyanger,Høyanger rutebilstasjon,-PT5M55S
3350447501,60.4828186891973,5.38434298709035,bus,31,Åsane terminal F,skyss.no,Garasje Haukås,-PT6M39S
3350377429,60.3617000207305,5.12661002576351,bus,460,Bergen busstasjon Q,skyss.no,GARASJE Straume,-PT5M42S
3350447511,60.4631908703595,5.32101796008646,bus,30,Viddalen,Åsane terminal,Åsane terminal F,PT3S
3350387030,60.3198999725282,5.35236996598542,bus,70,Nesttun terminal C,Nesttun terminal,Nesttun terminal D,-PT1M7S
3350387031,60.2986999601126,5.32793998718262,bus,70,Nesttun terminal D,skyss.no,Lagunen terminal J,PT2M42S
3440189709,61.2089337408543,5.82184128463268,bus,820,Høyanger rutebilstasjon,Vadheim,Vadheim,PT1M18S
3350377427,60.405200002715,4.99695003032684,bus,460,Bergen busstasjon G,Ågotnes terminal,Ågotnes terminal A,PT11S
3350387029,60.2618999686092,5.3436900023371,bus,71,Nesttun terminal D,skyss.no,GARASJE Fana Bussdepot,-PT2M56S
3350324134,59.4118764996529,5.28904812410474,bus,631,Tittelsnes snuplass,Haugesund,Vardafjellhallen,PT8M51S
3350324154,59.7794641088694,5.50105629488826,bus,678,Sageneset,Leirvik,Leirvik terminal C,-PT59S
3350453152,60.3742736298591,5.33251969143748,bus,10,Mulen,Wergeland,Blekenberg,-PT50S
3350324132,59.789545442909,5.49722945317626,bus,632,Vikse skule,Rophus,Vikse skule,-PT2H31M39S
3350453135,60.3546935878694,5.36803389899433,bus,12,Wiers-Jenssens vei,Lønborglien,Wiers-Jenssens vei,-PT4H4M9S
3350453113,60.3560609277338,5.36819533444941,bus,14,Bergen busstasjon L,skyss.no,Garasje Mannsverk,-PT2M45S
3350453134,60.3556539863348,5.3674566373229,bus,12,Mannsverk garasje,skyss.no,Wiers-Jenssens vei,PT4M31S
3350447548,60.4629125073552,5.32102868892252,bus,30,Viddalen,Åsane terminal,Åsane terminal F,-PT5S
3350447518,60.5161173082888,5.28329218737781,bus,33,Åsane terminal F,skyss.no,"Klauvaneset, Tellevikv.",-PT1M50S
3350447525,60.4827765282243,5.38435648195446,bus,32,Åsane terminal F,skyss.no,Garasje Haukås,-PT2M58S
3350377302,60.589700024575,4.839500002563,bus,470,Rong barneskule,skyss.no,GARASJE Tjeldstø,PT2M10S
3350447546,60.4630971606821,5.32101913355291,bus,30,Viddalen,Åsane terminal,Åsane terminal F,PT1M44S
3350447523,60.4627260100096,5.32097018323839,bus,32,Åsane terminal C,Skinstø,Åsane terminal C,-PT28M58S
3350447543,60.458001634106,5.28247344307601,bus,30,Åsane terminal C,Tertnes,Kipo,PT2M28S
3350447521,60.4639569763094,5.32079005613923,bus,32,Åsane terminal C,Skinstø,Åsane brannstasjon,PT33S
3350447511,60.463141836226,5.32102265395224,bus,33,Rolland snuplass,Åsane terminal,Åsane terminal F,-PT46S
3350453159,60.3902720008045,5.32443107105792,bus,10,Mindeveien snuplass,Mulen,Festplassen N,PT54S
3350453117,60.3354575391859,5.31409157440066,bus,14,Bergen busstasjon M,Fyllingsdalen terminal,Bønes skole,-PT42S
3350453127,60.3864220250398,5.31894285231829,bus,13,Festplassen N,Sentrum,Festplassen M,PT1M14S
3350453158,60.356066711247,5.36812601611018,bus,10,Mindeveien snuplass,skyss.no,Garasje Mannsverk,-PT6M35S
3350453138,60.355585925281,5.36826280876994,bus,12,Mannsverk garasje,skyss.no,Mannsverk,PT7M37S
3350453142,60.3553745336831,5.36811084486544,bus,12,Mannsverk garasje,skyss.no,Garasje Mannsverk,PT8M39S
3350324132,59.5874933805317,5.42905054986477,bus,633,Sveio sentrum,skyss.no,"Rød, Øklandsvegen",PT1M17S
3350453146,60.3705845866352,5.36739008501172,bus,12,Wiers-Jenssens vei,Lønborglien,Sollien nord,PT25S
3440189675,61.8349997140467,6.58048591576517,bus,100,Byrkjelo,Sandane,Byrkjelo,-PT1H33M13S
3350453127,60.3903030138463,5.32444666139781,bus,14,Bergen busstasjon L,skyss.no,Festplassen N,-PT14S
3350453125,60.3560569044203,5.3682164568454,bus,14,Bergen busstasjon L,skyss.no,Garasje Mannsverk,-PT1M32S
3350447517,60.4631323646754,5.32102684490383,bus,32,Skinstø,Åsane terminal,Åsane terminal F,PT35S
3350377313,60.6613000016659,4.79075998999178,bus,470,Tjeldstø skule,skyss.no,Hellesøy kai,-PT5M2S
3350377303,60.405200002715,4.99675003811717,bus,471,Turøyna snuplass,Ågotnes terminal,Ågotnes terminal B,PT2M51S
3350377312,60.589700024575,4.84173000790179,bus,470,Tjeldstø skule,skyss.no,GARASJE Tjeldstø,PT4M55S
3350447532,60.4631352983415,5.32103279605508,bus,30,Viddalen,Åsane terminal,Åsane terminal F,PT3M6S
3350447533,60.4634048603475,5.32103246077895,bus,30,Viddalen,Åsane terminal,Åsane terminal F,PT2M37S
3350447530,60.4632374737412,5.32100412994623,bus,30,Viddalen,Åsane terminal,Åsane terminal F,PT2M45S
3350447511,60.4631706699729,5.32101829536259,bus,32,Skinstø,Åsane terminal,Åsane terminal F,-PT11S
3350453168,60.435788249597,5.29114225879312,bus,10,Wergeland C,skyss.no,Lønborglien snuplass,PT1M41S
3350324158,59.7846857830882,5.49879049882293,bus,631,Tittelsnes snuplass,skyss.no,Garasje Stord,PT31M1S
3350447546,60.4200504720211,5.46316087245941,bus,28,Arna terminal A,Åsane terminal,Hammaren,-PT1M32S
3350447544,60.468602059409,5.32610334455967,bus,28,Arna terminal A,Åsane terminal,Litleåskrysset,PT44S
3350447545,60.4630591068417,5.32099985517561,bus,28,Arna terminal A,Åsane terminal,Åsane terminal F,-PT2S
3350361454,60.5108334403485,5.22549108602107,bus,310,Mjåtveitflaten,skyss.no,Holme parkering,PT2M41S
3350447543,60.4632435925305,5.32103464007378,bus,28,Arna terminal A,Åsane terminal,Åsane terminal F,PT3M11S
3350361452,60.5322480294853,5.19191133789718,bus,310,Flatøy terminal  B,Frekhaug-Skjelanger,Flatøy terminal  B,-PT3H15M4S
3350361457,60.5452225450426,5.28214244171977,bus,310,Sagstad skule,skyss.no,Knarvik garasje,-PT2M37S
3350361458,60.5457276385278,5.27932587079704,bus,310,Flatøy terminal  B,Vikebø,Flatøy terminal  B,-PT4H15M35S
3350361436,60.5867562163621,5.13593732379377,bus,312,Frekhaug terminal,skyss.no,Ådland snuplass,PT1M22S
3350361520,60.544916857034,5.27964916080236,bus,304,Seim skule,skyss.no,Knarvik garasje,-PT2M21S
3350447537,60.4670441150665,5.32811433076859,bus,28,Åsane terminal D,Arna terminal,Litleåskrysset,PT25S
3350361451,60.546534480527,5.2808855753392,bus,311,Frekhaug terminal,skyss.no,Knarvik garasje,-PT8M36S
3350447555,60.4703028313816,5.27540054172277,bus,26,Åsane terminal F,skyss.no,Viddalen,-PT30S
3350447556,60.463049383834,5.32102550379932,bus,26,Lagunen terminal J,Åsane terminal,Åsane terminal F,-PT27S
3350361435,60.5448120832443,5.27943726629019,bus,313,Frekhaug terminal,Ådland,Frekhaug terminal,-PT2H19M28S
3350361462,60.5467580258846,5.28785814531147,bus,310,Flatøy terminal  D,skyss.no,Knarvik terminal C,-PT2M27S
3350447531,60.400667656213,5.46815665438771,bus,28,Åsane terminal F,skyss.no,Arnatveit,PT2M48S
3350447532,60.4631094820797,5.32101402059197,bus,28,Arna terminal A,Åsane terminal,Åsane terminal F,-PT8S
3350447530,60.4632057063282,5.32101687043905,bus,28,Arna terminal A,Åsane terminal,Åsane terminal F,PT1M25S
3350361436,60.5463980231434,5.27956156991422,bus,313,Flatøy terminal  D,skyss.no,Holme parkering,PT30M5S
3350361466,60.5686986632645,5.04933499731123,bus,310,Rossland,Flatøy,Rossland,-PT27M16S
3350361467,60.5451160948724,5.28155721724033,bus,310,Vikebø nord,skyss.no,Knarvik garasje,-PT2M14S
3350447580,60.2987561188638,5.32796605490148,bus,27,Haukeland sjukehus nord C,skyss.no,Lagunen terminal J,-PT6M52S
3350135703,60.0696119014174,6.54641683213413,bus,990,Voss stasjon E,Odda,"Odda busstasjon, avstiging",-PT1M48S
3350453182,60.3798714000732,5.26834222488105,bus,6,Lyngbø D,Birkelundstoppen,Lyderhornsveien,-PT3M39S
3350447588,60.4827819764614,5.38435447029769,bus,26,Åsane terminal F,skyss.no,Garasje Haukås,PT8M50S
3350447578,60.4828233830631,5.38431013002992,bus,27,Åsane terminal F,skyss.no,Garasje Haukås,-PT4M44S
3350447579,60.4827734269202,5.3843560628593,bus,27,Åsane terminal F,skyss.no,Garasje Haukås,PT12M45S
3350447589,60.4632482863963,5.32103581354022,bus,26,Lagunen terminal J,Åsane terminal,Åsane terminal F,-PT14S
3350447576,60.4336655326188,5.31277251429856,bus,27,Åsane terminal E,Haukeland sjukehus,Handelshøyskolen,PT27S
3350447577,60.4556796792895,5.39956519380212,bus,27,Åsane terminal F,skyss.no,Kalsåsvegen,PT1M3S
3350447574,60.4827903583646,5.38436117582023,bus,27,Åsane terminal F,skyss.no,Garasje Haukås,-PT2M8S
3350447584,60.4828963056207,5.38424936123192,bus,26,Åsane terminal F,skyss.no,Garasje Haukås,-PT1M13S
3350447575,60.377037813887,5.35918453708291,bus,27,Haukeland sjukehus sør F,Åsane terminal,Haukeland sjukehus sør F,-PT1M50S
3350447572,60.4827816411853,5.38433963432908,bus,27,Åsane terminal F,skyss.no,Garasje Haukås,-PT52S
3350447573,60.4631543252617,5.32175565138459,bus,27,Åsane terminal E,Haukeland sjukehus,Åsane terminal E,-PT13M36S
3350447570,60.4599488340318,5.42177430354059,bus,27,Åsane terminal F,skyss.no,"Orfallet, Ytre Arna",-PT1M13S
3350447580,60.4702924378216,5.27530775405467,bus,26,Åsane terminal F,skyss.no,Viddalen,PT2M26S
3350447581,60.3780084382743,5.33717768266797,bus,26,Lagunen terminal J,Åsane terminal,Gamle Bergen,PT4M47S
3350447571,60.4624906461686,5.32579187303782,bus,27,Haukeland sjukehus sør F,Åsane terminal,Åsane terminal F,-PT35S
3350447579,60.4631353821605,5.32102114520967,bus,26,Lagunen terminal J,Åsane terminal,Åsane terminal F,PT4S
3350447578,60.4630894493312,5.32098535448313,bus,26,Lagunen terminal J,Åsane terminal,Åsane terminal F,PT1M27S
3350447555,60.4631305206567,5.32100111246109,bus,28,Arna terminal A,Åsane terminal,Åsane terminal F,-PT1M10S
3350447575,60.4632031917572,5.32100798562169,bus,26,Lagunen terminal J,Åsane terminal,Åsane terminal F,-PT1M17S
3350361443,60.5449213832617,5.27967422269285,bus,310,Knarvik terminal B,skyss.no,Knarvik garasje,-PT3M38S
3350447551,60.4827804677188,5.3843608405441,bus,28,Arna terminal A,skyss.no,Garasje Haukås,-PT4M53S
3350447550,60.422365386039,5.5156341008842,bus,28,Garnesstølen,skyss.no,Takvam ved rundkjøring,-PT42S
3350361506,60.3886077739298,5.33316476270556,bus,300,Knarvik terminal A,Bergen busstasjon,Bergen busstasjon J,PT6S
3350361504,60.5151368770748,5.23027991876006,bus,300,Bergen busstasjon J,skyss.no,Mjåtveitflaten,PT10M14S
3350377348,60.4075999930501,5.22682003676891,bus,408,Hanevik,Kleppestø terminal,Kleppestø terminal E,PT47S
3350361505,60.3864457458258,5.33436220139265,bus,300,Knarvik terminal A,Bergen busstasjon,Bergen busstasjon J,-PT4M5S
3350361509,60.5466806609184,5.28733117505908,bus,300,Bergen busstasjon J,Knarvik terminal,Knarvik terminal B,PT18S
3350135605,59.8898766562343,5.55795332416892,bus,651,Våge kai,Hodnanes,Hodnanes,-PT44S
3350447522,60.4827907774597,5.38435840979218,bus,26,Lagunen terminal I,skyss.no,Garasje Haukås,-PT8M10S
3350377346,60.4455000255257,5.16913997009397,bus,408,Erdal ungdomsskole,skyss.no,GARASJE Haugland,-PT1M59S
3350361514,60.5451748520136,5.28195066377521,bus,300,Bergen busstasjon J,skyss.no,Knarvik garasje,-PT5M33S
3350361511,60.5453243013471,5.27896402403712,bus,300,Knarvik terminal B,skyss.no,Knarvik garasje,PT13M21S
3350361515,60.5314861144871,5.25721164420247,bus,300,Bergen busstasjon J,skyss.no,Flatøy terminal  B,PT5M17S
3350453111,60.3527799993753,5.36855609156191,bus,6,Lyngbø D,Birkelundstoppen,Bolstad,PT2M27S
3350377350,60.4077999852598,5.2268900256604,bus,408,Hanevik,Kleppestø terminal,Kleppestø terminal E,-PT52S
3350377339,60.4444999806583,5.2233599871397,bus,407,Kleppestø terminal E,Haugland,Brusegårdvegen,-PT3M15S
3350377338,60.4264000151306,5.15153998509049,bus,407,Kleppestø terminal E,skyss.no,Hetlevik snuplass,-PT20S
3350377337,60.4461999982595,5.17030002549291,bus,407,Haugland verkstedet,skyss.no,GARASJE Haugland,PT21S
3350377336,60.4455000255257,5.16910996288061,bus,407,Kleppestø terminal E,skyss.no,GARASJE Haugland,-PT2M4S
3350135731,59.6515705995262,6.02270496077836,bus,640,Ølen terminal,Tesdal kryss,Tesdal kryss,PT2M14S
3350135741,60.6614010035992,6.43639739602804,bus,990,Voss stasjon E,Bu,Voss stasjon E,-PT24M14S
3350135736,59.9355214834213,6.58778445795178,bus,640,Håbru snuplass,skyss.no,Garasje Odda,PT5M23S
3350135735,60.0568834785372,6.54677792452276,bus,640,Fjæra,Skulerute,Odda US/VGS,PT2M10S
3350135608,59.9863861408085,5.44916502200067,bus,653,Kaldafoss snuplass,Våge,Hovdanes,PT2M51S
3350135738,60.0686698593199,6.5525124873966,bus,640,Etne terminal,skyss.no,Garasje Odda,PT13M56S
3350447528,60.4631861764938,5.32102097757161,bus,28,Sletta,Åsane terminal,Åsane terminal F,PT35S
3350135728,60.4659791942686,7.07012400962412,bus,991,Øvre Eidfjord,skyss.no,Garasje Eidfjord,-PT7M9S
3350135727,60.06825260818,6.55185199342668,bus,991,Odda busstasjon avstiging,skyss.no,Garasje Odda,PT4M13S
3350135737,60.3393214289099,6.65512852370739,bus,990,Kinsarvik skule,skyss.no,Garasje Odda,PT7M51S
3440189710,61.5982700418681,5.09959640912712,bus,250,Førde rutebilstasjon,Florø,Solheim Verpevika,-PT44S
3350377390,60.3617000207305,5.12668001465499,bus,449,Kolltveit skule,skyss.no,GARASJE Straume,-PT14M17S
3350447524,60.4630286805332,5.32100044190884,bus,28,Arna terminal A,Åsane terminal,Åsane terminal F,PT8M34S
3350447525,60.4630610346794,5.32101670280099,bus,28,Arna terminal A,Åsane terminal,Åsane terminal F,-PT41S
3350377395,60.3617000207305,5.12665998190641,bus,449,Bildøy skulesenter,skyss.no,GARASJE Straume,-PT5M32S
3350377341,60.4455000255257,5.16912999562919,bus,406,Kleppestø terminal B,skyss.no,GARASJE Haugland,PT5M15S
3350377350,60.4455000255257,5.16909998841584,bus,405,Kleppestø terminal B,skyss.no,GARASJE Haugland,-PT2M33S
3350377393,60.3617000207305,5.12662000022829,bus,449,Straume idrettspark,skyss.no,GARASJE Straume,PT2M8S
3350377335,60.3967999946326,5.17435996793211,bus,407,Kleppestø terminal E,skyss.no,"Marikoven, Pøylo",-PT5M56S
3350377333,60.445900009945,5.16909001395106,bus,407,Kleppestø terminal E,Haugland,Kleppestø terminal E,-PT1H9M38S
3350377332,60.4074999969453,5.22680000402033,bus,407,Haugland verkstedet,Kleppestø terminal,Kleppestø terminal E,-PT6S
3350361519,60.626395912841,5.47359433025122,bus,346,Ostereidet skule stopp 6,skyss.no,Ostereidet garasje,PT32S
3350377348,60.4463999904692,5.17115003429353,bus,407,Haugland verkstedet,skyss.no,GARASJE Haugland,-PT2M10S
3350377337,60.4074999969453,5.22680000402033,bus,408,Hanevik,Kleppestø terminal,Kleppestø terminal E,PT39S
3350377347,60.445900009945,5.16922001726925,bus,407,Haugland verkstedet,Kleppestø terminal,Haugland verkstedet,-PT4M50S
3350135725,60.465784734115,7.06990029662848,bus,991,Garasje Eidfjord,skyss.no,Garasje Eidfjord,-PT9M53S
3440189717,61.4578028395772,5.88889718055725,bus,250,Florø terminal,Førde sentralsjukehus,Førde sentralsjukehus,PT2M2S
3440189714,61.7693074699491,5.29085333459079,bus,260,Florø terminal,Svelgen,Svelgen,-PT1M51S
3440189712,61.5994780417532,5.02946561202407,bus,260,Sande ytre,Florø,Florø terminal,-PT1M24S
3440189720,61.4578127302229,5.88893037289381,bus,250,Florø terminal,Førde sentralsjukehus,Førde sentralsjukehus,PT1M36S
3350447514,60.3571773972362,5.45184480026364,bus,28,Arna terminal A,skyss.no,"Haukeland, Unnelandsveg",PT5M23S
3350377342,60.4148999601603,5.21940004080534,bus,407,Kleppestø terminal E,skyss.no,Kleppestø US,PT19M5S
3350377332,60.499000037089,5.15172002837062,bus,408,Hanevik,Kleppestø terminal,Hanevik,-PT17M24S
3350447511,60.4629690013826,5.32100186683238,bus,28,Arna terminal A,Åsane terminal,Åsane terminal F,-PT55S
3350377331,60.4455000255257,5.16912999562919,bus,408,Erdal ungdomsskole,skyss.no,GARASJE Haugland,-PT1M53S
3350377346,60.4074999969453,5.22682003676891,bus,407,Haugland verkstedet,Kleppestø terminal,Kleppestø terminal E,PT18S
3350361502,60.5181075911969,5.2799064014107,bus,300,Knarvik terminal A,Bergen busstasjon,Klauvaneset,PT41S
3350361503,60.3886117134243,5.33290408551693,bus,300,Knarvik terminal A,Bergen busstasjon,Bergen busstasjon J,PT1M3S
3350377335,60.4074999969453,5.22680997848511,bus,408,Hanevik,Kleppestø terminal,Kleppestø terminal E,PT5S
3350361500,60.544887939468,5.27956659905612,bus,300,Knarvik terminal B,skyss.no,Knarvik garasje,-PT5M38S
3350361501,60.531464740634,5.25712137110531,bus,300,Knarvik terminal B,skyss.no,Flatøy terminal  B,PT19M27S
3350377343,60.4588000103831,5.15175003558397,bus,407,Haugland verkstedet,skyss.no,Ravnanger terminal B,-PT8M57S
3350377356,60.4264000151306,5.15157996676862,bus,403,Stongafjellet snuplass,skyss.no,Hetlevik snuplass,-PT2M17S
3350377354,60.4455000255257,5.16910996288061,bus,403,Krokåsfeltet snuplass,skyss.no,GARASJE Haugland,-PT6M13S
3350361438,60.6264518201351,5.47376473434269,bus,351,Matre skule,skyss.no,Ostereidet garasje,PT3M35S
3350387091,60.2034999802709,5.44659001752734,bus,99,Kuventræ sk-Osbadet,skyss.no,GARASJE Os Garasje,PT4M38S
3350135731,59.6649210434407,5.93912322074175,bus,642,Enge skule,skyss.no,Etne terminal,PT2M25S
257055990,60.12627833333333,5.423141666666667,ferry,1018,Sandvikvåg,Halhjem,Halhjem,PT0S
3350387078,60.2488999720663,5.26543999090791,bus,53,Milde snuplass,Birkelandsskiftet,Fana folkehøgskule,PT27S
3350387075,60.2883000299335,5.26231999509037,bus,53,Milde snuplass,Birkelandsskiftet,Birkelandsskiftet D,PT2S
3350387045,60.2883000299335,5.26235997676849,bus,56,Espeland kai,Birkelandsskiftet,Birkelandsskiftet C,PT8S
3350387079,60.2282000239938,5.36939000710845,bus,53,Lagunen terminal I,skyss.no,Sagstad,PT4M50S
3350361440,60.8787773642689,5.58403755538166,bus,351,Matre kai,Duesundøy,Matre kai,-PT3H7M43S
3350377372,60.3617000207305,5.12662997469306,bus,449,Tranevågen ungdomsskule,skyss.no,GARASJE Straume,-PT13M41S
3350377381,60.3272000234574,5.03650004044175,bus,448,Søre Bildøyna snuplass,skyss.no,Ulveset skule,PT3M52S
3350377380,60.3597000148147,5.12350000441074,bus,448,Liaskjæret snuplass,Straume terminal,Straume terminal C,PT5M52S
3350377370,60.3617000207305,5.12667004019022,bus,449,Bildøy skulesenter,skyss.no,GARASJE Straume,PT5M45S
3350377353,60.4455000255257,5.16916000284255,bus,403,Krokåsfeltet snuplass,skyss.no,GARASJE Haugland,-PT5M17S
3350377375,60.3617000207305,5.12662000022829,bus,449,Bildøy skulesenter,skyss.no,GARASJE Straume,-PT5M25S
3350387080,60.2975000068545,5.32773999497294,bus,53,Milde snuplass,Lagunen terminal,Lagunen terminal I,PT27S
3350387040,60.2883000299335,5.26231999509037,bus,57,Espehaugen,Birkelandsskiftet,Birkelandsskiftet C,PT11S
3350387045,60.2883000299335,5.26309004053473,bus,57,Espehaugen,Birkelandsskiftet,Birkelandsskiftet C,PT1M7S
3350447702,60.4200954828411,5.46447473578155,bus,95,Risnes vest,Arna terminal,Arna terminal A,-PT1M45S
3350135752,60.4659656994045,7.06997053697705,bus,990,Bu terminal,skyss.no,Garasje Eidfjord,-PT12M36S
3350135605,60.0433233194053,5.53699496202171,bus,654,Våge kai,Hodnanes,Våge kai,-PT3H19M19S
3350135734,59.6639749780297,5.93304617330432,bus,641,Etne terminal,skyss.no,Garasje Etne,PT30M5S
3350135741,60.4697434231639,6.83583036996424,bus,991,Øvre Eidfjord,Odda,Bu terminal,PT1S
3350135729,59.7329913172871,5.93387128785253,bus,642,Enge skule,skyss.no,Skånevik kai,PT27M10S
3350135729,59.6641349047422,5.9386526606977,bus,641,Etne terminal,skyss.no,Garasje Skånevik,PT21M44S
3350377390,60.2964999619871,5.13082997873425,bus,448,Straume terminal B,Liaskjæret,Liaskjæret snuplass,PT28S
3350377384,60.3596000187099,5.12203996069729,bus,449,Straume idrettspark,skyss.no,Straume terminal A,PT48S
3350453504,60.3385151736438,5.32237641513348,bus,14,Fyllingsdalen terminal K,skyss.no,Bergveien,-PT19M26S
3350453502,60.33725512214,5.29707186855376,bus,14,Fyllingsdalen terminal E,Bergen busstasjon,Bønestoppen,PT19S
3350377382,60.3617000207305,5.12661002576351,bus,449,Kolltveit skule,skyss.no,GARASJE Straume,-PT13M23S
3350377381,60.3617000207305,5.12661002576351,bus,449,Tranevågen ungdomsskule,skyss.no,GARASJE Straume,-PT12M35S
3350453508,60.3385831508785,5.32237230800092,bus,14,Fyllingsdalen terminal K,skyss.no,Bergveien,PT6M35S
3350377341,60.4078999813646,5.22697996348143,bus,405,Øvre Florvåg snuplass,Kleppestø terminal,Kleppestø terminal B,PT2M8S
3350377334,60.4588000103831,5.15176998451352,bus,403,Krokåsfeltet snuplass,skyss.no,Ravnanger terminal B,-PT4M21S
3350377343,60.4077999852598,5.2269399818033,bus,402,Kleppestø ungdomsskole,skyss.no,Kleppestø terminal E,-PT47M55S
3350377366,60.3598000109196,5.12308996170759,bus,448,Liaskjæret snuplass,Straume terminal,Straume terminal C,-PT1M16S
3350377342,60.4455000255257,5.16912999562919,bus,402,Kleppestø US,skyss.no,GARASJE Haugland,PT4M21S
3350377339,60.4148999601603,5.21942996419966,bus,403,Kleppestø terminal B,skyss.no,Kleppestø US,-PT11M31S
3350387076,60.2172000333667,5.40808003395796,bus,99,Tøsdalskiftet A,skyss.no,Lysekloster skole,-PT1M59S
3350387052,60.2975000068545,5.32770001329482,bus,53,Milde snuplass,Lagunen terminal,Lagunen terminal I,PT4M26S
3350135777,59.9332800786942,6.59714796580374,bus,640,Skare skule,Skulerute,Skare skule,-PT3H52M43S
3350387079,60.2615999802947,5.3439299762249,bus,99,Fana kirke,Skolerute,Fana kirke,-PT3H1M59S
3350387053,60.2880000416189,5.26169001124799,bus,53,Milde snuplass,Birkelandsskiftet,Birkelandsskiftet D,PT43S
3350387078,60.2719999942929,5.22315002046525,bus,99,Liland skole,skyss.no,Espeland kai,-PT58S
3350387017,60.2885000221431,5.26274998672307,bus,57,Espehaugen,Birkelandsskiftet,Birkelandsskiftet C,-PT1S
3350387078,60.2883000299335,5.26235997676849,bus,51,Bergen busstasjon M,Birkelandsskiftet,Birkelandsskiftet C,PT49S
3350387058,60.2884000260383,5.26334996335208,bus,53,Birkelandsskiftet C,Hjellestad-Milde,Blomsterdalen,-PT6M54S
3350377350,60.4075999930501,5.22680997848511,bus,401,Marikoven snuplass,Kleppestø terminal,Kleppestø terminal B,-PT34S
3350377356,60.4455000255257,5.16910996288061,bus,402,Kleppestø ungdomsskole,skyss.no,GARASJE Haugland,-PT3M24S
3350377345,60.4184999875724,5.21597997285426,bus,403,Krokåsfeltet snuplass,Stongafjellet,Florvågskiftet,PT26S
3350377354,60.4588000103831,5.15175003558397,bus,402,Kleppestø US,skyss.no,Ravnanger terminal B,-PT56S
3350135731,59.6641882136464,5.93852366320789,bus,643,Etne terminal,skyss.no,Garasje Etne,PT30M43S
3350361439,60.8334109839052,5.26422184891999,bus,350,Nordbygda skule,skyss.no,Hosteland parkering,-PT7M31S
3440199798,61.1747640743852,6.8884586635977,,820,Førde rutebilstasjon,Vadheim-Høyanger-Sogndal,Ytre Slinda,PT5M10S
3350135610,60.0614742469043,5.96013966947794,bus,740,Osøyro terminal B,Gjermundshamn,Årsnes kai,PT2M14S
3350387083,60.2034999802709,5.44665003195405,bus,99,Nore Neset ungdomsskule,skyss.no,GARASJE Os Garasje,-PT54S
3350361437,60.8322849590331,5.26758743450046,bus,350,Nordbygda skule,skyss.no,Hosteland parkering,PT2M48S
3350135605,60.0411566812545,5.53769996389747,bus,656,Hodnanes,Våge,Tysnes skule,PT1M1S
3350387086,60.1852000225335,5.46915996819735,bus,99,Nordstrøno snuplass,Skulerute Osøyro,Osøyro terminal A,-PT1M42S
3350135613,60.2107304614037,5.54359311237931,bus,740,Osøyro terminal B,Eikelandsosen,Venjaneset kai,PT1M33S
3350135614,60.1853561773896,5.46912149526179,bus,740,Osøyro terminal B,Eikelandsosen,Osøyro terminal B,-PT26M47S
3350387071,60.2975000068545,5.32771996222436,bus,52,Grimstad snuplass,Lagunen terminal,Lagunen terminal I,PT51S
3350387027,60.2883000299335,5.26235000230372,bus,57,Flesland snuplass,Birkelandsskiftet,Birkelandsskiftet C,PT1M15S
3350387074,60.2617999725044,5.34372000955045,bus,52,Grimstad snuplass,skyss.no,GARASJE Fana Bussdepot,PT1M54S
3350387024,60.2719999942929,5.22308003157377,bus,57,Birkelandsskiftet C,skyss.no,Espeland kai,-PT1M15S
3350387039,60.2883000299335,5.26235997676849,bus,56,Espeland kai,Birkelandsskiftet,Birkelandsskiftet C,PT2M20S
3350377370,60.386699968949,5.15068000182509,bus,448,Straume terminal C,skyss.no,Hjelteryggen snuplass,PT14M40S
3350377340,60.4455000255257,5.16913997009397,bus,403,Krokåsfeltet snuplass,skyss.no,GARASJE Haugland,-PT4M3S
3350135765,60.0692494679242,6.54640451073647,bus,994,Odda barneskole,skyss.no,Odda busstasjon,-PT5M25S
3350377335,60.4142999835312,5.21994997747242,bus,401,Marikoven Pøylo,Kleppestø US,Kleppestø ungdomsskole,-PT3M56S
3350377345,60.4077999852598,5.22696001455188,bus,400,Kleppestø ungdomsskole,skyss.no,Kleppestø terminal B,-PT15M26S
3350387075,60.2618999686092,5.34372998401523,bus,57,Birkelandsskiftet C,skyss.no,GARASJE Fana Bussdepot,-PT3M45S
3350377339,60.408900026232,5.20408001728356,bus,401,Kleppestø terminal B,skyss.no,Stongafjellet snuplass,-PT8M54S
3350135766,60.0706598907709,6.54736197553575,bus,994,Odda busstasjon Tyssedalsstopp,Odda,Odda busstasjon Toppensstopp,-PT1M13S
3350447731,60.5265482515097,5.49360503442585,bus,910,Bergen busstasjon K,skyss.no,Garasje Lonevåg,PT1M13S
3350447590,60.4828485287726,5.38427861407399,bus,27,Åsane terminal F,skyss.no,Garasje Haukås,-PT3M47S
3350377338,60.4455000255257,5.16909001395106,bus,402,Kleppestø ungdomsskole,skyss.no,GARASJE Haugland,-PT3M43S
3350377336,60.4078999813646,5.22697996348143,bus,402,Kleppestø US,skyss.no,Kleppestø terminal E,-PT15S
3350377345,60.4266000073403,5.18612002953887,bus,401,Kleppestø ungdomsskole,skyss.no,Krokåsfeltet snuplass,-PT16M7S
3350377339,60.4077999852598,5.22699999623001,bus,402,Kleppestø US,skyss.no,Kleppestø terminal E,-PT21M31S
3350447589,60.482804775238,5.38433049805462,bus,27,Åsane terminal F,skyss.no,Garasje Haukås,-PT2M16S
3440189676,61.4524666685611,5.85461243055761,bus,200,Leirvik,Vadheim-Førde,Førde rutebilstasjon,-PT5M26S
3350447584,60.4630876891315,5.32100203447044,bus,27,Haukeland sjukehus sør F,Åsane terminal,Åsane terminal F,PT2M10S
3350447582,60.4827155079693,5.38441398181021,bus,27,Åsane terminal F,skyss.no,Garasje Haukås,PT5M28S
3350377383,60.3595000226051,5.12225998565555,bus,442,Straume terminal B,Brattholmen,Straume terminal B,-PT1H16M43S
3350377393,60.3659000247717,5.18254003487527,bus,441,Knarrevik rv. 555,skyss.no,Ramsvik snuplass,PT12M40S
3350447727,60.4202487040311,5.46499005518854,bus,92,Takvam ved rundkjøring,Arna terminal,Arna terminal A,-PT24S
3350377319,60.3597000148147,5.1220500189811,bus,449,Straume idrettspark,skyss.no,Straume terminal B,PT1M53S
3350447728,60.4201042838395,5.46442050486803,bus,92,Arna terminal A,Garnes,Bommane,-PT1M34S
3350135740,60.8459750376642,6.71922996640205,bus,950,Voss stasjon B,Gudvangen,Holmen,-PT8S
3350447724,60.4200218897313,5.46423610299826,bus,92,Takvam ved rundkjøring,Arna terminal,Arna terminal A,PT1M5S
3350447722,60.5259341094643,5.49404894001782,bus,92,Arna terminal A,skyss.no,Lonevåg terminal,-PT19M59S
3350377311,60.3617000207305,5.12665998190641,bus,449,Brattholmen skule,skyss.no,GARASJE Straume,-PT3M38S
3350377391,60.3617000207305,5.12662997469306,bus,441,Bergen busstasjon Q,skyss.no,GARASJE Straume,-PT11M2S
3440189691,61.4061384648085,5.1071557123214,bus,230,Askvoll kai,Førde,Størdal,PT4M1S
3350377396,60.3617000207305,5.12661002576351,bus,442,Bergen busstasjon Q,skyss.no,GARASJE Straume,-PT10M23S
3350377323,60.3617000207305,5.12664003297687,bus,449,Bildøy skulesenter,skyss.no,GARASJE Straume,PT4M31S
3350135766,60.0708131957799,6.54867416247725,bus,995,Odda busstasjon,Odda,Odda busstasjon,PT1M42S
3350135765,60.0699207745492,6.54656644910574,bus,995,Odda busstasjon,Odda,Odda busstasjon,-PT3M
3440199798,61.4524617232382,5.8543261885643,,201,Vieåsen,Vieåsen-Førde rutebilstasjon,Førde rutebilstasjon,-PT2M6S
3350387078,60.2883000299335,5.26235000230372,bus,56,Espeland kai,Birkelandsskiftet,Birkelandsskiftet C,PT55S
3350377392,60.3617000207305,5.12662000022829,bus,442,Brattholmen kai,skyss.no,GARASJE Straume,-PT2M43S
3350135694,60.0609383080155,5.92009169049561,bus,654,Gjermundshamn kai,skyss.no,Garasje Gjermundshavn,PT19M44S
3350453153,60.3671185020357,5.26456701569259,bus,44,Nipedalen,Gravdal,Lyngbøkollen,-PT6M54S
3350453133,60.3872281964868,5.2618779335171,bus,46,Fyllingsdalen terminal K,skyss.no,Gravdal snuplass,-PT2M6S
3350453130,60.3492678981274,5.28761171735823,bus,46,Løvstakkskiftet,Fyllingsdalen terminal,Fyllingsdalen terminal K,-PT8S
257055910,59.969075,5.333928333333334,ferry,1018,Sandvikvåg,Halhjem,Halhjem,PT0S
3350377306,60.3617000207305,5.12668998911977,bus,448,Straume terminal C,skyss.no,GARASJE Straume,PT4M56S
3350377366,60.3617000207305,5.12665000744164,bus,442,Brattholmen skule,skyss.no,GARASJE Straume,-PT2M1S
3350453144,60.3857692424208,5.21504991687834,bus,45,Loddefjord terminal A,skyss.no,Olsvikskjenet,PT9M16S
3350453134,60.3493341989815,5.2876755874604,bus,46,Løvstakkskiftet,Fyllingsdalen terminal,Fyllingsdalen terminal K,PT13S
3350453104,60.3203532658517,5.35239058546722,bus,49,Fantoft,skyss.no,Nesttun terminal D,-PT36S
3350453185,60.4047390818596,5.32153713516891,bus,16E,Øyjorden,Nesttun terminal,Skutevikstorget,PT1M19S
3350387041,60.2603000309318,5.34329999238253,bus,60,Fana bussdepot,Lagunen terminal,Fana bussdepot,-PT4H54M37S
3350387044,60.2790999691933,5.32654004171491,bus,60,Lagunen terminal E,Fanahammeren,Stend,PT1M23S
3350387043,60.2973000146449,5.32760001718998,bus,60,Fanahammeren snuplass,Lagunen terminal,Lagunen terminal I,-PT1M19S
3350387048,60.2975000068545,5.32773999497294,bus,60,Fanahammeren snuplass,Lagunen terminal,Lagunen terminal I,PT54S
3350453154,60.370306558907,5.25223614647985,bus,45,Loddefjord terminal A,skyss.no,Garasje Mannsverk,PT8M7S
3350453144,60.3659234102815,5.31064518727362,bus,46,Løvstakkskiftet,Fyllingsdalen terminal,Skytebanen,PT27S
3350377302,60.4655000008643,4.95704999193549,bus,449,Tranevågen ungdomsskule,skyss.no,Stegavika,PT1M48S
3350453125,60.3492813929915,5.28762613423169,bus,48,Sælenveien,Fyllingsdalen terminal,Fyllingsdalen terminal K,PT2M46S
3350377375,60.3904999885708,5.33148000016809,bus,442,Gavlen snuplass,Bergen busstasjon,Bergen busstasjon Q,-PT11M54S
3350377319,60.3597000148147,5.12316003441811,bus,448,Liaskjæret snuplass,Straume terminal,Straume terminal C,PT5M37S
3350453175,60.3561362810433,5.36823187954724,bus,16E,Øyjorden,skyss.no,Garasje Mannsverk,PT59S
3350387142,60.3862999845296,5.3343699965626,bus,51,Birkelandsskiftet D,Bergen busstasjon,Bergen busstasjon M,PT7M55S
3350387140,60.2883000299335,5.26232996955514,bus,51,Bergen busstasjon M,Birkelandsskiftet,Birkelandsskiftet C,PT1M4S
3350387055,60.3234000038356,5.33640000969172,bus,60,Lagunen terminal I,skyss.no,Nesttun terminal C,-PT2M15S
3350387145,60.3875000216067,5.33538001589477,bus,51,Birkelandsskiftet D,Bergen busstasjon,Bergen busstasjon M,PT5M25S
3350387054,60.2973000146449,5.32761996611953,bus,60,Fana bussdepot,Lagunen terminal,Lagunen terminal I,-PT4M33S
3350387144,60.2885000221431,5.26273003779352,bus,51,Bergen busstasjon M,Birkelandsskiftet,Birkelandsskiftet C,PT3M7S
3350387037,60.2634999901056,5.2560599707067,bus,62,Lagunen terminal I,skyss.no,Hjellestadskiftet,-PT1M41S
3350387148,60.2618999686092,5.34363996237516,bus,51,Birkelandsskiftet C,skyss.no,GARASJE Fana Bussdepot,PT8M30S
3440189694,61.734035583213,6.50482775643468,bus,100,Nordfjordeid rutebilstasjon,Sandane-Førde,Byrkjelo,-PT37S
3350135695,60.2411099988967,5.74752498418093,bus,741,Arna terminal C,Eikelandsosen,Eikelandsosen terminal,PT6M46S
3350135612,60.3711214475334,6.14554854109883,bus,749,Kvam ungdomsskule,skyss.no,Norheimsund terminal,-PT4S
3350135613,60.1632786635309,5.90644947253168,bus,749,Mundheim terminal,Norheimsund,Nesskiftet,PT20S
3350453135,60.3561409749091,5.36821528337896,bus,44,Gravdal snuplass,skyss.no,Garasje Mannsverk,-PT2M6S
3350453133,60.3871002886444,5.26166117750108,bus,44,Gravdal snuplass,Nipedalen,Wallemsskogen,-PT7M56S
3350135784,60.8815216831863,6.84063663706183,bus,950,Gudvangen kai,Voss,Gudvangen kai,-PT31M39S
3350453160,60.4134935606271,5.32213258557022,bus,16E,Nesttun terminal C,Øyjorden,Munkebotn,PT4M19S
3350453162,60.355987586081,5.36824109964073,bus,16E,Nesttun terminal D,skyss.no,Garasje Mannsverk,-PT19S
3350453161,60.3196621779352,5.35248605534434,bus,16E,Øyjorden,Nesttun terminal,Nesttun terminal D,PT1M29S
3350453501,60.3929152339697,5.33077533356845,bus,6,Birkelundstoppen A,Lyngbø,Olav Kyrres gate E,PT3M10S
3350453164,60.3561321739107,5.36825828254223,bus,16E,Øyjorden,skyss.no,Garasje Mannsverk,-PT3M4S
3350453163,60.3198885731399,5.35234364680946,bus,16E,Øyjorden,Nesttun terminal,Nesttun terminal D,PT35S
257055930,60.043328333333335,5.329213333333333,ferry,1018,Halhjem,Sandvikvåg,Sandvikvåg,PT0S
3350387111,60.2034999802709,5.44660996645689,bus,99,Nore Neset ungdomsskule,skyss.no,GARASJE Os Garasje,PT1M13S
3350387016,60.2258000336587,5.28913001529872,bus,61,Krokeide VGS,Lagunen terminal,Krokeide kryss,PT27S
3350387017,60.2618999686092,5.34369997680187,bus,61,Lagunen terminal I,skyss.no,GARASJE Fana Bussdepot,PT1M54S
3350387118,60.2618999686092,5.34371003508568,bus,99,Stend,skyss.no,GARASJE Fana Bussdepot,-PT2M32S
3350453139,60.3560856543481,5.36819726228714,bus,44,Gravdal snuplass,skyss.no,Garasje Mannsverk,PT50S
3350453169,60.352366771549,5.22844822145998,bus,41,Loddefjord terminal B,Hetlevikåsen,Storaholtet,PT15S
3350135610,60.1633488200605,5.9065275080502,bus,749,Norheimsund terminal,Mundheim,Mundheim terminal,PT2M38S
3350135611,60.3661033697426,6.14507982507348,bus,749,Strandebarm skule,skyss.no,Garasje Norheimsund,PT1M45S
3350135760,60.6288349628448,6.41334665939212,bus,951,Palmafossen vest,skyss.no,Voss stasjon F,-PT8M30S
3350453125,60.3256415762007,5.28083176352084,bus,46,Fyllingsdalen terminal K,skyss.no,Sælenveien,PT2M24S
3350387120,60.2618999686092,5.34368002787232,bus,99,Fana kirke,skyss.no,GARASJE Fana Bussdepot,-PT1M11S
3350135759,60.6290366314352,6.41282832249999,bus,952,Voss Tinghus,Træenskiftet,Voss Tinghus,-PT17M30S
3350453155,60.3766623884439,5.35939643159509,bus,16E,Nesttun terminal C,Øyjorden,Statsarkivet,PT1M24S
3350387123,60.2618999686092,5.34368002787232,bus,51,Ytrebygda skole,skyss.no,GARASJE Fana Bussdepot,PT5M31S
3350387023,60.3086999896914,5.26869996450841,bus,61,Lagunen terminal I,skyss.no,Dolvik terminal A,PT4M49S
3350387129,60.2894999831915,4.60273998789489,bus,99,Stend,skyss.no,GARASJE Os Garasje,-PT9M13S
3350387036,60.2634999901056,5.2560100145638,bus,60,Lagunen terminal I,skyss.no,Hjellestadskiftet,-PT5M45S
3440189679,61.457781130448,5.8358367998153,bus,100,Viken,Førde,Øyrane ytre,PT1M59S
3350453127,60.3493216261268,5.2876531239599,bus,46,Løvstakkskiftet,Fyllingsdalen terminal,Fyllingsdalen terminal K,PT3M22S
3350453137,60.3487629722804,5.28665844351053,bus,45,Loddefjord terminal A,skyss.no,Fyllingsdalen terminal E,PT7M35S
3350135739,60.6289316900074,6.41192668117583,bus,957,Voss Tinghus,Bulken,Voss stasjon D,-PT8M11S
3350377320,60.4049000144005,4.99729997478426,bus,442,Straume terminal C,skyss.no,Ågotnes terminal B,-PT21M3S
3350387060,60.2975000068545,5.32770998775959,bus,62,Lysekloster skole,Lagunen terminal,Lagunen terminal I,PT1M43S
3350387044,60.2975000068545,5.32774996943772,bus,64,Hordnes snuplass,Lagunen terminal,Lagunen terminal I,-PT1S
3350387034,60.2899999637157,5.34875996410847,bus,65,Lagunen terminal I,skyss.no,Smørås snuplass,PT2M18S
3350387032,60.2975000068545,5.32774996943772,bus,65,Grimseid snuplass,Lagunen terminal,Lagunen terminal I,PT1M36S
3350387062,60.2973000146449,5.32760001718998,bus,62,Lysekloster skole,Lagunen terminal,Lagunen terminal I,PT2M56S
3350453404,60.3518554754555,5.2773470710963,bus,15,Festplassen M,skyss.no,Garasje Spelhaugen,-PT44S
3350135761,60.6614233832806,6.43653494305909,bus,954,Voss stasjon G,skyss.no,Garasje Voss,PT16M24S
3350135740,60.6613733433187,6.43678329885006,bus,956,Leidal,Voss,Leidal,-PT1H14M27S
3350135760,60.6290883477777,6.41201502643526,bus,954,Lemme,Voss,Voss stasjon G,-PT42S
3350453408,60.3518364485353,5.27740658260882,bus,15,Festplassen M,skyss.no,Garasje Spelhaugen,-PT4M32S
3350453154,60.3619746118784,5.234709167853,bus,41,Hetlevikåsen snuplass,Loddefjord terminal,Loddefjord terminal B,-PT15S
3350453411,60.3518677968532,5.27733894065022,bus,15,Festplassen M,skyss.no,Garasje Spelhaugen,-PT49S
3350387075,60.249099964276,5.26537000201643,bus,62,Lagunen terminal I,skyss.no,Milde snuplass,-PT2M44S
3350387056,60.2975000068545,5.32771996222436,bus,64,Hordnes snuplass,Lagunen terminal,Lagunen terminal I,PT44S
3350387076,60.2120999805629,5.38904003798962,bus,62,Lysekloster skole,Lagunen terminal,Søvik sør,-PT2M46S
3350135740,60.6608400028199,6.43803999759257,bus,955,Voss stasjon D,skyss.no,Garasje Voss,-PT5M39S
3350453119,60.3631738945842,5.36596516147256,bus,45,Loddefjord terminal A,skyss.no,Garasje Mannsverk,PT2M23S
3350377314,60.3617000207305,5.12669996358454,bus,441,Bergen busstasjon Q,skyss.no,GARASJE Straume,-PT7M1S
3350387150,60.2617999725044,5.34373995848,bus,99,Fana kirke,skyss.no,GARASJE Fana Bussdepot,-PT1M19S
3350447646,60.486951218918,5.27910341508687,bus,96,Åsane terminal A,skyss.no,Støbotn,-PT11M16S
3350377319,60.3711999859661,5.19249002449214,bus,441,Storavatnet terminal A,Hjelteryggen,Breivikdalen,PT1M33S
3350387152,60.3867999650538,5.33324003219604,bus,51,Bergen busstasjon M,skyss.no,PARKERING Terminal Sør rpk 2.2 Bg sør,PT29M56S
3350387153,60.2885000221431,5.26277999393642,bus,51,Bergen busstasjon M,Birkelandsskiftet,Birkelandsskiftet C,PT6S
3350387061,60.2975000068545,5.32770998775959,bus,60,Fanahammeren snuplass,Lagunen terminal,Lagunen terminal I,-PT1M32S
3350377306,60.386699968949,5.15062996186316,bus,442,Knarrevik rv. 555,skyss.no,Hjelteryggen snuplass,-PT1M59S
3350387057,60.2611999958754,5.34598999656737,bus,61,Lagunen terminal E,Krokeide,Lagunen terminal E,-PT14M14S
3350387017,60.2973000146449,5.32760999165475,bus,65,Birkelandsskiftet D,Lagunen terminal,Lagunen terminal K,PT19S
3350361493,60.5446901265532,5.2788857370615,bus,304,Skodvin skule,Træland-Ones,Skodvin skule,-PT5H26M10S
3350387155,60.2883000299335,5.26310998946428,bus,51,Birkelandsskiftet D,Bergen busstasjon,Kokstadskiftet,-PT3M10S
3350387048,60.2978999912739,5.32793001271784,bus,62,Eidsvik snuplass,Lagunen terminal,Lagunen terminal I,PT4M47S
3350387059,60.2976000029594,5.21124000661075,bus,61,Lagunen terminal I,skyss.no,Flesland snuplass,PT1M46S
3350135694,60.0525650382042,5.76671836897731,bus,745,Kilen  kryss,Stussvik,Stussvik,PT5S
3350377311,60.3664000052959,5.14940000139177,bus,442,Bergen busstasjon Q,skyss.no,Valen Tona,PT4M31S
3350387070,60.2975000068545,5.32771996222436,bus,60,Fanahammeren snuplass,Lagunen terminal,Lagunen terminal I,PT10M35S
3350377314,60.3713999781758,5.15465000644326,bus,442,Knarrevik rv. 555,skyss.no,Storavatnet terminal A,PT4M20S
3350387023,60.28549997136,5.26684002019465,bus,65,Birkelandsskiftet D,Lagunen terminal,Ytrebygda skole,PT2S
3350377319,60.3721000347286,5.21278001368046,bus,442,Knarrevik rv. 555,skyss.no,Storavatnet terminal A,-PT4M42S
3350387071,60.2975000068545,5.32773002050817,bus,60,Fanahammeren snuplass,Lagunen terminal,Lagunen terminal I,PT45S
3350387061,60.2975000068545,5.32771996222436,bus,61,Krokeide VGS,Lagunen terminal,Lagunen terminal I,PT3M49S
3350387025,60.2975000068545,5.32773002050817,bus,65,Grimseid snuplass,Lagunen terminal,Lagunen terminal I,PT1M25S
3350453107,60.3561501111835,5.36818292923272,bus,44,Nipedalen,skyss.no,Garasje Mannsverk,-PT4M45S
3350453137,60.3919127583504,5.23325113579631,bus,41,Loddefjord terminal B,skyss.no,Skålevik snuplass,PT5M19S
3350324156,59.7364646103233,5.34570258110762,bus,559,Rubbestadneset kai,skyss.no,Gassasundet,PT34M37S
3350135615,60.476765781641,5.74250883422792,bus,925,Tysse indre,Arna,Arna terminal C,PT0S
3350453102,60.320166265592,5.35247826017439,bus,16E,Nesttun terminal C,Øyjorden,Nesttun terminal C,-PT11M38S
3350135612,60.5284744128585,6.72577874734998,bus,925,Granvin terminal,Bergen,Granvin terminal,-PT34M4S
3350324153,59.7922191862017,5.18824056722224,bus,559,Rolvsnes snuplass,Bremnes US,"Bremnes ungdomsskule, ny",PT7M42S
3350453105,60.3560900129378,5.36823615431786,bus,16E,Øyjorden,skyss.no,Garasje Mannsverk,PT5M7S
3350453108,60.3580731712282,5.36813800223172,bus,16E,Øyjorden,Nesttun terminal,Mannsverk,PT1M25S
3350324155,59.79407267645,5.17914687283337,bus,559,Rubbestadneset Sollia,Stokkabekken,Svortland terminal A,-PT40S
3350324150,59.7938867658377,5.17930478788912,bus,559,Rolvsnes snuplass,Svortland,Svortland terminal A,-PT8M3S
3350361493,60.5463815946132,5.28040923178196,bus,302,Knarvik terminal B,skyss.no,Knarvik garasje,PT7M45S
3350361480,60.5464351549745,5.28038324788213,bus,303,Knarvik terminal B,skyss.no,Knarvik garasje,PT1M40S
3350361479,60.7529411930591,5.06618874147534,bus,304,Lindås skulestopp,Hundvin boligfelt,Lindås skulestopp,-PT3H30M57S
3350135611,60.3696223441511,6.12532803788781,bus,925,Øystese,skyss.no,Garasje Norheimsund,-PT1M42S
3350377306,60.3597000148147,5.12307998724282,bus,441,Hjelteryggen snuplass,Straume terminal,Straume terminal C,PT25S
3350377305,60.3617000207305,5.12664003297687,bus,441,Storavatnet terminal B,skyss.no,GARASJE Straume,PT3M21S
3350361482,60.5448902025819,5.27962242253125,bus,304,Lindås skulestopp,skyss.no,Knarvik garasje,-PT7M46S
3440189664,61.5893522836268,5.00718601047993,bus,251,Florø terminal,Florø lufthamn,Gunhildvågen kryss,PT3M46S
3350362377,60.544713512063,5.27976541779935,bus,300,Bergen busstasjon J,skyss.no,Knarvik garasje,-PT5M12S
3350361494,60.5318674910814,5.25675072334707,bus,300,Bergen busstasjon J,Knarvik terminal,"Blandeverket, mot Knarvik",PT24S
3350361498,60.5465473886579,5.28670060448349,bus,300,Åsane terminal D,Knarvik terminal,Knarvik terminal B,-PT46S
3350361499,60.4218428581953,5.30739150010049,bus,300,Bergen busstasjon J,Knarvik terminal,Handelshøyskolen,PT58S
3350361496,60.545138893649,5.28149091638625,bus,300,Bergen busstasjon J,skyss.no,Knarvik garasje,-PT8M43S
3350361476,60.545308124274,5.27884919196367,bus,302,Knarvik terminal B,skyss.no,Knarvik garasje,PT19M14S
3350453179,60.3502980340272,5.28803676366806,bus,49,Lynghaug skole,skyss.no,Fyllingsdalen terminal D,-PT5M43S
3350453178,60.3628528676927,5.34111030399799,bus,49,Fantoft,skyss.no,Mindeveien snuplass,PT5M32S
3350453184,60.3493361268193,5.28762169182301,bus,48,Sælenveien,Fyllingsdalen terminal,Fyllingsdalen terminal K,-PT1M7S
3440189664,61.6011298634112,5.04908027127385,bus,253,Florø terminal,Verftet,Florø Verftet,PT23S
3350324144,59.7922943718731,5.18909635953605,bus,556,Stokkabekken terminal,Mæland,"Bremnes ungdomsskule, ny",PT1M16S
3350453148,60.3560622688383,5.36817890591919,bus,16E,Øyjorden,skyss.no,Garasje Mannsverk,-PT4M55S
3350453145,60.3560809604824,5.36821167916059,bus,49,Lyderhornsveien,skyss.no,Garasje Mannsverk,PT3M8S
3350324155,59.7962481155992,5.18476375378668,bus,555,Svortland terminal B,skyss.no,Garasje Bømlo,-PT4M42S
3350447655,60.3562983032316,5.35848699510098,bus,5,Fyllingsdalen terminal E,Sletten,Slettebakken,PT4M54S
3350447658,60.4827381391078,5.38441347889602,bus,5,Sletten snuplass,skyss.no,Garasje Haukås,PT40S
3350324160,59.7897540684789,5.49608926288784,bus,554,Gassasundet,skyss.no,Garasje Stord,-PT10M9S
3350447659,60.3930072672665,5.32828833907843,bus,5,Fyllingsdalen terminal E,Sletten,Nygaten,PT44S
3350453153,60.3495287429541,5.28780190274119,bus,48,Sælenveien,Fyllingsdalen terminal,Fyllingsdalen terminal K,-PT59S
3350453141,60.3559561539441,5.36831427365541,bus,16E,Nesttun terminal D,skyss.no,Garasje Mannsverk,-PT1M44S
3350361450,60.5458713881671,5.28025785461068,bus,302,Seim skule,skyss.no,Knarvik garasje,PT47S
3350361467,60.5430455971509,5.09175840765238,bus,301,Knarvik terminal B,skyss.no,"Fløksand, Beitingvegen",-PT3M18S
3350361435,60.6449445616454,5.23423735052347,bus,304,Seim skule,skyss.no,Nesse snuplass,PT4M17S
3350324157,59.793924568221,5.17922868020833,bus,555,Svortland terminal B,Økland - Gåsland,Svortland terminal B,-PT3M43S
3350447652,60.3660904616117,5.34241410903633,bus,5,Sletten snuplass,skyss.no,Fyllingsdalen terminal E,-PT11M21S
3350361469,60.605327244848,5.39823221974075,bus,301,Knarvik kai,skyss.no,Eikanger bru,PT6M57S
3350324163,59.7973405290395,5.20548742264509,bus,555,Svortland terminal B,skyss.no,Garasje Bømlo,PT15M33S
3350324155,59.7940492909402,5.17947695218027,bus,556,Svortland terminal D,Mæland,Svortland terminal D,-PT4M12S
3350447656,60.3450683131814,5.26028436608613,bus,4,Hesjaholtet,Flaktveit,Hesjaholtet,-PT14M36S
3350324150,59.7922486905009,5.18841030076146,bus,556,Svortland terminal D,Mæland,"Bremnes ungdomsskule, ny",-PT27S
3350453138,60.3303768485785,5.37953051738441,bus,16E,Nesttun terminal C,Øyjorden,Kjenndalslia,PT20S
3350447659,60.4625984374434,5.37058023735881,bus,4,Hesjaholtet,Flaktveit,Flaktveit snuplass,PT4M38S
3350447649,60.3446517325938,5.26063296943903,bus,5,Fyllingsdalen terminal K,skyss.no,Hesjaholtet,PT11M9S
3350453131,60.3561631031334,5.36824981682003,bus,16E,Øyjorden,skyss.no,Garasje Mannsverk,PT36S
3350453183,60.3492661379278,5.28765957802534,bus,46,Løvstakkskiftet,Fyllingsdalen terminal,Fyllingsdalen terminal K,PT1M25S
3350453184,60.3493273258209,5.28764205984771,bus,46,Løvstakkskiftet,Fyllingsdalen terminal,Fyllingsdalen terminal K,-PT22S
3350387016,60.308300005272,5.26963002048433,bus,60,Lagunen terminal I,skyss.no,Dolvik terminal B,-PT13S
3350361466,60.5675723031163,5.239815171808,bus,302,Knarvik terminal B,skyss.no,Flatøy terminal  C,PT2M50S
3350447650,60.4147937614471,5.32151911407709,bus,4,Hesjaholtet,Flaktveit,Gamle Bergen,PT10M49S
3350453123,60.3606723155826,5.35079701803625,bus,16E,Øyjorden,skyss.no,Wergeland C,PT15M31S
3350453126,60.319690676406,5.3524415474385,bus,16E,Øyjorden,Nesttun terminal,Nesttun terminal D,PT1M26S
3350453153,60.3493336122483,5.2876444067806,bus,46,Løvstakkskiftet,Fyllingsdalen terminal,Fyllingsdalen terminal K,PT0S
3350453169,60.3617841750383,5.23545247502625,bus,45,Loddefjord terminal B,Loddefjord terminal,Loddefjord terminal A,-PT53S
3440189709,61.3909258134663,5.76403733342886,bus,FB59,Vieåsen,Førde lufthamn,Førde lufthamn Bringeland,PT1M38S
3350324149,59.7939225565642,5.17928441986442,bus,558,Brandasund snuplass,Svortland,Svortland terminal C,-PT2M4S
3350453112,60.3197993896902,5.3523881547153,bus,16E,Øyjorden,Nesttun terminal,Nesttun terminal D,-PT1M10S
3350324157,59.7911109309644,5.19000269472599,bus,558,Brandasund snuplass,Svortland,"Svortland skule, til Rubbestadneset",-PT2M47S
3350453115,60.356066878885,5.36817907355726,bus,16E,Øyjorden,skyss.no,Garasje Mannsverk,-PT2M8S
3350324147,59.7658307757229,5.31100527383387,bus,559,Leirvik terminal C,skyss.no,Siggjarvågen,-PT5M
3350453114,60.3545439708978,5.36694115027785,bus,16E,Garasje Mannsverk,skyss.no,Øyjorden,-PT1M23S
3350453116,60.3198243677616,5.35235018469393,bus,16E,Øyjorden,Nesttun terminal,Nesttun terminal D,PT6S
3350453138,60.3210213873535,5.35351334139705,bus,49,Nattland skole,skyss.no,Nesttun terminal C,PT35M52S
3350453118,60.3561430703849,5.36820539273322,bus,16E,Øyjorden,skyss.no,Garasje Mannsverk,-PT1M29S
3350324144,59.7942116484046,5.17928768880665,bus,559,Rubbestadneset kai,Svortland,Svortland terminal A,-PT2M10S
3350377332,60.4449999611825,5.16952998004854,bus,480,Erdal ungdomsskole,skyss.no,Haugland verkstedet,-PT17M38S
3350377422,60.4049000144005,4.99732000753284,bus,471,Aker CCB,skyss.no,Ågotnes terminal A,-PT30M42S
3350453111,60.3560251370072,5.3683044668287,bus,16E,Øyjorden,skyss.no,Garasje Mannsverk,PT37S
3350453110,60.3197538759559,5.35239762626588,bus,16E,Øyjorden,Nesttun terminal,Nesttun terminal D,-PT20S
3350453130,60.3720689378679,5.2127555385232,bus,49,Lyderhornsveien,skyss.no,Storavatnet terminal B,-PT3M15S
3350361450,60.6509882491082,5.14706865884364,bus,301,Knarvik terminal B,skyss.no,Haukås snuplass,-PT1M31S
3350361435,60.5482747312635,5.29385321773589,bus,303,Knarvik terminal B,skyss.no,Knarvik garasje,-PT6M35S
3350387084,60.2097999863327,5.3865800332278,bus,601,Eidsvik snuplass,Osøyro,Søvik sør,PT1M51S
3350387081,60.1852000225335,5.46908000484109,bus,601,Eidsvik snuplass,Osøyro,Osøyro terminal B,-PT55S
3440189708,61.4524921495467,5.85415343753994,bus,230,Askvoll kai,Førde,Førde rutebilstasjon,PT2M11S
3350447724,60.5265328288078,5.49361039884388,bus,903,Valestrand kai,skyss.no,Garasje Lonevåg,-PT2M38S
3350447734,60.5256211291999,5.49718293361366,bus,902,Kvisti terminal,Lonevåg,Lonevåg terminal,PT0S
3350387086,60.1852000225335,5.46900004148483,bus,601,Eidsvik snuplass,Osøyro,Osøyro terminal B,PT35S
3350447727,60.5148522276431,5.44333565980196,bus,903,Valestrand kai,Lonevåg,Loftås,PT18S
3350447519,60.4827533941716,5.3843491896987,bus,19,Åsane terminal F,skyss.no,Garasje Haukås,-PT6M31S
3350447739,60.5255734361708,5.49846494570374,bus,902,Kvisti terminal,Lonevåg,Lonevåg terminal,PT1M38S
3350447729,60.5050463229418,5.42743116617203,bus,903,Lonevåg terminal,Valestrand,Valestrand kai,-PT1M25S
3350447517,60.4827758576721,5.38437115028501,bus,19,Åsane terminal F,skyss.no,Garasje Haukås,-PT2M11S
3350447518,60.4380530398339,5.28628536500037,bus,19,Åsane terminal E,Løvstakkskiftet,Lønborg,PT1M52S
3350361471,60.5191098153591,5.24008959531784,bus,320,Knarvik terminal B,skyss.no,Frekhaug terminal,PT24M43S
3350135609,59.8594349250197,5.77346613630652,bus,791,Husnes sentrum nord,skyss.no,Garasje Husnes,PT1M42S
3350447513,60.482778204605,5.38434952497482,bus,19,Åsane terminal F,skyss.no,Garasje Haukås,-PT3M53S
3350135695,60.4004933126271,5.73755999095738,bus,925,Arna terminal C,skyss.no,Garasje Samnanger,PT3M12S
3350447511,60.3832706809044,5.31138497404754,bus,19,Åsane terminal E,Løvstakkskiftet,Carl Konows gate,-PT54S
3350447512,60.4829143267125,5.3842244669795,bus,19,Åsane terminal F,skyss.no,Garasje Haukås,-PT1M25S
3350361473,60.6402401346713,5.04548451863229,bus,320,Knarvik terminal B,skyss.no,Manger senter,PT7M38S
3350447510,60.46311551705,5.32100547105074,bus,19,Løvstakkskiftet,Åsane terminal,Åsane terminal F,-PT1M
3350453513,60.3742605540901,5.21139683201909,bus,40,Storavatnet terminal B,Bergen busstasjon,Godviksvingane,PT1M58S
3350453510,60.3809172101319,5.26882971636951,bus,40,Storavatnet terminal B,Bergen busstasjon,Møhlenpris,PT1M12S
3350361447,60.6409411132336,5.05576995201409,bus,323,Radøy ungdomsskule,skyss.no,Manger garasje,-PT1M24S
3440189708,61.3463371898979,5.06323479115963,bus,220,Dale,Askvoll,Askvoll kai,-PT1M2S
3350377394,60.3598000109196,5.12321996502578,bus,23E,Straume terminal A,Straume terminal,Straume terminal B,PT1M49S
3440189707,61.3626063801348,5.39991212077439,bus,220,Dale,Askvoll,Dale,-PT3H27M
3350377386,60.3617000207305,5.12665998190641,bus,23E,Straume terminal B,skyss.no,GARASJE Straume,-PT2M21S
3350447725,60.5261333473027,5.49348073080182,bus,902,Lonevåg terminal,Haus,Lonevåg terminal,-PT10M
3350447726,60.5262687150389,5.49410141073167,bus,902,Lonevåg terminal,skyss.no,Garasje Lonevåg,PT5S
3350453109,60.3561106324196,5.36822659894824,bus,82,Grønnestølen,skyss.no,Garasje Mannsverk,-PT1M1S
3350361485,60.5453592538834,5.2801445312798,bus,320,Knarvik terminal B,Manger,Knarvik terminal B,-PT10M22S
3350361446,60.7838549930602,4.93185491301119,bus,324,Austrheim vgs.,skyss.no,Mastrevik torg,PT1M54S
3350361473,60.5191065464169,5.24003486149013,bus,321,Austmarka,skyss.no,Frekhaug terminal,PT5M42S
3350453114,60.3592764772475,5.34974919632077,bus,81,Mannsverk garasje,skyss.no,Wergeland C,PT5M22S
3350447602,60.4827853292227,5.38432924076915,bus,4E,Bergen busstasjon Q,skyss.no,Garasje Haukås,-PT3M31S
3350361447,60.7257663924247,4.97578538954258,bus,320,Knarvik terminal B,skyss.no,Straume nord,PT20M22S
3350447601,60.4827243927866,5.3844044264406,bus,4E,Bergen busstasjon Q,skyss.no,Garasje Haukås,-PT7M2S
3350447730,60.4200803954154,5.46421699225903,bus,900,Arna terminal A,Lonevåg,Øyrane torg E16,-PT1M45S
3350447738,60.526308529079,5.49409076571465,bus,900,Hatland skulesenter,skyss.no,Garasje Lonevåg,PT32S
3350447538,60.4827611893415,5.38437634706497,bus,19,Åsane terminal F,skyss.no,Garasje Haukås,-PT2M42S
3350447533,60.4633924551308,5.32078871503472,bus,19,Løvstakkskiftet,Åsane terminal,Åsane terminal F,PT3M11S
3350447532,60.3733213618398,5.3028738219291,bus,19,Løvstakkskiftet,Åsane terminal,Melkeplassen,-PT39S
3350361455,60.6402444094419,5.04238002933562,bus,320,Manger senter,Knarvik terminal,Manger meieri,-PT8M37S
3350361459,60.640989728272,5.05499454215169,bus,320,Manger senter,skyss.no,Manger garasje,-PT50S
3350447710,60.5131010804325,5.47707181423903,bus,901,Haus terminal,skyss.no,Garasje Bruvik,PT44S
3350447720,60.5262877419591,5.494070565328,bus,900,Hatland skulesenter,skyss.no,Garasje Lonevåg,-PT3M50S
3350135625,59.7942087147385,5.72302929125726,bus,791,Valen sjukehuset,Høylandsbygd,"Sæbøvik, båthavn",-PT16S
3350447711,60.4698699899018,5.64824896864593,bus,901,Haus terminal,skyss.no,Garasje Bruvik,PT42M22S
3350447712,60.5265321582556,5.49364618957043,bus,901,Haus terminal,skyss.no,Garasje Lonevåg,-PT5M14S
3350447722,60.4219961632043,5.4605869576335,bus,900,Hatland skulesenter,skyss.no,Arna terminal A,-PT2M49S
3350453505,60.3561310842633,5.36821519955993,bus,40,Bergen busstasjon Q,skyss.no,Garasje Mannsverk,PT50S
3350447724,60.4200751148164,5.46437105163932,bus,900,Hatland skulesenter,Arna terminal,Arna terminal A,-PT36S
3350135626,59.7927721403539,5.70595996454358,bus,790,Halsnøy skule,skyss.no,Garsje Halsnøy,-PT13S
3350447727,60.5051572155207,5.42923972941935,bus,900,Hatland skulesenter,skyss.no,Valestrand kai,PT11M30S
3350447528,60.4630375653505,5.32104645855725,bus,19,Løvstakkskiftet,Åsane terminal,Åsane terminal F,PT1M4S
3350361460,60.6408298015594,5.05530869588256,bus,320,Manger senter,Knarvik terminal,Manger senter,-PT2H29M20S
3350447529,60.4360511060804,5.31750694848597,bus,19,Løvstakkskiftet,Åsane terminal,Eidsvåg i Ervik C,PT4M46S
3350453507,60.3560663759708,5.36827873438597,bus,40,Bergen busstasjon Q,skyss.no,Garasje Mannsverk,PT3M46S
3350453508,60.3560936171561,5.3681596275419,bus,40,Bergen busstasjon Q,skyss.no,Garasje Mannsverk,-PT3M1S
3350447523,60.4630280099809,5.32102114520967,bus,19,Løvstakkskiftet,Åsane terminal,Åsane terminal F,PT4M38S
3350361462,60.5449017696083,5.27965787798166,bus,320,Knarvik terminal B,skyss.no,Knarvik garasje,-PT4M29S
3350447520,60.4105865489691,5.32314411364496,bus,19,Løvstakkskiftet,Åsane terminal,Ludebryggen,PT2M25S
3350453502,60.3503039851785,5.28804053552449,bus,40,Bergen busstasjon Q,skyss.no,Fyllingsdalen terminal E,PT52S
3350361455,60.6450607348233,4.96190579608083,bus,321,Radøy ungdomsskule,skyss.no,Toska snuplass,PT3M18S
3350447701,60.5265257041901,5.49361056648195,bus,909,Hosanger montessoriskule,skyss.no,Garasje Lonevåg,-PT1M24S
3350132664,60.0138164218515,5.51340929232538,bus,654,Våge kai,skyss.no,Garasje Uggdal,PT2M22S
3350447702,60.52629545331,5.49417517147958,bus,909,Hatland skulesenter,skyss.no,Garasje Lonevåg,-PT1M13S
3350447733,60.5252895411104,5.49837953411043,bus,906,Tyssebotn kai,Lonevåg,Lonevåg terminal,-PT1M37S
3350447703,60.5263107921928,5.49408850260079,bus,909,Hatland skulesenter,skyss.no,Garasje Lonevåg,-PT7M48S
3350447704,60.5263131391257,5.4940031748265,bus,909,Lonevåg terminal,skyss.no,Garasje Lonevåg,-PT3M4S
3350447734,60.5262926034629,5.49409495666623,bus,906,Lonevåg terminal,skyss.no,Garasje Lonevåg,-PT1M31S
3350447735,60.5263056792319,5.49405564554036,bus,906,Lonevåg terminal,skyss.no,Garasje Lonevåg,-PT3M12S
3350447725,60.5255477875471,5.4983601719141,bus,906,Fotlandsvåg sentrum,Lonevåg,Lonevåg terminal,-PT3M36S
3350447726,60.5252463743091,5.49831951968372,bus,906,Tyssebotn kai,Lonevåg,Lonevåg terminal,PT59S
3350447737,60.5263107083738,5.49405405297875,bus,905,Lonevåg terminal,skyss.no,Garasje Lonevåg,-PT3M23S
3350135709,60.0138500332832,5.51329496316612,bus,651,Våge kai,skyss.no,Garasje Uggdal,PT5M16S
3350387038,60.2618999686092,5.34371003508568,bus,601,Osøyro terminal B,skyss.no,GARASJE Fana Bussdepot,-PT58S
3350361505,60.3886787686497,5.33325050957501,bus,310,Hjertås nord,Bergen busstasjon,Bergen busstasjon J,-PT4M7S
3350361506,60.5464168824255,5.28623607940972,bus,310,Rossland,Knarvik terminal,Knarvik terminal B,-PT1M10S
3350361504,60.5449091456831,5.27960347943008,bus,310,Flatøy terminal  D,skyss.no,Knarvik garasje,-PT1M28S
3350361508,60.5451220460236,5.28157180175185,bus,310,Bergen busstasjon J,skyss.no,Knarvik garasje,-PT2M59S
3350135715,60.0723539572209,5.68809469230473,bus,654,Gjermundshamn kai,Hodnanes,Malkenes,PT4M12S
3350135705,60.1481047365814,5.89895504526794,bus,740,Årsnes kai,Bergen,Furhovde,PT1M34S
3350135717,60.0606316979975,5.91964837163687,bus,654,Ølve Dalsjøen,Gjermundshamn,Gjermundshamn kai,PT1M40S
3350447735,60.5262102093548,5.49405137076974,bus,904,Lonevåg terminal,skyss.no,Garasje Lonevåg,-PT1M26S
3350447729,60.5255332868546,5.4984447453171,bus,905,Myking,Lonevåg,Lonevåg terminal,-PT4M35S
3350135709,60.0139350257814,5.51303336396813,bus,654,Våge kai,Hodnanes,Våge kai,-PT1H42M24S
3350361515,60.5451963096857,5.2818195708096,bus,310,Hjertås nord,skyss.no,Knarvik garasje,PT6M23S
3350132664,60.0138656236231,5.513233859092,bus,655,Tysnes skule,Neshamn,Tysnes skule,-PT4H11M53S
3350447730,60.5263317469507,5.49400443211198,bus,903,Hatland skulesenter,skyss.no,Garasje Lonevåg,-PT1M
3350447720,60.526308696717,5.49326221458614,bus,904,Lonevåg terminal,skyss.no,Hatland skulesenter,PT30M28S
3350447732,60.5263037513942,5.49403293058276,bus,903,Lonevåg terminal,skyss.no,Garasje Lonevåg,-PT1M6S
3350447733,60.5265798512846,5.49351618625224,bus,903,Valestrand kai,skyss.no,Garasje Lonevåg,PT3M46S
3350447734,60.5254302732646,5.4981891810894,bus,903,Valestrand kai,Lonevåg,Lonevåg terminal,PT2M50S
3350135715,60.0138408970088,5.51322882995009,bus,653,Tysnes skule,skyss.no,Garasje Uggdal,-PT44S
3350447726,60.5252571869642,5.49842370674014,bus,904,Raknes,Lonevåg,Lonevåg terminal,PT1M50S
3350447737,60.5051853787154,5.42798655107617,bus,903,Valestrand kai,Valestrand,Valestrand kai,-PT18S
3350447739,60.5263198446482,5.49399076960981,bus,903,Lonevåg terminal,skyss.no,Garasje Lonevåg,-PT3S
3350453502,60.3560855705291,5.36826959811151,bus,49,Birkeveien,skyss.no,Garasje Mannsverk,-PT1M29S
3350135720,60.22770348005,5.70273318327963,bus,740,Eikelandsosen terminal,Osøyro,Stølane,-PT58S
3350453177,60.3602579981089,5.35055419430137,bus,82,Grønnestølen,Wergeland,Wergeland C,PT1M16S
3350453505,60.3865708876401,5.33489503897727,bus,49,Bildøy skulesenter,skyss.no,Bergen busstasjon H,-PT3M41S
3440189690,61.3630805443972,5.39969276636839,bus,210,Rysjedalsvika kai,Dale,Dale,-PT1M57S
3350453188,60.3552716877311,5.368093829602,bus,81,Mannsverk,Mannsverk,Mannsverk,-PT2H31M36S
3350447659,60.4869498778135,5.27902387082577,bus,4E,Bergen busstasjon Q,skyss.no,Støbotn,PT5M52S
3350453180,60.360675919801,5.35078964196146,bus,82,Grønnestølen,Wergeland,Wergeland C,PT2M33S
3350135750,60.0462483521551,5.523646697402,bus,651,Hodnanes,Våge,Våge kai,-PT2M38S
3350453514,60.3559143282473,5.36820891313255,bus,49,Fantoft,skyss.no,Garasje Mannsverk,PT1M53S
3350453181,60.3606716450304,5.35076893866062,bus,82,Grønnestølen,Wergeland,Wergeland C,PT10M53S
3350447651,60.4827577527612,5.38435388356447,bus,4E,Bergen busstasjon Q,skyss.no,Garasje Haukås,PT7M34S
257055860,60.045494999999995,5.335406666666667,ferry,1018,Sandvikvåg,Halhjem,Halhjem,PT0S
3350135711,60.196578707546,5.79511944204569,bus,740,Eikelandsosen terminal,skyss.no,Sævareid nord,-PT2M23S
3350135717,60.1640016864985,5.90771832503378,bus,740,Osøyro terminal B,Gjermundshamn,Mundheim terminal,-PT1M58S
3350453119,60.3619903698564,5.23473339155316,bus,41,Hetlevikåsen snuplass,Loddefjord terminal,Loddefjord terminal B,-PT6S
3350361501,60.5314821749926,5.25706093758345,bus,310,Flatøy terminal  B,Frekhaug terminal,Flatøy terminal  B,-PT1M32S
3350361502,60.5461204145104,5.28000195510685,bus,310,Flatøy terminal  D,skyss.no,Knarvik garasje,-PT1M40S
3350447648,60.3445907123387,5.26071142405272,bus,4E,Bergen busstasjon Q,skyss.no,Hesjaholtet,-PT17S
3350361500,60.3885354381055,5.33330591395497,bus,310,Skjelanger kai,Bergen busstasjon,Bergen busstasjon J,-PT45S
