VehicleRef,Latitude,Longitude,Vehicle,LineNum,StartName,DestinationName,StopPointName,Delay
3350387030,60.2617999725044,5.34371003508568,bus,29,Nesttun terminal D,skyss.no,GARASJE Fana Bussdepot,-PT2M8S
3350387031,60.3197999764234,5.35244003869593,bus,29,Arna terminal B,Nesttun terminal,Nesttun terminal D,-PT1M42S
3350447621,60.465332865715,5.35980831831694,bus,4,Flaktveit snuplass,Hesjaholtet,Flaktveitsvingane,PT21S
3350447631,60.4738768748939,5.26750445365906,bus,3,Støbotn,Vadmyra,Bakketoppen,PT1M24S
3350447634,60.4089889582247,5.32258973456919,bus,3,Vadmyra,Støbotn,Ludebryggen,PT4M2S
3350447624,60.3487746231258,5.28663673438132,bus,4,Hesjaholtet,skyss.no,Fyllingsdalen terminal E,-PT1M32S
3350447614,60.3567526023835,5.35869930870831,bus,5,Sletten,Fyllingsdalen terminal,Fageråsen,PT16S
3350447633,60.4638219438493,5.32122138887644,bus,3,Støbotn,Vadmyra,Eidsvåg E39 B,PT2M15S
3350447615,60.344850635156,5.26025176048279,bus,5,Fyllingsdalen terminal K,skyss.no,Garasje Haukås,-PT1M17S
3350447638,60.4598479997367,5.31930671073496,bus,3,Vadmyra,Støbotn,Åsane terminal B,PT3M13S
3350387084,60.2029000036418,5.45480000786483,bus,601,Osøyro terminal A,Drange,Tøsdalskiftet A,-PT48S
3350387081,60.1852000225335,5.46908000484109,bus,601,Eidsvik snuplass,Osøyro,Osøyro terminal B,-PT55S
3440189708,61.4521653391421,5.8500886335969,bus,230,Askvoll kai,Førde,Førde rutebilstasjon,PT1M9S
3350447639,60.3652483318001,5.22593683563173,bus,3,Vadmyra,Støbotn,Vestre Vadmyra,-PT3M55S
3350447629,60.4735345579684,5.33375878818333,bus,4,Hesjaholtet,Flaktveit,Gullgruven,PT2M26S
3350447734,60.5256211291999,5.49718293361366,bus,902,Kvisti terminal,Lonevåg,Lonevåg terminal,PT0S
3350447724,60.5111458338797,5.51944551989436,bus,903,Lonevåg terminal,Valestrand,Revheim aust,PT15S
3350387086,60.1852000225335,5.46900004148483,bus,601,Eidsvik snuplass,Osøyro,Osøyro terminal B,PT35S
3350447727,60.5459466576576,5.37619049660861,bus,903,Valestrand kai,Valestrand,Sandalsneset,-PT32S
3350447519,60.4827533941716,5.3843491896987,bus,19,Åsane terminal F,skyss.no,Garasje Haukås,-PT6M31S
3350447739,60.5255734361708,5.49846494570374,bus,902,Kvisti terminal,Lonevåg,Lonevåg terminal,PT1M38S
3350447729,60.5050331633538,5.42782905511558,bus,903,Valestrand kai,Lonevåg,Valestrand skule,-PT10M
3350361462,60.5694967042655,5.23624188266695,bus,345,Knarvik vgs.,skyss.no,Alversund skule,PT10M20S
3350361472,60.6887976732105,5.39355444721878,bus,344,Rødland,Ostereidet,Rødland,-PT1M36S
3350447517,60.4827758576721,5.38437115028501,bus,19,Åsane terminal F,skyss.no,Garasje Haukås,-PT2M11S
3350361471,60.5191098153591,5.24008959531784,bus,320,Knarvik terminal B,skyss.no,Frekhaug terminal,PT24M43S
3350361483,60.6264701765031,5.47375626862049,bus,343,Ostereidet skule stopp 5,skyss.no,Ostereidet garasje,-PT48S
3350447518,60.4627208132297,5.3209366556257,bus,19,Åsane terminal E,Løvstakkskiftet,Åsane terminal E,-PT25M14S
3350135609,59.8594349250197,5.77346613630652,bus,791,Husnes sentrum nord,skyss.no,Garasje Husnes,PT1M42S
3350361491,60.7222855556756,5.21715343929827,bus,342,Vågseidet senter,Eikanger bru,Fjellsenda vest,PT1M4S
3350324146,59.7364203538746,5.34551750868559,bus,552,Kulleseidkanalen sør,Gassasundet,Gassasundet,PT38S
3350447513,60.482778204605,5.38434952497482,bus,19,Åsane terminal F,skyss.no,Garasje Haukås,-PT3M53S
3350135695,60.4004933126271,5.73755999095738,bus,925,Arna terminal C,skyss.no,Garasje Samnanger,PT3M12S
3350324148,59.7968695499003,5.18651029095054,bus,552,Svortland terminal D,Langevåg,Svortland terminal D,-PT2H34M50S
3350447511,60.462729698047,5.3215254843235,bus,19,Åsane terminal E,Løvstakkskiftet,Hesthaugen,-PT4M45S
3350361473,60.6402401346713,5.04548451863229,bus,320,Knarvik terminal B,skyss.no,Manger senter,PT7M38S
3350447512,60.4829143267125,5.3842244669795,bus,19,Åsane terminal F,skyss.no,Garasje Haukås,-PT1M25S
3350447510,60.46311551705,5.32100547105074,bus,19,Løvstakkskiftet,Åsane terminal,Åsane terminal F,-PT1M
3350453513,60.388195803389,5.33298396505415,bus,40,Bergen busstasjon H,Olsvik,Olav Kyrres gate H,PT0S
3350453510,60.3727930504829,5.22271449677646,bus,40,Bergen busstasjon H,Olsvik,Skjenlien,PT1M42S
3350361447,60.6409411132336,5.05576995201409,bus,323,Radøy ungdomsskule,skyss.no,Manger garasje,-PT1M24S
3350324150,59.7941931243986,5.17930713482201,bus,552,Langevåg kai,Svortland,Svortland terminal D,PT23S
3350447621,60.3652951028198,5.22583214566112,bus,3,Støbotn,Vadmyra,Vadmyra,PT19S
3350447603,60.3646869957447,5.22528832778335,bus,5,Fyllingsdalen terminal K,skyss.no,Vadmyra,-PT4M16S
3350447612,60.3644642047584,5.2976861782372,bus,4,Hesjaholtet,Flaktveit,Gyldenpris,PT38S
3350387046,60.3197999764234,5.35239997319877,bus,29,Arna terminal B,Nesttun terminal,Nesttun terminal D,-PT2M27S
3350447615,60.3424446098506,5.26896198280156,bus,4,Hesjaholtet,Flaktveit,Myrholtet,PT7S
3350447625,60.486882487312,5.27836563996971,bus,3,Støbotn,Vadmyra,Støbotn,-PT31M45S
3350447604,60.3475247975439,5.3588930144906,bus,5,Sletten,Fyllingsdalen terminal,Sletten,-PT16M57S
3350447627,60.4828164260834,5.38431851193309,bus,3,Vadmyra,skyss.no,Garasje Haukås,-PT5M52S
3350447616,60.3449384775013,5.26043490506709,bus,4,Hesjaholtet,Flaktveit,Hesjaholtet,-PT39M8S
3350447606,60.3831061441451,5.35815113224089,bus,5,Sletten,Fyllingsdalen terminal,Årstadveien,PT43S
3350387047,60.3385999985039,5.50332996994257,bus,29,Nesttun terminal D,skyss.no,Lund snuplass,-PT9M43S
3350447619,60.3431819658726,5.27190436609089,bus,4,Flaktveit snuplass,Hesjaholtet,Allestadveien,PT1M54S
3350447628,60.3898199647665,5.32235378399491,bus,3,Støbotn,Vadmyra,Møhlenpris,PT2M26S
3440189708,61.3463371898979,5.06323479115963,bus,220,Dale,Askvoll,Askvoll kai,-PT1M2S
3350377394,60.3598000109196,5.12321996502578,bus,23E,Straume terminal A,Straume terminal,Straume terminal B,PT1M49S
3440189707,61.3626150973141,5.39994740858674,bus,220,Dale,Askvoll,Dale,-PT4H51M34S
3350377386,60.3617000207305,5.12665998190641,bus,23E,Straume terminal B,skyss.no,GARASJE Straume,-PT2M21S
3350447725,60.526136867702,5.49346832558513,bus,902,Lonevåg terminal,Haus,Lonevåg terminal,-PT52M57S
3350447726,60.5262687150389,5.49410141073167,bus,902,Lonevåg terminal,skyss.no,Garasje Lonevåg,PT5S
3350453109,60.3561106324196,5.36822659894824,bus,82,Grønnestølen,skyss.no,Garasje Mannsverk,-PT1M1S
3440189694,61.7767275497317,6.2140635587275,bus,100,Byrkjelo,Sandane,Sandane rutebilstasjon,-PT48S
3350361477,60.6353835761547,5.48942690715194,bus,345,Ostereidet senter,Andvik,Ostereidet senter,-PT2H31M57S
3350361485,60.6179280951619,5.14614564366639,bus,320,Manger senter,Knarvik terminal,Kvamme,PT1M16S
3350361446,60.7838549930602,4.93185491301119,bus,324,Austrheim vgs.,skyss.no,Mastrevik torg,PT1M54S
3350361473,60.5191065464169,5.24003486149013,bus,321,Austmarka,skyss.no,Frekhaug terminal,PT5M42S
3350453114,60.3592764772475,5.34974919632077,bus,81,Mannsverk garasje,skyss.no,Wergeland C,PT5M22S
3350324135,59.7369285486639,5.34608747810125,bus,554,Gassasundet,skyss.no,Garasje Stord,-PT4S
3350324136,59.7942874208093,5.17917528748512,bus,554,Gassasundet,skyss.no,Svortland terminal B,PT34M36S
3350447580,60.4828248079866,5.38432530127466,bus,39,Viddalen,skyss.no,Garasje Haukås,-PT6M38S
3350447602,60.4827853292227,5.38432924076915,bus,4E,Bergen busstasjon Q,skyss.no,Garasje Haukås,-PT3M31S
3350447642,60.3957567829639,5.32557335682213,bus,4,Flaktveit snuplass,Hesjaholtet,Olav Kyrres gate G,PT2M5S
3350361447,60.7257663924247,4.97578538954258,bus,320,Knarvik terminal B,skyss.no,Straume nord,PT20M22S
3350447654,60.3621437586844,5.23501158691943,bus,3,Støbotn,Vadmyra,Lyngfaret,-PT57S
3350324163,59.7942403145134,5.17918509431183,bus,552,Svortland skule til Mækjebakken,skyss.no,Svortland terminal B,PT3M41S
3350447601,60.4827243927866,5.3844044264406,bus,4E,Bergen busstasjon Q,skyss.no,Garasje Haukås,-PT7M2S
3350447653,60.4845211375505,5.37705894559622,bus,3,Garasje Haukås,skyss.no,Støbotn,PT17S
3350447636,60.386406686157,5.31996100209653,bus,5,Fyllingsdalen terminal E,Sletten,Festplassen N,PT14S
3350447645,60.3450889326632,5.26042669080198,bus,4,Hesjaholtet,Flaktveit,Hesjaholtet,-PT28M6S
3350387080,60.2618999686092,5.34372000955045,bus,22,Lagunen terminal I,skyss.no,GARASJE Fana Bussdepot,-PT14S
3350447648,60.3451072890311,5.26031160727143,bus,4,Hesjaholtet,Flaktveit,Hesjaholtet,-PT18M21S
3350447657,60.4868722613901,5.27806858532131,bus,3,Vadmyra,Støbotn,Støbotn snuplass,PT1M1S
3350447730,60.5262470897287,5.49323195591569,bus,900,Garasje Lonevåg,skyss.no,Hatland skulesenter,-PT9M53S
3350447738,60.526308529079,5.49409076571465,bus,900,Hatland skulesenter,skyss.no,Garasje Lonevåg,PT32S
3350447538,60.4827611893415,5.38437634706497,bus,19,Åsane terminal F,skyss.no,Garasje Haukås,-PT2M42S
3350447533,60.3977474849671,5.32161307521164,bus,19,Løvstakkskiftet,Åsane terminal,Bontelabo,PT3M13S
3350361442,60.7544459961355,5.36823271773756,bus,345,Sandnes skule,Ådnekvam,Sandnes skule,-PT3H25M1S
3350447573,60.4636353626847,5.32190132886171,bus,39,Viddalen,skyss.no,Åsane terminal E,PT5M39S
3350361438,60.8287900406867,5.57434497401118,bus,346,Andås kryss,skyss.no,Haukeland,PT30M59S
3350447532,60.4452673438936,5.28395829722285,bus,19,Åsane terminal E,Løvstakkskiftet,Eidsvågneset,PT1M11S
3350324136,59.7940748557448,5.17945398576558,bus,555,Svortland terminal B,skyss.no,Garasje Bømlo,PT5M
3350447640,60.4342636652291,5.31440698541701,bus,4,Hesjaholtet,Flaktveit,Eidsvåg E39 A,PT2M38S
3350324146,59.7962305974215,5.18462972715497,bus,554,Svortland terminal E,skyss.no,Garasje Bømlo,-PT11S
3350324167,59.7961865924299,5.18449058756232,bus,552,Svortland terminal D,skyss.no,Garasje Bømlo,PT44S
3350361455,60.6999526452273,4.92826108820736,bus,320,Manger senter,Knarvik terminal,Manger senter,-PT51M47S
3350447630,60.4184726625681,5.31214672140777,bus,4,Flaktveit snuplass,Hesjaholtet,Munkebotn,-PT3S
3350447623,60.3525341581553,5.35807234235108,bus,5,Fyllingsdalen terminal E,Sletten,Sletten snuplass,PT13S
3350361459,60.5518797039986,5.27954740449786,bus,320,Knarvik terminal B,Manger,Isdalstø,PT5M4S
3350447622,60.3454494383186,5.29706918634474,bus,5,Fyllingsdalen terminal E,Sletten,Sælemyr,PT2M18S
3350387023,60.2986999601126,5.32790997996926,bus,29,Nesttun terminal D,skyss.no,Lagunen terminal F,PT28S
3350447635,60.3547469805926,5.29159303754568,bus,4,Flaktveit snuplass,Hesjaholtet,Løvås,-PT1M3S
3350447624,60.3437315672636,5.29687673784792,bus,5,Sletten,Fyllingsdalen terminal,Lyshovden skole,-PT2M43S
3350387021,60.3207000251859,5.35244003869593,bus,29,Nesttun terminal C,Arna terminal,Nesttun sentrum,-PT8M49S
3350447647,60.4048092383891,5.32188439741731,bus,3,Støbotn,Vadmyra,Skutevikstorget,-PT1M19S
3350447646,60.3591317217797,5.23382688872516,bus,3,Vadmyra,Støbotn,Loddefjord terminal A,PT3M53S
3350387026,60.2899999637157,5.34873004071414,bus,29,Nesttun terminal D,skyss.no,Smørås snuplass,-PT3M33S
3350447710,60.5131010804325,5.47707181423903,bus,901,Haus terminal,skyss.no,Garasje Bruvik,PT44S
3350447720,60.4925262741745,5.4915476962924,bus,900,Arna terminal A,Lonevåg,Hauge terminal,-PT35S
3350135625,59.8593844659626,5.77301762066782,bus,791,Valen sjukehuset,Høylandsbygd,"Valen, sjukehuset",-PT20M38S
3350387029,60.3199999686331,5.35223996266723,bus,29,Arna terminal B,Nesttun terminal,Nesttun terminal D,PT48S
3350447711,60.4698719177395,5.64826598390937,bus,901,Haus terminal,skyss.no,Garasje Bruvik,PT1M22S
3350447712,60.5265321582556,5.49364618957043,bus,901,Haus terminal,skyss.no,Garasje Lonevåg,-PT5M14S
3350447722,60.4219961632043,5.4605869576335,bus,900,Hatland skulesenter,skyss.no,Arna terminal A,-PT2M49S
3350453505,60.3561310842633,5.36821519955993,bus,40,Bergen busstasjon Q,skyss.no,Garasje Mannsverk,PT50S
3350447724,60.4200751148164,5.46437105163932,bus,900,Hatland skulesenter,Arna terminal,Arna terminal A,-PT36S
3350135626,59.7927721403539,5.70595996454358,bus,790,Halsnøy skule,skyss.no,Garsje Halsnøy,-PT13S
3350447528,60.4630375653505,5.32104645855725,bus,19,Løvstakkskiftet,Åsane terminal,Åsane terminal F,PT1M4S
3350447727,60.5051572155207,5.42923972941935,bus,900,Hatland skulesenter,skyss.no,Valestrand kai,PT11M30S
3350361481,60.7463079225272,5.174002898857,bus,342,Lindås senter,skyss.no,Fanebust garasje,-PT4M8S
3350447529,60.3689794521779,5.30478229746222,bus,19,Løvstakkskiftet,Åsane terminal,Klauvsteinen,-PT1M51S
3350361460,60.674305530265,4.96278254315257,bus,320,Manger senter,Knarvik terminal,Manger senter,-PT3H11M47S
3350453507,60.3560663759708,5.36827873438597,bus,40,Bergen busstasjon Q,skyss.no,Garasje Mannsverk,PT3M46S
3350453508,60.3644341975451,5.36577505990863,bus,40,Bergen busstasjon Q,skyss.no,Garasje Mannsverk,PT11S
3350324149,59.797275820747,5.20549580454826,bus,555,Svortland skule til Nese,Økland/Gåsland,"Svortland skule, til Nese",-PT4H37M50S
3350361486,60.7842087093741,4.93086526170373,bus,342,Austrheim vgs.,skyss.no,Mastrevik garasje,PT2M26S
3350447523,60.4427859652787,5.29468034394085,bus,19,Løvstakkskiftet,Åsane terminal,Tømmervågen,PT4M59S
3350361462,60.5449017696083,5.27965787798166,bus,320,Knarvik terminal B,skyss.no,Knarvik garasje,-PT4M29S
3350447520,60.3922834899276,5.32522559165955,bus,19,Åsane terminal E,Løvstakkskiftet,Møhlenpris,PT1M41S
3350361469,60.6263949070126,5.47369373962283,bus,344,Ostereidet skule stopp 5,skyss.no,Ostereidet garasje,-PT3M23S
3350453502,60.3503039851785,5.28804053552449,bus,40,Bergen busstasjon Q,skyss.no,Fyllingsdalen terminal E,PT52S
3350324156,59.6958253718913,5.35005890764296,bus,554,Mosterhamn kai,Gassasundet,Sion,PT2M10S
3350324147,59.7972402814776,5.20548725500703,bus,555,Svortland terminal B,Hiskjo,Svortland terminal B,-PT2H43M21S
3350361455,60.6450607348233,4.96190579608083,bus,321,Radøy ungdomsskule,skyss.no,Toska snuplass,PT3M18S
3350324148,59.7941924538463,5.17922918312252,bus,555,Svortland terminal B,Halleråker,Svortland terminal B,-PT1M50S
3350361469,60.6258268654346,5.47232975251973,bus,340,Knarvik terminal C,Ostereidet,Ostereidet senter,-PT5M14S
3350387072,60.3203000407666,5.35238002426922,bus,29,Nesttun terminal D,skyss.no,PAUSE Nesttun,PT30M20S
3350453009,60.3452807106078,5.36381243728101,bus,6,Birkelundstoppen A,Lyngbø,Kolstibotn,-PT7M18S
3350453008,60.3644663002342,5.36594906821847,bus,6,Birkelundstoppen A,Lyngbø,Langhaugen,PT1M34S
3350447701,60.5265257041901,5.49361056648195,bus,909,Hosanger montessoriskule,skyss.no,Garasje Lonevåg,-PT1M24S
3350132664,60.0138164218515,5.51340929232538,bus,654,Våge kai,skyss.no,Garasje Uggdal,PT2M22S
3350447702,60.52629545331,5.49417517147958,bus,909,Hatland skulesenter,skyss.no,Garasje Lonevåg,-PT1M13S
3350453005,60.3875531628728,5.34426659345627,bus,6,Birkelundstoppen A,Lyngbø,Stadsporten,PT2M42S
3350447703,60.5263107921928,5.49408850260079,bus,909,Hatland skulesenter,skyss.no,Garasje Lonevåg,-PT7M48S
3350447733,60.5252895411104,5.49837953411043,bus,906,Tyssebotn kai,Lonevåg,Lonevåg terminal,-PT1M37S
3350447704,60.5263131391257,5.4940031748265,bus,909,Lonevåg terminal,skyss.no,Garasje Lonevåg,-PT3M4S
3350453007,60.3551873657852,5.36829709075391,bus,6,Lyngbø D,Birkelundstoppen,Bolstad,-PT52S
3350447734,60.5765987746418,5.47744112089276,bus,906,Tyssebotn kai,Lonevåg,Hosanger,-PT36S
3350447735,60.5263056792319,5.49405564554036,bus,906,Lonevåg terminal,skyss.no,Garasje Lonevåg,-PT3M12S
3350453006,60.3857265785336,5.31987944617867,bus,6,Lyngbø D,Birkelundstoppen,Møhlenpris,-PT1M26S
3350135723,59.8594146408141,5.77313236892223,bus,760,Husnes ungdomsskule,skyss.no,Garasje Husnes,-PT1M35S
3350453003,60.3664156794548,5.36563198082149,bus,6,Birkelundstoppen A,Lyngbø,Fridalen,PT55S
3350447529,60.4631040338427,5.32101024873555,bus,38,Hetlebakken snuplass,Åsane terminal,Åsane terminal F,PT4M52S
3350447537,60.4632189497352,5.32099985517561,bus,37,Breistein snuplass,Åsane terminal,Åsane terminal F,PT2M42S
3350447558,60.5159105267376,5.28385863639414,bus,35,Åsane terminal D,Salhus - Klauvaneset,"Klauvaneset, Tellevikv.",PT3M44S
3350324159,59.9198434688151,5.32287689857185,bus,680,Rimbareid skule,skyss.no,Garasje Fitjar,-PT2M50S
3350447554,60.4631531517953,5.32103799283504,bus,35,Hordvikneset,Åsane terminal,Åsane terminal F,PT1M42S
3350361472,60.6261509936303,5.4734637401998,bus,340,Knarvik terminal C,Ostereidet,Ostereidet senter,-PT24S
3350447541,60.5162592977285,5.28288901783526,bus,36,Bergen busstasjon K,Hordvik-Klauvaneset,"Klauvaneset, Tellevikv.",PT3M33S
3350447542,60.4631741065532,5.3217482753098,bus,36,Åsane terminal D,Hordvik-Klauvaneset,Rollandskrysset,-PT4M50S
3350361468,60.5580291710794,5.26987326331437,bus,341,Knarvik vgs.,skyss.no,Knarvik garasje,-PT4M32S
3350447725,60.5255477875471,5.4983601719141,bus,906,Fotlandsvåg sentrum,Lonevåg,Lonevåg terminal,-PT3M36S
3350447726,60.5252463743091,5.49831951968372,bus,906,Tyssebotn kai,Lonevåg,Lonevåg terminal,PT59S
3350447737,60.5263107083738,5.49405405297875,bus,905,Lonevåg terminal,skyss.no,Garasje Lonevåg,-PT3M23S
3350447559,60.4630655609071,5.32102692872286,bus,34,Langarinden,Åsane terminal,Åsane terminal F,PT52S
3350135705,60.0541962403804,6.01918146014214,bus,760,Husnes sentrum sør,Odda,Årsnes kai,PT1M25S
3350135709,60.0423899944872,5.54883004166186,bus,651,Hodnanes,Våge,Gjersvik vest,-PT1M45S
3350447542,60.5159403663129,5.2838746458292,bus,35,Åsane terminal D,Salhus - Klauvaneset,"Klauvaneset, Tellevikv.",PT19S
3350387038,60.2618999686092,5.34371003508568,bus,601,Osøyro terminal B,skyss.no,GARASJE Fana Bussdepot,-PT58S
3350447513,60.4630301892757,5.32100119628012,bus,38,Hetlebakken snuplass,Åsane terminal,Åsane terminal F,PT2M40S
3350361484,60.6258429586887,5.47223495319486,bus,340,Ostereidet senter,Knarvik terminal,Ostereidet senter,-PT1H44M8S
3350447541,60.4630516469479,5.32101184129715,bus,35,Klauvaneset Tellevikv.,Åsane terminal,Åsane terminal F,PT56S
3350361461,60.6264431867748,5.47371477819979,bus,342,Ostereidet skule stopp 1,skyss.no,Ostereidet garasje,PT2M4S
3350361487,60.6258138734847,5.47228717245162,bus,340,Ostereidet senter,skyss.no,Ostereidet garasje,PT2M28S
3350361505,60.3886787686497,5.33325050957501,bus,310,Hjertås nord,Bergen busstasjon,Bergen busstasjon J,-PT4M7S
3350361506,60.5464168824255,5.28623607940972,bus,310,Rossland,Knarvik terminal,Knarvik terminal B,-PT1M10S
3350387050,60.3803999628872,5.46428999863565,bus,29,Nesttun terminal C,Arna terminal,"Espeland, Janus",PT4M8S
3350361504,60.515702906996,5.23358381353319,bus,310,Mjåtveitflaten,Flatøy,Frekhaug terminal,PT6S
3350447611,60.3861020039767,5.31950066797435,bus,3,Vadmyra,Støbotn,Festplassen M,PT44S
3350387055,60.3197999764234,5.35236996598542,bus,29,Arna terminal B,Nesttun terminal,Nesttun terminal D,-PT1M27S
3350361508,60.5451220460236,5.28157180175185,bus,310,Bergen busstasjon J,skyss.no,Knarvik garasje,-PT2M59S
3350447613,60.4827814735472,5.38435748778284,bus,3,Støbotn snuplass,skyss.no,Garasje Haukås,-PT12M23S
3350447605,60.4627764690667,5.36606624722481,bus,4,Hesjaholtet,Flaktveit,Breimyra,PT2M4S
3350135715,60.0614008214325,5.92030107043684,bus,654,Gjermundshamn kai,Hodnanes,"Gjermundshamn, Ølve",-PT10M
3350447617,60.4703063517809,5.27541847899556,bus,3,Vadmyra,Støbotn,Viddalen,PT3M24S
3350447607,60.3982115071267,5.32067329622805,bus,4,Hesjaholtet,Flaktveit,Bontelabo,PT2M49S
3350135726,60.2849936205894,6.24586508609354,bus,980,Jondal skule,Samland,Jondal skule,-PT2H41M34S
3350135717,60.0606316979975,5.91964837163687,bus,654,Ølve Dalsjøen,Gjermundshamn,Gjermundshamn kai,PT1M40S
3350135705,60.0541854277253,6.01919688284397,bus,740,Årsnes kai,Bergen,Gjermundshamn kai,-PT4M50S
3350447609,60.46261863783,5.37050169892609,bus,4,Flaktveit snuplass,Hesjaholtet,Breimyra,-PT5M52S
3350447735,60.5561346933246,5.41370647028089,bus,904,Raknes,Lonevåg,Hjellvik aust,-PT42S
3350135724,60.0849007442594,6.53089229017496,bus,980,Utne,Odda,Egne Hjem,PT2M11S
3350447729,60.5255332868546,5.4984447453171,bus,905,Myking,Lonevåg,Lonevåg terminal,-PT4M35S
3350135709,60.013783313334,5.51342831924558,bus,654,Uggdal skule,skyss.no,Garasje Uggdal,PT2M3S
3350447552,60.4906403459609,5.39916512556374,bus,37,Åsane terminal D,Breistein,Ekrevegen,-PT7S
3350361515,60.5451963096857,5.2818195708096,bus,310,Hjertås nord,skyss.no,Knarvik garasje,PT6M23S
3350447603,60.4868276696652,5.27862497605383,bus,3,Støbotn,Vadmyra,Toppe,-PT1M44S
3350132664,60.0138656236231,5.513233859092,bus,655,Tysnes skule,Neshamn,Tysnes skule,-PT4H11M53S
3350447730,60.5263317469507,5.49400443211198,bus,903,Hatland skulesenter,skyss.no,Garasje Lonevåg,-PT1M
3350447720,60.526308696717,5.49326221458614,bus,904,Lonevåg terminal,skyss.no,Hatland skulesenter,PT30M28S
3350447732,60.5263037513942,5.49403293058276,bus,903,Lonevåg terminal,skyss.no,Garasje Lonevåg,-PT1M6S
3350447733,60.5265798512846,5.49351618625224,bus,903,Valestrand kai,skyss.no,Garasje Lonevåg,PT3M46S
3350447734,60.5254302732646,5.4981891810894,bus,903,Valestrand kai,Lonevåg,Lonevåg terminal,PT2M50S
3350135715,60.0138408970088,5.51322882995009,bus,653,Tysnes skule,skyss.no,Garasje Uggdal,-PT44S
3350447608,60.4828401468694,5.38431750610471,bus,3,Støbotn snuplass,skyss.no,Garasje Haukås,-PT4M24S
3350447726,60.5252571869642,5.49842370674014,bus,904,Raknes,Lonevåg,Lonevåg terminal,PT1M50S
3350447737,60.5051853787154,5.42798655107617,bus,903,Valestrand kai,Valestrand,Valestrand kai,-PT18S
3350447558,60.4828136600554,5.38432823494077,bus,36,Bergen busstasjon K,skyss.no,Garasje Haukås,-PT2M20S
3350447739,60.5263198446482,5.49399076960981,bus,903,Lonevåg terminal,skyss.no,Garasje Lonevåg,-PT3S
3350453010,60.3847855422646,5.30584738589823,bus,6,Birkelundstoppen A,Lyngbø,Damsgård hovedgård,PT2M12S
3350447549,60.5236523039639,5.30114480294287,bus,37,Åsane terminal F,skyss.no,Hordvikneset,PT3M55S
3350447546,60.4631701670587,5.32101519405842,bus,37,Breistein snuplass,Åsane terminal,Åsane terminal F,PT5M13S
3350447542,60.4634134937078,5.32099658623338,bus,37,Breistein snuplass,Åsane terminal,Åsane terminal F,PT34S
3350361451,60.5190656427294,5.24010577239096,bus,341,Knarvik vgs.,skyss.no,Frekhaug terminal,PT3M30S
3440189688,60.9300193749368,5.133659793064,bus,361,Brandanger,Dalsøyra,Dalsøyra,PT4M5S
3350324182,59.9195205979049,5.32369782216847,bus,680,Rimbareid skule,skyss.no,Garasje Stord,PT21M49S
3350387070,60.2615999802947,5.30383002944291,bus,65,Lagunen terminal I,skyss.no,Hordnes snuplass,PT10M41S
3350135730,60.2845764532685,6.24599835835397,bus,981,Jondal skule,skyss.no,Garasje Jondal,PT24M10S
3350453502,60.3560855705291,5.36826959811151,bus,49,Birkeveien,skyss.no,Garasje Mannsverk,-PT1M29S
3350135720,60.2090139314532,5.53762343712151,bus,740,Osøyro terminal B,Eikelandsosen,Venjaneset kai,-PT3S
3350377438,60.3885999787599,5.332269994542,bus,460E,Ågotnes terminal A,Bergen busstasjon,Bergen busstasjon U,-PT10M41S
3350453177,60.359386112541,5.3497151657939,bus,82,Wergeland C,Grønnestølen,Wergeland C,-PT26M51S
3350453505,60.3865708876401,5.33489503897727,bus,49,Bildøy skulesenter,skyss.no,Bergen busstasjon H,-PT3M41S
3440189690,61.1706834286451,5.38184836506844,bus,210,Rysjedalsvika kai,Dale,Eide Åfjorddal,PT4M17S
3350453188,60.3552716877311,5.368093829602,bus,81,Mannsverk,Mannsverk,Mannsverk,-PT2H31M36S
3350447659,60.4869498778135,5.27902387082577,bus,4E,Bergen busstasjon Q,skyss.no,Støbotn,PT5M52S
3350453180,60.360675919801,5.35078964196146,bus,82,Grønnestølen,Wergeland,Wergeland C,PT2M33S
3350135750,60.0462483521551,5.523646697402,bus,651,Hodnanes,Våge,Våge kai,-PT2M38S
3350453514,60.3559143282473,5.36820891313255,bus,49,Fantoft,skyss.no,Garasje Mannsverk,PT1M53S
3350135751,60.0541718490422,6.01923476904631,bus,760,Årsnes kai,Odda,Lyngstrand,-PT4M50S
3350361506,60.5461252760142,5.27989936061203,bus,300E,Knarvik terminal A,skyss.no,Knarvik garasje,-PT1M9S
3350453181,60.3619534894824,5.34326017834246,bus,82,Wergeland C,Grønnestølen,Minde,PT1M22S
3350447651,60.4827577527612,5.38435388356447,bus,4E,Bergen busstasjon Q,skyss.no,Garasje Haukås,PT7M34S
3350361501,60.3885532077402,5.33304439857602,bus,300E,Knarvik terminal A,Bergen busstasjon,Bergen busstasjon J,-PT4M37S
3350387032,60.2916999813169,5.28428996913135,bus,22,Lagunen terminal I,skyss.no,Sandslihaugen,-PT3M22S
257055860,60.053178333333335,5.33456,ferry,1018,Halhjem,Sandvikvåg,Sandvikvåg,PT0S
3350361503,60.545199746266,5.28208552859724,bus,300E,Bergen busstasjon J,skyss.no,Knarvik garasje,-PT6M49S
3350135711,60.196578707546,5.79511944204569,bus,740,Eikelandsosen terminal,skyss.no,Sævareid nord,-PT2M23S
3350135717,60.23765665479,5.82916002720594,bus,740,Osøyro terminal B,Gjermundshamn,Holdhus,PT21S
3350135756,60.0541298557073,6.01945747621357,bus,760,Årsnes kai,Husnes,Pileteigen,PT11S
3350135757,59.8594364337623,5.77314980328083,bus,760,Husnes sentrum sør,Odda,Onarheimselva,-PT6M49S
3350453404,60.3387548122555,5.32258135266602,bus,40E,Bergen busstasjon Q,skyss.no,Bergveien,PT17M5S
3350377427,60.3617000207305,5.12664003297687,bus,460E,Bergen busstasjon U,skyss.no,GARASJE Straume,-PT25M7S
3350453119,60.3619903698564,5.23473339155316,bus,41,Hetlevikåsen snuplass,Loddefjord terminal,Loddefjord terminal B,-PT6S
3350377422,60.3883999865502,5.33227996900678,bus,460E,Ågotnes terminal A,Bergen busstasjon,Bergen busstasjon U,-PT26M18S
3350361502,60.5461204145104,5.28000195510685,bus,310,Flatøy terminal  D,skyss.no,Knarvik garasje,-PT1M40S
3350447648,60.3445907123387,5.26071142405272,bus,4E,Bergen busstasjon Q,skyss.no,Hesjaholtet,-PT17S
3350361500,60.3885354381055,5.33330591395497,bus,310,Skjelanger kai,Bergen busstasjon,Bergen busstasjon J,-PT45S
3350377406,60.4074000008404,5.22677997127175,bus,408,Hanevik,Kleppestø terminal,Kleppestø terminal E,PT1M13S
3350377415,60.4588000103831,5.15179999172688,bus,407,Kleppestø terminal E,skyss.no,Ravnanger terminal A,PT1M19S
3350377414,60.4148999601603,5.21940004080534,bus,407,Kleppestø terminal E,skyss.no,Kleppestø US,PT13M35S
3350377413,60.4455000255257,5.16913997009397,bus,407,Kleppestø terminal E,skyss.no,GARASJE Haugland,-PT2M53S
3350135750,59.7631100099534,5.45816668309271,bus,654,Heiane ved Fylkesnes bil,Tysnes,Heiane ved Fylkesnes bil,-PT2H4M50S
3350377348,60.4595999792218,5.15212001278996,bus,414,Herdla snuplass,Ravnanger terminal,Ravnanger terminal B,PT1M15S
3350377417,60.4455000255257,5.16909998841584,bus,407,Bergen busstasjon Q,skyss.no,GARASJE Haugland,PT10M27S
3350377347,60.4419999942183,5.17211001366377,bus,414,Ravnanger terminal B,skyss.no,GARASJE Haugland,-PT7M44S
3350387083,60.1906999759376,5.34825000911951,bus,62,Lagunen terminal E,Drange,Eidsvik snuplass,-PT5S
3350387061,60.2978999912739,5.32779003493488,bus,64,Lagunen terminal F,Hordnes,Lagunen terminal F,-PT45M24S
3350135749,60.2441133186221,5.75730498880148,bus,740,Eikelandsosen terminal,Osøyro,Eikelandsosen terminal,-PT3H59M34S
3350135618,60.0682806875557,6.55193815939128,bus,995,Odda busstasjon,skyss.no,Garasje Odda,PT40S
3350135617,60.06825260818,6.55194293707609,bus,995,Odda US/VGS,skyss.no,Garasje Odda,PT3S
3440189679,61.3629366271198,5.40004162117839,bus,210,Dale,Førde,Dale,-PT1H31M3S
3440189672,61.3630875851959,5.39955806918442,bus,210,Rysjedalsvika kai,Dale,Dale,PT2M10S
3350453165,60.3560718242079,5.3678123652935,bus,81,Mannsverk,Mannsverk,Mannsverk garasje,PT19S
3350377412,60.3887999709696,5.3341799788177,bus,407,Steinrusten,Bergen busstasjon,Bergen busstasjon Q,PT1M44S
3350377411,60.4461000021547,5.17076002433896,bus,407,Haugland verkstedet,skyss.no,GARASJE Haugland,-PT3M38S
3350377340,60.4462999943644,5.17053999938071,bus,414,Fauskanger skule,Ravnanger terminal,Fauskanger skule,-PT4H45M9S
3350324130,59.8653639480472,5.34943152219057,bus,680,Fitjar terminal B,Rydland,Rydland,PT8S
3350387070,60.296599958092,5.32698000781238,bus,64,Hordnes snuplass,Lagunen terminal,Lagunen terminal I,PT10M33S
3350387060,60.2618999686092,5.34371003508568,bus,65,Lagunen terminal I,skyss.no,GARASJE Fana Bussdepot,-PT1M11S
3350135757,59.8584380652755,5.7542303390801,bus,762,Husnes helsesenter,skyss.no,Husnes sentrum sør,-PT2M5S
3350135748,60.0138533022255,5.51333502866328,bus,654,Tysnes skule,skyss.no,Garasje Uggdal,PT35S
3350387120,60.2996000088751,5.32838003709912,bus,610,Nesttun terminal D,skyss.no,Lagunen terminal F,PT4M
3350387121,60.2013999782503,5.44345996342599,bus,610,Nesttun terminal D,skyss.no,GARASJE Os Garasje,-PT47S
3440189676,61.1368276644498,5.34687143750489,bus,221,Sørbøvåg,Leirvik,Leirvik,-PT5M4S
3350387127,60.2034999802709,5.44663997367024,bus,610,Osøyro terminal B,skyss.no,GARASJE Os Garasje,-PT1M54S
3350377447,60.3925999905914,5.11352998204529,bus,460E,Bergen busstasjon U,skyss.no,Anglavika snuplass,PT4M26S
3350387124,60.1883999817073,5.46623996458948,bus,610,Nesttun terminal C,Osøyro,Osøyro terminal B,-PT3M46S
3350387125,60.3865999728441,5.33492999151349,bus,610,Nesttun terminal D,skyss.no,Bergen busstasjon L,PT25S
3350324142,59.9178279563785,5.3176108840853,bus,680,Rimbareid skule,skyss.no,Fitjar terminal A,PT54S
3440189681,61.3256237469614,5.79727686010301,bus,210,Dale,Sande,Sande,-PT3M
3350387128,60.3132999781519,5.35783002153039,bus,610,Nesttun terminal C,Osøyro,Elveneskrysset,PT1M13S
3350387129,60.3207000251859,5.35258999094367,bus,610,Nesttun terminal C,Osøyro,Nesttun terminal C,-PT31M54S
3350377413,60.4074000008404,5.22680000402033,bus,408,Hanevik,Kleppestø terminal,Kleppestø terminal E,-PT1M41S
3350377387,60.2630000095814,5.08142997510731,bus,459,Straume terminal C,Tælavåg,Straume terminal C,-PT5H26M27S
3350377385,60.2650000154972,5.08037997409701,bus,459,Skogsskiftet terminal F,skyss.no,GARASJE Skogsskiftet,-PT1M29S
3350377354,60.4266000073403,5.18613000400364,bus,411,Ravnanger terminal B,skyss.no,Krokåsfeltet snuplass,-PT3M43S
3350377368,60.2880000416189,5.03572002053261,bus,458,Skogsskiftet terminal F,skyss.no,Kallestad snuplass,PT4M29S
3350377334,60.4266000073403,5.18610997125506,bus,413,Ravnanger terminal B,skyss.no,Krokåsfeltet snuplass,-PT2M41S
3350377457,60.3908999729902,5.12425001710653,bus,449,Bildøy skulesenter,skyss.no,Våge snuplass,PT35S
3350447622,60.4827534779906,5.38436067290604,bus,4E,Bergen busstasjon Q,skyss.no,Garasje Haukås,-PT3M14S
3350377331,60.459499983117,5.15196000225842,bus,413,Berland snuplass,Ravnanger terminal,Ravnanger terminal B,-PT28S
3350377338,60.4413000214845,5.17349001020193,bus,413,Fauskanger skule,skyss.no,Haugland verkstedet,PT3M38S
3350377348,60.4595999792218,5.15235001221299,bus,412,Breivik snuplass,Ravnanger terminal,Ravnanger terminal B,PT1M28S
3350135763,60.2439633663744,5.75749165378511,bus,740,Eikelandsosen ungdomsskule,skyss.no,Garasje Eikelandsosen,-PT3M19S
3350377347,60.4617999773473,5.1102000195533,bus,412,Ravnanger terminal B,skyss.no,Kollevågshøyden,-PT7M3S
3350377337,60.4618999734521,5.11036003008485,bus,413,Ravnanger terminal B,skyss.no,Kollevågshøyden,-PT45M29S
3350447621,60.3446177020669,5.26062006130815,bus,4E,Bergen busstasjon Q,skyss.no,Hesjaholtet,PT4M4S
3350377456,60.4455000255257,5.16909001395106,bus,401,Kleppestø terminal B,skyss.no,GARASJE Haugland,-PT3M49S
3350135711,60.2436694130301,5.75462068431079,bus,745,Baldersheim kryss skule,skyss.no,Garasje Eikelandsosen,-PT52S
3350387062,60.3375000413507,5.27117002755404,bus,22,Fyllingsdalen terminal D,Lagunen terminal,Vardeveien,PT15S
3350135735,60.0687269400805,6.55247200280428,bus,985,Odda busstasjon,skyss.no,Garasje Odda,-PT1M48S
3350135708,60.3986000083387,5.74508333578706,bus,940,Samnanger ungdomsskule,skyss.no,Garasje Samnanger,-PT1M33S
3350388362,60.3883999865502,5.33331002108753,bus,460E,Ågotnes terminal A,Bergen busstasjon,Bergen busstasjon U,-PT25M8S
3350387112,60.1853000186384,5.46900004148483,bus,610,Nesttun terminal C,Osøyro,Osøyro terminal B,-PT3M37S
3350387110,60.3865999728441,5.33486000262201,bus,610,Nesttun terminal D,skyss.no,Bergen busstasjon L,PT2M3S
3350387116,60.1959000248462,5.46222997829318,bus,610,Osøyro terminal A,Nesttun terminal,Flåten sør,PT2M6S
3350447559,60.4827025160193,5.38439763709903,bus,19,Åsane terminal F,skyss.no,Garasje Haukås,PT2M19S
3350447557,60.4827249795198,5.38442010059953,bus,19,Åsane terminal F,skyss.no,Garasje Haukås,PT3S
3350453142,60.3563814517111,5.3683324623853,bus,81,Mannsverk garasje,skyss.no,Wiers-Jenssens vei,PT4M37S
3440189696,61.6001273877919,5.02583079971373,bus,250,Florø terminal,Førde,Florø terminal,-PT24M53S
3350377450,60.4053999949247,4.99755998142064,bus,449,Tranevågen ungdomsskule,skyss.no,Ågotnes terminal A,PT4M33S
3350377360,60.2650000154972,5.08033999241889,bus,458,Skogsskiftet terminal F,skyss.no,GARASJE Skogsskiftet,-PT1M38S
3350447554,60.482706874609,5.38442965596914,bus,19,Åsane terminal F,skyss.no,Garasje Haukås,-PT18S
3350377362,60.2688000351191,5.07413000799716,bus,458,Sund ungdomsskule,skyss.no,Skogsskiftet terminal F,PT5M6S
3350377361,60.2840000297874,5.03513999283314,bus,458,Skogsskiftet terminal F,skyss.no,Kallestad snuplass,-PT1M2S
3350453145,60.3553538303822,5.36807438358665,bus,81,Mannsverk,Mannsverk,Mannsverk,-PT4H46M15S
3350447552,60.4634768608958,5.32158164307475,bus,19,Løvstakkskiftet,Åsane terminal,Åsane terminal F,PT15S
3350447591,60.4828238021582,5.38429286330938,bus,39,Viddalen,skyss.no,Garasje Haukås,-PT3M14S
3350377405,60.3888999670744,5.33393003046513,bus,407,Steinrusten,Bergen busstasjon,Bergen busstasjon Q,PT10M
3350377404,60.4588000103831,5.1517900172621,bus,407,Haugland verkstedet,skyss.no,Ravnanger terminal B,-PT14M54S
3350377367,60.1846999581903,5.10788996703923,bus,459,Skogsskiftet terminal F,skyss.no,Forland kai,-PT1M27S
3350377387,60.2642999589443,5.08191998116672,bus,457,Sund ungdomsskule,skyss.no,GARASJE Skogsskiftet,-PT5M32S
3350377402,60.3865999728441,5.33443998545408,bus,407,Bergen busstasjon Q,skyss.no,GARASJE Haugland,PT42M27S
3350387071,60.2976999990642,5.32763999886811,bus,22,Lagunen terminal J,Fyllingsdalen terminal,Lagunen terminal J,-PT21M43S
3350135775,59.8594599030912,5.77315709553659,bus,762,Husnes ungdomsskule,skyss.no,Garasje Husnes,-PT1M11S
3350135720,60.2058028243482,5.59320744127035,bus,743,Ådnavik snuplass,Venjaneset,Venjaneset kai,-PT50S
3350377407,60.4451000411063,5.10029001161456,bus,407,Haugland verkstedet,skyss.no,Kollevåg,PT6M3S
3350377406,60.4614999890327,5.10859002359211,bus,407,Haugland verkstedet,skyss.no,Kollevågshøyden,PT1M3S
3350135735,60.0959946960211,6.52993658557534,bus,984,Odda barneskole,skyss.no,Eitrheim,PT3M25S
3350387104,60.2034999802709,5.44672002084553,bus,610,Osøyro terminal B,skyss.no,GARASJE Os Garasje,-PT1M15S
3350447548,60.4828005004674,5.38433284498751,bus,19,Åsane terminal F,skyss.no,Garasje Haukås,-PT5M12S
3350377361,60.3617000207305,5.12675997801125,bus,459,Sund ungdomsskule,skyss.no,GARASJE Straume,-PT18M49S
3350387109,60.3197999764234,5.35239997319877,bus,610,Osøyro terminal A,Nesttun terminal,Nesttun terminal D,PT3M51S
3350447586,60.4826949723065,5.38443334400654,bus,39,Viddalen,skyss.no,Garasje Haukås,-PT7M41S
3350447544,60.4631880205125,5.32100169919431,bus,19,Løvstakkskiftet,Åsane terminal,Åsane terminal F,PT2M17S
3350447545,60.482820533216,5.38430250249803,bus,19,Åsane terminal F,skyss.no,Garasje Haukås,-PT1M11S
3440189674,61.4524692669511,5.85420423187315,bus,240,Stavang,Naustdal-Førde,Førde rutebilstasjon,PT42S
3350377331,60.4912000056356,5.14023003168404,bus,414,Ravnanger terminal B,skyss.no,Åsebø,PT14M54S
3350447585,60.4828308429569,5.38429797627032,bus,39,Viddalen,skyss.no,Garasje Haukås,-PT1M24S
3350447540,60.4828156717122,5.38431398570538,bus,19,Åsane terminal F,skyss.no,Garasje Haukås,-PT1M55S
3350377363,60.3528000321239,5.10831995867193,bus,459,Telavåg snuplass,Bildøy skulesenter,Bildøy skulesenter,-PT16M42S
3350447583,60.482902508229,5.38423452526331,bus,39,Viddalen,skyss.no,Garasje Haukås,PT21M21S
3350377436,60.3617000207305,5.12664003297687,bus,449,Brattholmen skule,skyss.no,GARASJE Straume,-PT3M33S
3350377376,60.3617000207305,5.12665000744164,bus,455,Sund ungdomsskule,skyss.no,GARASJE Straume,-PT8M58S
3350135751,60.0680747441947,6.54224398545921,bus,985,Askane,Skulerute,Odda barneskole,PT1M27S
3350377433,60.3617000207305,5.12662000022829,bus,449,Bildøy skulesenter,skyss.no,GARASJE Straume,PT6M26S
3350135766,60.0705522671342,6.54693919233978,bus,984,Odda busstasjon,Odda,Odda busstasjon,-PT16S
3350135765,60.0685166381299,6.55235256068408,bus,984,Odda busstasjon,Odda,Odda busstasjon,-PT20M20S
3350377333,60.4412000253797,5.17365002073348,bus,411,Ravnanger terminal B,skyss.no,Haugland verkstedet,-PT13M44S
3350387043,60.2978999912739,5.32826000824571,bus,22,Fyllingsdalen terminal D,Lagunen terminal,Lagunen terminal I,-PT5M12S
3350377337,60.4912000056356,5.14023003168404,bus,411,Ravnanger terminal B,skyss.no,Åsebø,PT45S
3350387046,60.2978999912739,5.32826998271048,bus,22,Fyllingsdalen terminal D,Lagunen terminal,Lagunen terminal I,-PT4M12S
3350387048,60.297799995169,5.32825003378093,bus,22,Fyllingsdalen terminal D,Lagunen terminal,Lagunen terminal I,PT2M16S
3350377333,60.459499983117,5.15190996229649,bus,412,Breivik snuplass,Ravnanger terminal,Ravnanger terminal B,-PT45S
3350377331,60.4595999792218,5.15215999446809,bus,412,Breivik snuplass,Ravnanger terminal,Ravnanger terminal B,-PT15S
3350377385,60.2696000039577,5.07360999472439,bus,455,Sund ungdomsskule,Skogsskiftet,Skogsskiftet terminal F,-PT1M3S
3350447634,60.3647501114756,5.22528363391757,bus,4E,Bergen busstasjon Q,skyss.no,Vadmyra,-PT3M37S
3350377364,60.2453000284731,5.06497998721898,bus,457,Sæle snuplass,Skogsskiftet,Tveitaneset,PT13S
3350377347,60.459499983117,5.15192999504507,bus,411,Ramsøy snuplass,Ravnanger terminal,Ravnanger terminal B,-PT57S
3350377456,60.4074000008404,5.22677997127175,bus,400,Haugland verkstedet,Kleppestø terminal,Kleppestø terminal D,-PT3M25S
3350377368,60.2630000095814,5.08149996399879,bus,457,Skogsskiftet terminal E,Viksøy - Sæle,Skogsskiftet terminal E,-PT3H1M17S
3350135698,60.6281559448689,6.41533283516765,bus,990,Voss stasjon E,Odda,Voss stasjon E,-PT44M59S
3350387054,60.3098000306636,5.29629997909069,bus,22,Lagunen terminal J,Fyllingsdalen terminal,Søvik,-PT28S
3350135697,60.0683667697012,6.55216027982533,bus,990,Odda US/VGS,skyss.no,Garasje Odda,PT3M25S
3350387052,60.2618999686092,5.34365999512374,bus,22,Lagunen terminal I,skyss.no,GARASJE Fana Bussdepot,PT2M38S
3350134008,59.861166626215,5.75425162911415,bus,760,Seldal,Husnes,Husnes sentrum sør,PT49S
3350453129,60.3606460802257,5.3508011251688,bus,82,Grønnestølen,Wergeland,Wergeland C,PT8M28S
3350387059,60.2968000341207,5.32721000723541,bus,22,Fyllingsdalen terminal D,Lagunen terminal,Lagunen terminal I,-PT1M42S
3350453128,60.3560681361705,5.36815828643739,bus,82,Wergeland C,skyss.no,Garasje Mannsverk,-PT6M51S
3440189678,61.5999651979655,5.02535194158554,bus,260,Davik,Svelgen-Florø,Florø terminal,PT2M40S
3350377383,60.2509999740869,5.09999002330005,bus,455,Forland kai,Skogsskiftet,Aurabekken,PT1M20S
3350377361,60.3618000168353,5.12707999907434,bus,457,Sund ungdomsskule,Sæle,Sund ungdomsskule,-PT3H13S
3350453134,60.3564396221191,5.36836640909314,bus,81,Mannsverk garasje,skyss.no,Wiers-Jenssens vei,PT3M42S
3350377360,60.2694000117481,5.07347001694143,bus,457,Sæle snuplass,Skogsskiftet,Skogsskiftet terminal F,-PT46S
3350377420,60.4455000255257,5.16910996288061,bus,400,Bergen busstasjon Q,skyss.no,GARASJE Haugland,PT8M18S
3350377454,60.3617000207305,5.12662000022829,bus,445,Anglavika snuplass,skyss.no,GARASJE Straume,-PT1M31S
3350377363,60.2632000017911,5.08147004060447,bus,454,Skogsskiftet terminal D,Sund US,Skogsskiftet terminal D,-PT4H31M45S
3350377452,60.3617000207305,5.12668001465499,bus,445,Anglavika snuplass,skyss.no,GARASJE Straume,-PT5M29S
3350377424,60.386699968949,5.33342996612191,bus,400,Bergen busstasjon Q,skyss.no,Kleppestø terminal B,PT23M13S
3350377457,60.3888999670744,5.33396003767848,bus,445,Våge snuplass,Bergen busstasjon,Bergen busstasjon Q,PT2M18S
3350377413,60.4584000259638,5.10509996674955,bus,401,Kleppestø terminal B,skyss.no,"Kollevåg, Friluften",-PT5M15S
3350377421,60.4419999942183,5.17221000976861,bus,400,Ravnanger terminal A,skyss.no,GARASJE Haugland,-PT8M41S
3350377455,60.3617000207305,5.12667004019022,bus,445,Anglavika snuplass,skyss.no,GARASJE Straume,-PT43S
3350387010,60.2920999657363,5.30554999597371,bus,99,Ytrebygda skole,Skolerute Hjellestad,Ytrebygda skole,-PT3H49M53S
3350377417,60.4074999969453,5.22683998569846,bus,401,Marikoven snuplass,Kleppestø terminal,Kleppestø terminal B,-PT1M20S
3350447549,60.4827880114317,5.38434432819486,bus,96,Myrsæter,skyss.no,Garasje Haukås,-PT1M
3350377405,60.4077999852598,5.22696998901665,bus,402,Kleppestø US,skyss.no,Kleppestø terminal E,-PT1M23S
3350387012,60.2877999655902,5.26153997518122,bus,75,Nesttun terminal D,skyss.no,Birkelandsskiftet C,-PT5M33S
3350447546,60.4809513688087,5.40974032133818,bus,96,Marikollen,skyss.no,Breistein snuplass,PT6M19S
3350387035,60.2581000328064,5.24104999378324,bus,73,Nesttun terminal D,skyss.no,Hjellestad snuplass,-PT3M10S
3350447543,60.4636504501104,5.3219211101532,bus,96,Marikollen,skyss.no,Åsane terminal D,PT4M28S
3350387055,60.2952000126243,5.38147998042405,bus,71,Nesttun terminal D,skyss.no,Valle,PT36S
3350387018,60.2787999808788,5.40496003814042,bus,99,Valle,Skolerute,Kaland skole,-PT2M20S
3350447544,60.463226409629,5.32099231146276,bus,96,Breistein snuplass,Åsane terminal,Åsane terminal F,PT49S
3350447531,60.4827616922557,5.3843766823411,bus,97,Garnesstølen,skyss.no,Garasje Haukås,-PT4M5S
3350387015,60.2975000068545,5.3277700021863,bus,99,Lysekloster skole,Kun avstiging,Lysekloster skole,-PT3H15M9S
3350387012,60.2883000299335,5.26235997676849,bus,51,Birkelandsskiftet D,Bergen busstasjon,Birkelandsskiftet D,-PT39M23S
3350387016,60.2968000341207,5.32757000997663,bus,99,Dolvik terminal B,Skolerute,Lagunen terminal K,PT1M17S
3350447532,60.4204738419503,5.46498167328537,bus,97,Garnesstølen,skyss.no,Arna terminal A,PT29S
3350387017,60.2882000338286,5.26293003000319,bus,51,Dolvik terminal B,Birkelandsskiftet,Birkelandsskiftet C,PT55S
3350387058,60.3198999725282,5.35232998430729,bus,71,Riple snuplass,Nesttun terminal,Nesttun terminal D,-PT14S
3350453116,60.4358507785946,5.2915801294148,bus,12,Lønborglien snuplass,Lægdene - Montana,Lønborglien,-PT8M58S
3350377360,60.2147999592125,5.01114000566304,bus,454,Sund ungdomsskule,skyss.no,Golta snuplass,PT17M34S
3350377365,60.2641999628395,5.08200002834201,bus,455,Sund ungdomsskule,skyss.no,GARASJE Skogsskiftet,-PT2M52S
3350377364,60.2695000078529,5.07348996587098,bus,455,Forland kai,Skogsskiftet,Skogsskiftet terminal F,PT1M13S
3350135763,60.2056766767055,5.59276169165969,bus,743,Vinnes butikk,Venjaneset,Venjaneset kai,-PT1M57S
3350377431,60.3714999742806,5.21498001180589,bus,424,Ramsvik snuplass,Storavatnet term.,Storavatnet terminal B,-PT2M28S
3350377362,60.2641999628395,5.08195996284485,bus,455,Sund ungdomsskule,skyss.no,GARASJE Skogsskiftet,-PT3M47S
3350377414,60.4403999727219,5.18015001900494,bus,402,Kleppestø US,Hetlevik,Kleppestø US,-PT13M
3350135766,60.070660058409,6.54720892198384,bus,985,Eitrheim,Odda,Odda busstasjon,-PT2M13S
3350377368,60.2642999589443,5.08190003223717,bus,455,Sund ungdomsskule,skyss.no,GARASJE Skogsskiftet,-PT2M31S
3350135765,60.0707536004484,6.5470832772553,bus,985,Eitrheim,Odda,Odda busstasjon,-PT4M2S
3350377367,60.3617000207305,5.12671002186835,bus,455,Straume terminal A,skyss.no,GARASJE Straume,-PT2M1S
3350453113,60.3909242805094,5.32368617132306,bus,13,Festplassen M,skyss.no,Olav Kyrres gate J,-PT12S
3350387020,60.2618999686092,5.34369997680187,bus,99,Søreide,skyss.no,GARASJE Fana Bussdepot,-PT2M23S
3350135749,60.2420532982796,5.74803502298892,bus,745,Eikelandsosen ungdomsskule,skyss.no,Eikelandsosen terminal,-PT6H3M28S
3350387024,60.2618999686092,5.34372000955045,bus,99,Liland skole,skyss.no,GARASJE Fana Bussdepot,-PT3M54S
3350387020,60.3167000133544,5.22319000214338,bus,51,Bergen busstasjon M,skyss.no,Grimstad snuplass,PT2M44S
3350387072,60.3162000328302,5.35550999455154,bus,70,Nesttun terminal C,Nesttun terminal,Nesttun terminal D,PT28S
3350387010,60.3165000211447,5.22282002493739,bus,52,Lagunen terminal F,Grimstad,Grimstad snuplass,PT1M17S
3350447526,60.4827547352761,5.38437542505562,bus,97,Garnesstølen,skyss.no,Garasje Haukås,PT54S
3350387023,60.3207000251859,5.35258999094367,bus,75,Nesttun terminal D,skyss.no,PAUSE Nesttun,PT2M57S
3350387025,60.2618999686092,5.34368002787232,bus,99,Stend,skyss.no,GARASJE Fana Bussdepot,PT4S
3350447533,60.463638631627,5.32193887978792,bus,96,Marikollen,skyss.no,Åsane terminal C,PT1M49S
3350387029,60.2606000192463,5.34386996179819,bus,99,Søreide,Skulerute,Søreide,-PT3H39M14S
3350447553,60.3617521561682,5.45407497324049,bus,94,Espeland Moldalia,Espeland,Haukeland,-PT34S
3350387047,60.2616999763995,5.34397004172206,bus,73,Kaland skole (rundkjøring),skyss.no,GARASJE Fana Bussdepot,-PT5M44S
3350387026,60.2618999686092,5.34371003508568,bus,99,Lagunen terminal K,skyss.no,GARASJE Fana Bussdepot,PT4M2S
3350447550,60.4827795457095,5.3843333479017,bus,94,Haukeland,skyss.no,Garasje Haukås,-PT4M4S
3350387023,60.3166000172496,5.33736996352673,bus,51,Bergen busstasjon M,skyss.no,Skiparvik snuplass,PT4M54S
3350387035,60.3385999985039,5.50331002101302,bus,74,Kalandseidet,skyss.no,Lund snuplass,PT47S
3350387027,60.2617999725044,5.34382000565529,bus,51,Bergen busstasjon M,skyss.no,GARASJE Fana Bussdepot,-PT6M39S
3350453128,60.355591122061,5.36796751432121,bus,12,Wiers-Jenssens vei,Lønborglien,Wiers-Jenssens vei,-PT3H16M8S
3350453117,60.3900268301368,5.33295278437436,bus,13,Festplassen M,skyss.no,Bergen busstasjon M,-PT35M37S
3350377361,60.2550999820232,4.97743997722864,bus,452,Skogsskiftet terminal G,skyss.no,Telavåg snuplass,-PT8M1S
3350377365,60.2583000250161,5.099389962852,bus,452,Sotra vgs. Sund,skyss.no,Skogsvåg,PT19S
3350377376,60.2673000097275,5.10670996271074,bus,475,Sotra vgs. Sund,skyss.no,Skaganeset snuplass,PT27S
3350377434,60.3888999670744,5.33388996496797,bus,445,Våge snuplass,Bergen busstasjon,Bergen busstasjon Q,-PT8M4S
3350135736,60.0688329711556,6.55266855843365,bus,725,Odda busstasjon,skyss.no,Garasje Skare,PT5M4S
3350377433,60.389800015837,5.11218996718526,bus,445,Bergen busstasjon G,Anglevik,Anglavika snuplass,PT4M48S
3350377441,60.2687000390142,5.07420997135341,bus,420,Spildepollen skule,skyss.no,Skogsskiftet terminal A,PT1M18S
3350377405,60.3904999885708,5.21842002868652,bus,400,Ravnanger terminal A,Bergen busstasjon,"Brøstaneset, Askøybrua",PT18S
3350377438,60.3617000207305,5.12667004019022,bus,445,Anglavika snuplass,skyss.no,GARASJE Straume,-PT27S
3350377368,60.2627000212669,5.09185002185404,bus,452,Sotra vgs. Sund,skyss.no,Slettafjellet,-PT4M20S
3350377404,60.459499983117,5.15190996229649,bus,400,Ravnanger terminal A,Bergen busstasjon,Ravnanger terminal A,-PT32M11S
3350377403,60.459499983117,5.15213996171951,bus,400,Ravnanger terminal A,Bergen busstasjon,Ravnanger terminal A,-PT12M30S
3350377437,60.3887999709696,5.33404997549951,bus,445,Våge snuplass,Bergen busstasjon,Bergen busstasjon Q,-PT7M52S
3350387030,60.3197999764234,5.35242998041213,bus,71,Riple snuplass,Nesttun terminal,Nesttun terminal D,PT2M2S
3350387043,60.3212000057101,5.35376999527216,bus,70,Nesttun terminal C,Nesttun terminal,Nesttun terminal C,-PT35M27S
3350447553,60.4828430805355,5.38429806008935,bus,97,Garnesstølen,skyss.no,Garasje Haukås,-PT5M13S
3350387042,60.3199999686331,5.35226996988058,bus,70,Nesttun terminal C,Nesttun terminal,Nesttun terminal D,-PT24S
3350387018,60.2617999725044,5.34394003450871,bus,73,Kaland skole (rundkjøring),skyss.no,GARASJE Fana Bussdepot,-PT1M44S
3350447672,60.3887154813856,5.27620780281723,bus,85,Grønnestøltunet,Servicelinjen,"Nygård kirke, Lyngbøveien",PT0S
3350387015,60.2678999863565,5.43041001074016,bus,73,Kaland skole (rundkjøring),skyss.no,Kalandseidet,PT11M23S
3350387006,60.2697999961674,5.37090998142958,bus,74,Sandven,skyss.no,Vågsbro,-PT4M7S
3350453114,60.3561054356396,5.36817672662437,bus,10,Mindeveien snuplass,skyss.no,Garasje Mannsverk,-PT2M24S
3350135760,60.6614633649588,6.43645497970283,bus,964,Voss Tinghus,skyss.no,Garasje Voss,-PT2M38S
3350377373,60.3617000207305,5.12665000744164,bus,452,Sund ungdomsskule,skyss.no,GARASJE Straume,-PT6M51S
3350377440,60.368799995631,5.15012998133898,bus,445,Anglavika snuplass,Bergen busstasjon,Knarrevik rv. 555,PT36S
3350377447,60.3887999709696,5.33417000435293,bus,445,Anglavika snuplass,Bergen busstasjon,Bergen busstasjon Q,PT1M42S
3350377446,60.3887999709696,5.33420998603106,bus,445,Anglavika snuplass,Bergen busstasjon,Bergen busstasjon Q,-PT5M3S
3350453123,60.3938771411777,5.32488260418177,bus,10,Mulen,Wergeland,Olav Kyrres gate E,PT3S
3350377412,60.4229999799281,5.20286003127694,bus,400,Bergen busstasjon F,Ravnanger terminal,Krokåsskiftet,-PT58S
3350453113,60.3503075893968,5.28809593990445,bus,11,Tollbodallm. i Strandgt,skyss.no,Fyllingsdalen terminal E,-PT15S
3350377411,60.4077999852598,5.22697996348143,bus,400,Bergen busstasjon Q,skyss.no,Kleppestø terminal E,PT7M47S
3350453101,60.3720914013684,5.21275931037962,bus,12,Mannsverk garasje,skyss.no,Storavatnet terminal B,-PT48S
3350377410,60.387900006026,5.33296996727586,bus,400,Bergen busstasjon F,Ravnanger terminal,Lars Hilles gate K,-PT6M55S
3350377416,60.4304000269622,5.1897899620235,bus,400,Ravnanger terminal A,Bergen busstasjon,Krokåsskiftet,PT13S
3350377449,60.3887999709696,5.33419003710151,bus,445,Våge snuplass,Bergen busstasjon,Bergen busstasjon Q,-PT11M31S
3350135759,60.6395566742867,6.43637669272721,bus,964,Voss stasjon F,Skjerpe,Lundarosen,-PT2M16S
3350377448,60.3617000207305,5.12665000744164,bus,445,Anglavika snuplass,skyss.no,GARASJE Straume,-PT3M43S
3350387050,60.3198999725282,5.35229000262916,bus,70,Sørlien,Øvsttun-Nesttun terminal,Nesttun terminal D,-PT1M40S
3350377419,60.3691999800503,5.22466002032161,bus,400,Bergen busstasjon F,Ravnanger terminal,Storavatnet terminal A,-PT51S
3350377418,60.4071000125259,5.22660001181066,bus,400,Ravnanger terminal A,Kleppestø terminal,Kleppestø terminal D,-PT9S
3350387006,60.3630999661982,5.34323997795582,bus,99,Kaland skole (rundkjøring),Kun avstiging,Kaland skole (rundkjøring),-PT2H29M51S
3350387015,60.300299981609,5.37674998864532,bus,74,Nesttun terminal D,skyss.no,Kirkebirkeland,PT2M40S
3350387210,60.0818000268191,5.2484099753201,bus,532,Austevoll vgs.,skyss.no,Austevoll us.,PT23M22S
3350387004,60.191099960357,5.46350997872651,bus,99,Heggland nord,Borgafjellet skule,Os barneskule,PT54S
3350387042,60.3153999801725,5.44265002012253,bus,71,Riple snuplass,Nesttun terminal,Øvre Totland,-PT4M43S
3350387005,60.2035999763757,5.44660996645689,bus,99,Søfteland skule,skyss.no,GARASJE Os Garasje,-PT3M36S
3350387058,60.2877999655902,5.26156998239458,bus,70,Nesttun terminal D,skyss.no,Birkelandsskiftet C,-PT3M24S
3350453105,60.355260623619,5.36815484985709,bus,12,Wiers-Jenssens vei,Lønborglien,Wiers-Jenssens vei,-PT56M57S
3350135770,60.2440079580992,5.75700215063989,bus,744,Eikelandsosen ungdomsskule,Åse,Eikelandsosen ungdomsskule,-PT4H59M49S
3350453128,60.3548660036176,5.33613153733313,bus,10,Wergeland C,skyss.no,Grønnestølen,-PT2M20S
3350453129,60.356082636863,5.36819499917328,bus,10,Wergeland C,skyss.no,Garasje Mannsverk,-PT3M41S
3350377312,60.5896000284702,4.83906003646553,bus,479,Ågotnes terminal B,skyss.no,Tjeldstø terminal,-PT18S
3350135543,60.6594133190811,6.43596665002406,bus,964,Voss Tinghus,skyss.no,Garasje Voss,PT16M30S
3350453422,60.351827647537,5.27737054042518,bus,49,Fredheim Olsvik,skyss.no,Garasje Spelhaugen,-PT2M28S
3350377310,60.3599000070244,5.12320999056101,bus,479,Blomvåg terminal,Straume terminal,Straume terminal C,PT3S
3350453420,60.3618344664574,5.23495157249272,bus,49,Alvøen kai,Loddefjord terminal,Loddefjord terminal B,-PT1M56S
3350377316,60.4052999988198,4.99656999483705,bus,479,Hellesøy kai,Øygarden US,Ågotnes terminal B,PT2M15S
3350377313,60.3617000207305,5.12667004019022,bus,479,Straume terminal C,skyss.no,GARASJE Straume,-PT5M21S
3350387053,60.2617999725044,5.34373995848,bus,99,Stend,skyss.no,GARASJE Fana Bussdepot,-PT26S
3350377458,60.3709999937564,5.18045000731945,bus,441,Hjelteryggen snuplass,Storavatnet terminal,Drotningsvik senter,-PT22S
3350377459,60.4053999949247,4.99610999599099,bus,465,Ågotnes terminal A,Straume terminal,Kårtveit gamleskule,-PT10M
3350387042,60.2494000364095,5.44123004190624,bus,76,Nesttun terminal D,skyss.no,Tømmernes,-PT32S
3350377318,60.6611000094563,4.80151003226638,bus,479,Hellesøy kai,Ågotnes terminal,Kalfaret,PT1M30S
3350135739,60.5845716409385,6.61499664187431,bus,945,Voss stasjon E,Ulvik,Seim rv. 13,-PT28S
3350324181,59.544088030234,5.35369791090488,bus,633,Sveio sentrum,skyss.no,Sveio,PT15M55S
3350447526,60.3617164492607,5.45405209064484,bus,94,Espeland Moldalia,Espeland,Haukeland,-PT59S
3350387057,60.2968000341207,5.32712996006012,bus,99,Søreide,Lagunen terminal,Lagunen terminal K,-PT57S
3350387043,60.2973000146449,5.32760001718998,bus,52,Grimstad snuplass,Lagunen terminal,Lagunen terminal I,-PT27S
3350387053,60.3865999728441,5.33492001704872,bus,51,Birkelandsskiftet D,Bergen busstasjon,Bergen busstasjon M,PT6M24S
3350387046,60.3195999842137,5.35294999368489,bus,76,Nesttun terminal C,Smørås,Nesttun sentrum,-PT1M13S
3350387044,60.2975000068545,5.32770998775959,bus,52,Grimstad snuplass,Lagunen terminal,Lagunen terminal I,-PT1M49S
3350387055,60.2617999725044,5.34371003508568,bus,99,Kaland skole,skyss.no,GARASJE Fana Bussdepot,-PT2M36S
3350377426,60.3887999709696,5.33206002786756,bus,450E,Skogsskiftet terminal A,Bergen busstasjon,Bergen busstasjon U,-PT21M55S
3350387057,60.3149999957532,5.27045999653637,bus,51,Bergen busstasjon M,skyss.no,Søreide,PT1M14S
3350387047,60.3197999764234,5.35241003148258,bus,76,Smørås snuplass,Nesttun terminal,Nesttun terminal D,-PT2M22S
3350387059,60.2618999686092,5.3436900023371,bus,99,Ytrebygda skole,skyss.no,GARASJE Fana Bussdepot,-PT1M5S
3350387202,59.9856999982148,5.0791599880904,bus,532,Austevoll us.,skyss.no,Våge snuplass,-PT2M53S
3350387203,60.0173000246286,5.22729001007974,bus,532,Austevoll vgs.,skyss.no,GARASJE Tide Buss Austevoll,PT2M13S
3350387039,60.2883000299335,5.26231999509037,bus,53,Milde snuplass,Birkelandsskiftet,Birkelandsskiftet D,PT1M19S
3350387206,60.0815000385046,5.24866000749171,bus,532,Kalve snuplass,Eidsbøen,Austevoll us.,PT3M35S
3350387207,60.0674999970943,5.18356002867222,bus,532,Husavik kai,skyss.no,Drøna snuplass,PT12M8S
3440189714,61.5992465335876,5.06339932791889,bus,253,Florø terminal,Florø lufthamn,Florø terminal,PT26S
3350377322,60.5132999829948,4.91089001297951,bus,479,Hellesøy kai,Ågotnes terminal,Austamarka,PT2M6S
3350324134,59.4201071932912,5.29435018077493,bus,700,Amanda terminal,Leirvik,Amanda terminal,PT9M4S
3350377425,60.365099972114,5.13646001927555,bus,445,Bergen busstasjon G,Våge,Straume terminal B,-PT43S
3350387060,60.2117999922484,5.38869998417795,bus,99,Sagstad,Skolerute,Lysekloster skole,-PT2M14S
3350377422,60.3886999748647,5.33424996770918,bus,445,Straume terminal A,Bergen busstasjon,Bergen busstasjon Q,PT6M21S
3350387040,60.2883000299335,5.26231999509037,bus,53,Milde snuplass,Birkelandsskiftet,Birkelandsskiftet D,-PT2S
3350387142,60.2601000387222,5.34382998012006,bus,67,Søråshøgda snuplass,Bergen busstasjon,Søråshøgda snuplass,-PT3H49M59S
3350387143,60.2618999686092,5.34369997680187,bus,67,Bergen busstasjon L,skyss.no,GARASJE Fana Bussdepot,-PT2M15S
3350387041,60.2488999720663,5.26533999480307,bus,53,Lagunen terminal F,Hjellestad-Milde,Milde snuplass,-PT7S
3350377427,60.3887999709696,5.33423001877964,bus,445,Anglavika snuplass,Bergen busstasjon,Bergen busstasjon Q,PT38S
3350447534,60.472071999684,5.36454434506595,bus,92,Arna terminal A,Garnes,Arna terminal A,-PT14M47S
3350387062,60.2117999922484,5.38846001029015,bus,99,Nordvik nord,Skolerute,Lysekloster skole,-PT1M59S
3350387140,60.2617999725044,5.34373995848,bus,67,Bergen busstasjon L,skyss.no,GARASJE Fana Bussdepot,-PT2M42S
3350387146,60.3872000332922,5.33555000089109,bus,67,Søråshøgda snuplass,Bergen busstasjon,Bergen busstasjon L,PT3M22S
3350447724,60.4204876720905,5.46509575098753,bus,97,Garnesstølen,skyss.no,Arna terminal A,-PT1M1S
3350387045,60.2883000299335,5.26235000230372,bus,53,Milde snuplass,Birkelandsskiftet,Birkelandsskiftet D,-PT1M20S
3350387074,60.2986999601126,5.32779003493488,bus,74,Kaland skole (rundkjøring),skyss.no,Lagunen terminal F,PT10M12S
3350387145,60.3874000255018,5.33551999367774,bus,67,Søråshøgda snuplass,Bergen busstasjon,Bergen busstasjon L,-PT22S
3350387059,60.2981999795884,5.32806999050081,bus,52,Grimstad snuplass,Lagunen terminal,Lagunen terminal I,-PT1M1S
3350387058,60.3198999725282,5.35231003537774,bus,76,Smørås snuplass,Nesttun terminal,Nesttun terminal D,-PT1M36S
3350387149,60.3885999787599,5.33341999165714,bus,67,Søråshøgda snuplass,Bergen busstasjon,Bergen busstasjon L,PT2M8S
3350387057,60.2975000068545,5.32774996943772,bus,52,Grimstad snuplass,Lagunen terminal,Lagunen terminal I,-PT1M27S
3350387118,60.2968000341207,5.3271499928087,bus,22,Fyllingsdalen terminal D,Lagunen terminal,Lagunen terminal I,-PT1M29S
3350387210,60.0174000207335,5.22636003792286,bus,530,Bekkjarvik torg,skyss.no,GARASJE Tide Buss Austevoll,-PT5M15S
3350387215,60.0172000285238,5.22590003907681,bus,530,Selbjørn skule,Våge,Selbjørn skule,-PT3H55M31S
3350453104,60.3285946883261,5.2931790612638,bus,10,Wergeland C,skyss.no,Bønes senter,PT2M36S
3350453109,60.3607116267085,5.35078243352473,bus,10,Mindeveien snuplass,skyss.no,Wergeland C,-PT3M3S
3350387207,60.1227000262588,5.20024001598358,bus,531,Drøna snuplass,Hufthamar,Hufthamar kai,-PT4M46S
3350387208,60.0046000164002,5.2016500197351,bus,531,Bekkjarvik torg,skyss.no,Selbjørn skule,PT3M
3350377308,60.3617000207305,5.12664003297687,bus,23,Bergen Lufthavn,skyss.no,GARASJE Straume,PT27M14S
3350324145,59.7888970188797,5.4975155275315,bus,700,Rommetveit snuplass,skyss.no,Garasje Stord,PT30M25S
3350135718,60.3875866904855,6.19661662727594,bus,925,Øystese,skyss.no,Kvam ungdomsskule,PT1M2S
3350453403,60.3518460039049,5.27732184156775,bus,49,Fredheim Olsvik,skyss.no,Garasje Spelhaugen,-PT5M52S
3350377432,60.3887999709696,5.33424996770918,bus,441,Hjelteryggen snuplass,Bergen busstasjon,Bergen busstasjon Q,PT48S
3350377432,60.3617000207305,5.12667004019022,bus,465,Straume terminal C,skyss.no,GARASJE Straume,-PT2M42S
3350324141,59.7792274877429,5.50124212168157,bus,700,Flotmyr perrong 5,Leirvik,Leirvik terminal B,-PT3M32S
3350453510,60.3874679189175,5.33524431288242,bus,14,Fyllingsdalen terminal E,Bergen busstasjon,Bergen busstasjon L,-PT1M18S
3350377378,60.405200002715,4.99686000868678,bus,471,Solsvik kai,Ågotnes terminal,Ågotnes terminal B,-PT1M58S
3350387032,60.2618999686092,5.34371003508568,bus,99,Liland skole,skyss.no,GARASJE Fana Bussdepot,-PT11S
3350377376,60.4049000144005,4.99729997478426,bus,471,Aker CCB,skyss.no,Ågotnes terminal A,-PT2M56S
3350377436,60.4052999988198,4.99706997536123,bus,465,Straume terminal C,Ågotnes terminal,Ågotnes terminal B,-PT1M59S
3350135719,60.3871266916394,5.3350399620831,bus,925,Øystese,Bergen,Bergen busstasjon O,-PT6M59S
3350387035,60.2617999725044,5.34375001676381,bus,99,Ytrebygda skole,skyss.no,GARASJE Fana Bussdepot,-PT2M58S
3350387113,60.3628999739885,5.34323997795582,bus,67,Bergen busstasjon L,Søråshøgda,Minde,PT9M28S
3350387012,60.2883000299335,5.26235000230372,bus,53,Milde snuplass,Birkelandsskiftet,Birkelandsskiftet D,-PT1M24S
3350387036,60.2618999686092,5.34361003898084,bus,99,Ytrebygda skole,skyss.no,GARASJE Fana Bussdepot,-PT2M11S
3350377429,60.386699968949,5.15067002736032,bus,442,Knarrevik rv. 555,skyss.no,Hjelteryggen snuplass,PT4M22S
3350387031,60.3197999764234,5.35241003148258,bus,75,Skiparvik snuplass,Nesttun terminal,Nesttun terminal D,-PT48S
3350387021,60.3197999764234,5.35235999152064,bus,76,Smørås snuplass,Nesttun terminal,Nesttun terminal D,PT40S
3350447514,60.4204735904932,5.46499483287334,bus,97,Garnesstølen,skyss.no,Arna terminal B,-PT1M1S
3350387034,60.2710000332445,5.27426001615822,bus,99,Stend,skyss.no,Grimseid snuplass,-PT40S
3350387037,60.2617999725044,5.34385998733342,bus,99,Liland skole,skyss.no,GARASJE Fana Bussdepot,-PT3M17S
3350387026,60.3198999725282,5.35232998430729,bus,76,Smørås snuplass,Nesttun terminal,Nesttun terminal D,PT13S
3350387039,60.2617999725044,5.34395000897348,bus,51,Bergen busstasjon M,skyss.no,GARASJE Fana Bussdepot,-PT5M44S
3350387029,60.3196999803185,5.35246996209025,bus,76,Smørås snuplass,Nesttun terminal,Nesttun terminal D,-PT25S
3350387204,60.0175000168383,5.22636003792286,bus,530,Bekkjarvik torg,skyss.no,GARASJE Tide Buss Austevoll,-PT6M29S
3350453303,60.3973114583641,5.30875925906003,bus,11,Starefossen,Nordnes,Nordnes skole,PT1M21S
3350387205,60.0050000008196,5.20401002839208,bus,530,Selbjørn skule,skyss.no,GARASJE Tide Buss Austevoll,-PT1M31S
3350453513,60.3871726244688,5.33536375500262,bus,14,Fyllingsdalen terminal E,Bergen busstasjon,Bergen busstasjon L,PT1M14S
3350387202,60.2564000152051,5.33075002022088,bus,530,Våge snuplass,Kun avstiging,Fossen,PT3M17S
3350453503,60.3561341017485,5.36824495531619,bus,15,Festplassen M,skyss.no,Garasje Mannsverk,-PT59S
3350453405,60.3720674291253,5.21275285631418,bus,49,Kjøkkelvik skole,skyss.no,Storavatnet terminal B,-PT4M49S
3350453514,60.328520424664,5.29324083589017,bus,14,Fyllingsdalen terminal K,skyss.no,Bønes senter,PT4M35S
3350453406,60.3518315032125,5.27741965837777,bus,49,Bildøy skulesenter,skyss.no,Garasje Spelhaugen,-PT5M39S
3350453504,60.3909145575017,5.32528451643884,bus,15,Festplassen M,skyss.no,Olav Kyrres gate G,PT1M7S
3350453302,60.3891019709408,5.35261371172965,bus,11,Starefossen,Nordnes,Starefossveien,-PT7M56S
3350135773,60.0680844672024,6.55206019990146,bus,725,Odda busstasjon,skyss.no,Garasje Skare,PT38M54S
3350387208,60.0050000008196,5.20100997760892,bus,530,Selbjørn skule,Hufthamar,Selbjørn skule,-PT40M38S
3350135710,60.4177983384579,5.46827835962176,bus,925,Bergen busstasjon O,Øystese,Takvam E16,PT1M27S
3350453509,60.334247527644,5.3024211153388,bus,15,Olav Kyrres gate G,Bønes,Tjørnhaugen,PT15S
3350387209,60.0174000207335,5.22634997963905,bus,530,Våge snuplass,skyss.no,GARASJE Tide Buss Austevoll,PT7M17S
3350453507,60.3899986669421,5.33287147991359,bus,15,Festplassen M,skyss.no,Bergen busstasjon H,-PT36S
3350387206,60.0174000207335,5.22634997963905,bus,530,Bekkjarvik torg,skyss.no,GARASJE Tide Buss Austevoll,PT5M5S
3350453409,60.3518344368786,5.27737816795707,bus,49,Kjøkkelvik skole,skyss.no,Garasje Spelhaugen,-PT6M6S
3350453508,60.3900419175625,5.33291716128588,bus,15,Festplassen M,skyss.no,Bergen busstasjon H,-PT3M25S
3350387207,60.0174000207335,5.22634997963905,bus,530,Bekkjarvik torg,skyss.no,GARASJE Tide Buss Austevoll,-PT3M56S
3350135613,60.1852597855031,5.46857465989888,bus,934,Bergen busstasjon O,skyss.no,Osøyro terminal B,-PT4M31S
3350135543,60.6301216688007,6.4375133626163,bus,965,Voss stasjon G,Sentrumsringen,Fredheim,PT3M9S
3350453414,60.3518526256084,5.27732846327126,bus,49,Olsvikåsen,skyss.no,Garasje Spelhaugen,-PT2M27S
3350453512,60.327420886606,5.29209452681243,bus,15,Bergveien,Bergen sentrum,Bønes senter,-PT34S
3350453513,60.3502680268139,5.28804891742766,bus,15,Festplassen M,skyss.no,Fyllingsdalen terminal E,PT3M17S
3350453415,60.362441483885,5.23466776125133,bus,49,Olsvikåsen,skyss.no,Loddefjord terminal B,-PT31M54S
3350377431,60.3658000286669,5.1825699582696,bus,442,Knarrevik rv. 555,skyss.no,Ramsvik snuplass,PT27M6S
3350453511,60.3560940362513,5.36821779794991,bus,15,Bergveien,skyss.no,Garasje Mannsverk,-PT3M15S
3350135746,60.5651683732867,6.90634665079415,bus,945,Hjeltnes snuplass,skyss.no,Garasje Ulvik,-PT2M32S
3350387042,60.2617999725044,5.34373995848,bus,99,Osøyro terminal B,skyss.no,GARASJE Fana Bussdepot,-PT9M19S
3350387031,60.3197999764234,5.35239997319877,bus,76,Smørås snuplass,Nesttun terminal,Nesttun terminal D,-PT12S
3350377315,60.3617000207305,5.12668001465499,bus,454,Sund ungdomsskule,skyss.no,GARASJE Straume,-PT9M9S
3350377307,60.5665000062436,4.80946001596749,bus,479,Ågotnes terminal B,skyss.no,Herdlevær snuplass,-PT5M13S
3350387041,60.2617999725044,5.3439299762249,bus,99,Ytrebygda skole,skyss.no,GARASJE Fana Bussdepot,-PT2M4S
3350387034,60.2986999601126,5.3278199583292,bus,76,Nesttun terminal D,skyss.no,Lagunen terminal F,-PT40S
3350387022,60.2618999686092,5.3436900023371,bus,53,Milde snuplass,skyss.no,GARASJE Fana Bussdepot,-PT6M29S
3350387040,60.3865999728441,5.33335997723043,bus,51,Bergen busstasjon M,Birkelandsskiftet,Bergen busstasjon M,-PT16M31S
3350447502,60.4827744327486,5.38437358103693,bus,97,Arna terminal A,skyss.no,Garasje Haukås,-PT10M13S
3350387031,60.4203999973834,5.46480003744364,bus,52,Lagunen terminal I,skyss.no,Arna terminal B,PT23S
3350447553,60.4201085586101,5.4644740652293,bus,92,Takvam ved rundkjøring,Arna terminal,Arna terminal A,-PT40S
3350447503,60.3752355370671,5.45552034862339,bus,97,Osevatn,Lone skule,Lone skule,PT3M16S
3350447513,60.4716435167938,5.39079680107534,bus,96,Myrane,skyss.no,Hetlebakken snuplass,PT1M24S
3350387123,60.387300029397,5.33551999367774,bus,67,Søråshøgda snuplass,Bergen busstasjon,Bergen busstasjon L,-PT1M3S
3350447550,60.379667468369,5.46504026278853,bus,92,Arna terminal A,skyss.no,"Espeland, Moldalia",PT2M24S
3350387056,60.2986999601126,5.32783001661301,bus,74,Kalandseidet,skyss.no,Lagunen terminal F,-PT2M56S
3350387034,60.3019000031054,5.28673999942839,bus,52,Lagunen terminal F,Grimstad,Fanatorget,PT9S
3350387049,60.2618999686092,5.34368002787232,bus,99,Bergveien,skyss.no,GARASJE Fana Bussdepot,PT3M53S
3350387045,60.3469000104815,5.33731003291905,bus,51,Birkelandsskiftet D,Bergen busstasjon,Fjøsangerkrysset,PT2M15S
3350453418,60.3865889087319,5.33487282693386,bus,49,Lynghaug skole,skyss.no,Bergen busstasjon H,-PT4M54S
3350453419,60.3518372029066,5.27738428674638,bus,49,Olsvikåsen,skyss.no,Garasje Spelhaugen,PT17S
3350453514,60.3900032769889,5.33289285376668,bus,15,Festplassen M,skyss.no,Bergen busstasjon M,-PT33S
3350135741,60.528642386198,6.72697224654257,bus,945,Hjeltnes snuplass,Granvin,Granvin terminal,-PT4S
3350324158,59.3954299483448,5.33038490451872,bus,700,Amanda terminal,skyss.no,Garasje Haugesund,-PT28S
3350324162,59.5448666252196,5.35822631791234,bus,631,Sveio skule,skyss.no,Sveio,PT2M2S
3350453136,60.3528725355864,5.27684021741152,bus,18,Barliveien,Formanns vei,Tjernet,-PT11S
3350324165,59.6052371989936,5.48352076672018,bus,631,Ulveraker sør,skyss.no,"Førde skule, E39",PT7M38S
3350377315,60.2614999841899,5.09100998751819,bus,475,Blomvåg terminal,Sotra VGS,Sotra vgs. Sund,PT6M20S
3350447538,60.4634036868811,5.3210265096277,bus,33,Rolland snuplass,Åsane terminal,Åsane terminal F,-PT17S
3350447528,60.4735829215497,5.35465939901769,bus,34,Langarinden,Åsane terminal,Langarinden øvre,PT13S
3350447518,60.4631249886006,5.32100966200233,bus,35,Klauvaneset Tellevikv.,Åsane terminal,Åsane terminal F,PT29S
3350324169,59.6091419924051,5.47570103779435,bus,631,Sveio skule,Førde skule,Førde sentrum,PT6M12S
3350324165,59.544878192246,5.35832623019814,bus,632,Sveio skule,skyss.no,Sveio,-PT1M1S
3350447731,60.5252856016159,5.49837425351143,bus,909,Bernes nord,Lonevåg,Lonevåg terminal,PT2M29S
3350447732,60.5255558341742,5.49750714562833,bus,909,Hatland skulesenter,skyss.no,Lonevåg terminal,-PT23S
3350324162,59.5440809056163,5.35384601913393,bus,632,Vikse skule,Rophus,Vikse skule,-PT5H1M18S
3350377426,60.4052999988198,4.99706000089645,bus,465,Straume terminal C,Ågotnes terminal,Ågotnes terminal B,-PT29S
3350447737,60.5255611985922,5.49729315564036,bus,909,Valestrand skule,skyss.no,Lonevåg terminal,-PT5M22S
3350447518,60.4630928020924,5.32101050019264,bus,34,Langarinden,Åsane terminal,Åsane terminal F,PT2M17S
3350453184,60.3492856677622,5.28765060938895,bus,14,Bergen busstasjon M,Fyllingsdalen terminal,Fyllingsdalen terminal K,PT1M40S
3350377429,60.3887999709696,5.33420001156628,bus,441,Hjelteryggen snuplass,Bergen busstasjon,Bergen busstasjon Q,-PT8M4S
3350377429,60.3498999774456,5.16062999144197,bus,465,Straume terminal C,skyss.no,Brattholmen kai,-PT1M31S
3350447556,60.4628773033619,5.32098669558764,bus,30,Åsane terminal C,Tertnes,Ulsetåsen,PT1S
3350453183,60.3382134251297,5.29822463169694,bus,14,Bergen busstasjon M,Fyllingsdalen terminal,Bråtet Terrasse,PT7M59S
3350447527,60.4631643835455,5.32100463286042,bus,33,Rolland snuplass,Åsane terminal,Åsane terminal F,-PT6S
3350447554,60.4636568203568,5.32190166413784,bus,30,Viddalen,skyss.no,Åsane terminal E,PT2M37S
3440189688,61.016715830192,5.35985810682178,bus,360,Oppedal ferjekai,Dalsøyra,Øvre Austgulen,PT8M6S
3350447515,60.4827419109643,5.38436285220087,bus,34,Langarinden,skyss.no,Garasje Haukås,PT1M29S
3350447555,60.4827739298344,5.38435681723058,bus,30,Åsane terminal F,skyss.no,Garasje Haukås,-PT1M9S
3350447523,60.4631463624537,5.3210161998868,bus,33,Rolland snuplass,Åsane terminal,Åsane terminal F,-PT5S
3440189699,60.8569163549691,5.06351030431688,bus,360,Rutledal ferjekai,Sløvåg ferjekai,Sløvågen ferjekai,-PT3M14S
3350387102,60.3605999797583,5.35084001719952,bus,83,Nesttun terminal D,Bergen busstasjon,Reperbanen,PT16S
3350387109,60.2617999725044,5.34372000955045,bus,83,Bergen busstasjon M,skyss.no,GARASJE Fana Bussdepot,-PT2M20S
3350324168,59.4152233097702,5.27761152014136,bus,632,Karmsund vgs,skyss.no,Sveio,PT30M33S
3350324169,59.5441425964236,5.35397266969085,bus,632,Vikse skule snuplass,Mølstrekrossen,Vikse skule snuplass,-PT4H38M1S
3350453115,60.4096621088684,5.32650986686349,bus,18,Formanns vei,Barliveien,Formanns vei,-PT14M30S
3350453175,60.3554591909051,5.36801319569349,bus,12,Wiers-Jenssens vei,Lønborglien,Wiers-Jenssens vei,-PT1H17M16S
3350324165,59.5874269120395,5.42916010133922,bus,633,Våga kai,skyss.no,"Rød, Øklandsvegen",PT16M44S
3350453153,60.3872224129736,5.26194389909506,bus,14,Bergen busstasjon L,skyss.no,Gravdal snuplass,-PT2M12S
3350447722,60.52255326882,5.50984086468816,bus,909,Haus terminal,Hatland skulesenter,Hatland skulesenter,PT3M29S
3350324162,59.621835462749,5.33432632684708,bus,633,Sveio sentrum,skyss.no,Tjernagel,PT3M28S
3350447724,60.5050157289952,5.42785302735865,bus,909,Arna terminal A,Valestrand,Valestrand kai,-PT3M24S
3350377444,60.3617000207305,5.12664003297687,bus,460,Bergen busstasjon Q,skyss.no,GARASJE Straume,-PT18S
3350447725,60.5256061255932,5.49725686199963,bus,909,Tyssebotn kai,Lonevåg,Lonevåg terminal,-PT57S
3350377443,60.3908999729902,5.32514998689294,bus,460,Ågotnes terminal A,Bergen busstasjon,Bergen busstasjon Q,-PT9M47S
3350377302,60.5164000298828,4.91007001139224,bus,474,Stegavika,Øygarden US,Øygarden ungdomsskule,-PT5S
3350447727,60.5263831280172,5.49322474747896,bus,909,Hatland skulesenter,skyss.no,Lonevåg terminal,-PT1H28M56S
3350377448,60.3889999631792,5.33368997275829,bus,460,Ågotnes terminal A,Bergen busstasjon,Bergen busstasjon Q,-PT2M58S
3350447728,60.5225142091513,5.50983231514692,bus,909,Hauge terminal,Hatland skulesenter,Hatland skulesenter,PT1M54S
3350377307,60.4875999782234,4.94249003939331,bus,474,Rong barneskule,skyss.no,GARASJE Tjeldstø,PT36M49S
3350377447,60.355200022459,5.08512002415955,bus,460,Bergen busstasjon G,Ågotnes terminal,Kolltveit kai,-PT10S
3350447729,60.5266883131117,5.49341342411935,bus,909,Hatland skulesenter,skyss.no,Lonevåg terminal,-PT33M45S
3350453172,60.4357833880931,5.29155598953366,bus,12,Lønborglien snuplass,Lægdene - Montana,Lønborglien snuplass,-PT29M7S
3350377446,60.3799999784678,5.26698997244239,bus,460,Ågotnes terminal A,Bergen busstasjon,Lyngbø rv. 555 B,PT3M22S
3350453150,60.3902657143772,5.32422328367829,bus,14,Bergen busstasjon L,skyss.no,Festplassen N,-PT4M11S
3350447537,60.4633804690093,5.32100815325975,bus,35,Klauvaneset Tellevikv.,Åsane terminal,Åsane terminal F,PT5M28S
3350447527,60.5162774864584,5.28288876637816,bus,36,Åsane terminal D,Hordvik-Klauvaneset,"Klauvaneset, Tellevikv.",PT2M1S
3350447515,60.472642891109,5.3497426584363,bus,37,Åsane terminal F,skyss.no,Langarinden,-PT3M4S
3350447523,60.4630219750106,5.32102399505675,bus,36,Klauvaneset Tellevikv.,Åsane terminal,Åsane terminal F,PT3M44S
3350447524,60.5101616308093,5.34225225448608,bus,36,Klauvaneset Tellevikv.,Åsane terminal,Tuft,PT4M43S
3350447541,60.4828121513128,5.38431901484728,bus,34,Åsane terminal F,skyss.no,Garasje Haukås,-PT58S
3350447520,60.4631001781672,5.3210180439055,bus,36,Klauvaneset Tellevikv.,Åsane terminal,Åsane terminal F,-PT17S
3350447510,60.4633514676243,5.32174584455788,bus,37,Åsane terminal D,Breistein,Åsane terminal D,-PT13M10S
3350453186,60.3864194266498,5.33165937289596,bus,12,Wiers-Jenssens vei,Lønborglien,Bergen busstasjon U,-PT11S
3350135746,60.5675933416933,6.9141683075577,bus,925,Granvin terminal,skyss.no,Ulvik sentrum,PT17M42S
3350377451,60.3617000207305,5.12665000744164,bus,460,Straume terminal A,skyss.no,GARASJE Straume,PT29S
3350324181,59.4662921503186,5.36714147776365,bus,632,Vikse skule snuplass,skyss.no,Eilerås,PT3M10S
3350377450,60.3617000207305,5.12665000744164,bus,460,Bergen busstasjon Q,skyss.no,GARASJE Straume,-PT5M36S
3350377310,60.5365000013262,4.87836001440883,bus,474,Ovågen,Blomvåg terminal,Blomvåg terminal,-PT57S
3350447711,60.4552601650357,5.49263851717114,bus,909,Øvre Rivenes snuplass,Haus,Haus terminal,-PT2M24S
3350453188,60.3553047124296,5.36805342882872,bus,12,Mannsverk garasje,skyss.no,Garasje Mannsverk,PT29M57S
3350377455,60.3888999670744,5.33390002325177,bus,460,Ågotnes terminal A,Bergen busstasjon,Bergen busstasjon Q,-PT7M6S
3350447714,60.5262783542275,5.49407517537475,bus,909,Hatland skulesenter,skyss.no,Garasje Lonevåg,PT5M44S
3350377453,60.3665999975055,5.14240999706089,bus,460,Bergen busstasjon Q,skyss.no,Anglavika snuplass,-PT1H4M23S
3350447715,60.5265496764332,5.49355834722519,bus,909,Valestrand kai,skyss.no,Garasje Lonevåg,-PT5M50S
3350377459,60.405200002715,4.99686998315156,bus,460,Bergen busstasjon G,Ågotnes terminal,Ågotnes terminal A,-PT2M8S
3350377458,60.3721000347286,5.21279996261001,bus,460,Bergen busstasjon Q,skyss.no,Storavatnet terminal A,-PT12M40S
3350453173,60.3561086207628,5.36821067333221,bus,13,Festplassen M,skyss.no,Garasje Mannsverk,PT5M29S
3350447558,60.4631764534861,5.32101301476359,bus,32,Skinstø,Åsane terminal,Åsane terminal F,PT39S
3350377457,60.4051000066102,4.99679999426007,bus,460,Ågotnes terminal A,Bergen busstasjon,Ågotnes terminal A,-PT19M56S
3350453181,60.3560935333371,5.36816909909248,bus,12,Lønborglien snuplass,skyss.no,Garasje Mannsverk,-PT4M46S
3350453121,60.3836858365685,5.31649366021156,bus,18,Formanns vei,Barliveien,Gyldenpris,PT44S
3440189699,60.971602583304,5.10672982782125,bus,361,Sollibotn kai,Dalsøyra,Flolid,PT1M46S
3350447527,60.4925157129765,5.26348005048931,bus,35,Klauvaneset Tellevikv.,Åsane terminal,Matre,PT2M17S
3350447537,60.4633987415582,5.32102441415191,bus,34,Langarinden,Åsane terminal,Åsane terminal F,PT1M22S
3350447544,60.4634252283722,5.32101519405842,bus,33,Rolland snuplass,Åsane terminal,Åsane terminal F,PT50S
3350447524,60.5159287154675,5.28383566997945,bus,35,Åsane terminal D,Salhus - Klauvaneset,"Klauvaneset, Tellevikv.",PT5M41S
3350447545,60.4631600249559,5.32100488431752,bus,33,Rolland snuplass,Åsane terminal,Åsane terminal F,-PT26S
3350377449,60.3664000052959,5.24717004038393,bus,460,Bergen busstasjon G,Ågotnes terminal,Frieda Fasmer rv. 555,-PT1M20S
3350447542,60.4630482941866,5.32102231867611,bus,33,Rolland snuplass,Åsane terminal,Åsane terminal F,-PT13S
3350447523,60.5160314776003,5.2833706419915,bus,35,Åsane terminal D,Salhus - Klauvaneset,"Klauvaneset, Tellevikv.",PT5M6S
3350447510,60.463334871456,5.32209604047239,bus,36,Bergen busstasjon K,skyss.no,Åsane terminal E,PT6M48S
3350447520,60.515908934176,5.28376350179315,bus,35,Åsane terminal D,Salhus - Klauvaneset,"Klauvaneset, Tellevikv.",PT5M35S
3350135741,60.570909474045,6.68641523458064,bus,925,Granvin terminal,Voss,Svelgane,PT4M38S
3350453134,60.3555716760457,5.3679196536541,bus,14,Bergen busstasjon L,skyss.no,Mannsverk,-PT16M57S
3350453151,60.3556028567255,5.36741841584444,bus,12,Mannsverk garasje,skyss.no,Mannsverk,PT1M28S
3350453137,60.3493227157742,5.2876478433609,bus,14,Bergen busstasjon M,Fyllingsdalen terminal,Fyllingsdalen terminal K,PT8M53S
3350453177,60.3593842685223,5.34969094209373,bus,10,Mulen,Wergeland,Wergeland C,-PT10S
3350453157,60.3203642461449,5.35235160961747,bus,12,Mannsverk garasje,skyss.no,Nesttun terminal D,PT9M20S
3350453178,60.4047241620719,5.33018223010004,bus,10,Mulen,Søndre Skogveien,Prahls vei,-PT4M50S
3350453156,60.3549473918974,5.36809206940234,bus,12,Lønborglien snuplass,Lægdene - Montana,Mannsverk garasje,-PT2M9S
3440189680,60.9183026477695,4.90138283930719,bus,362,Gardvågen,Mjømna kai,Mjømna kai,-PT2M19S
3350377422,60.3595000226051,5.12326003052294,bus,460,Ågotnes terminal A,skyss.no,GARASJE Straume,-PT3M36S
3350377316,60.4052999988198,4.99663000926375,bus,471,Turøyna snuplass,Ågotnes terminal,Polleidet,PT1M8S
3350377426,60.2688000351191,5.07423997856677,bus,460,Bergen busstasjon Q,skyss.no,Skogsskiftet terminal A,-PT36M33S
3350453130,60.3658158704638,5.18254045397043,bus,14,Bergen busstasjon L,skyss.no,Ramsvik snuplass,-PT2M12S
3350377425,60.3888999670744,5.33393003046513,bus,460,Landro skule snuplass,Bergen busstasjon,Bergen busstasjon Q,PT9M7S
3350447577,60.4827823117375,5.38434466347098,bus,97,Garnesstølen,skyss.no,Garasje Haukås,-PT1M26S
3350387021,60.3196999803185,5.35245998762548,bus,70,Nesttun terminal C,Nesttun terminal,Nesttun terminal D,-PT50S
3350361473,60.6409914046526,5.05497702397406,bus,312,Sagstad skule,skyss.no,Manger garasje,PT2M23S
3350387026,60.2710000332445,5.274269990623,bus,70,Nesttun terminal D,skyss.no,Grimseid snuplass,PT1M33S
3350361471,60.5619839206338,5.05125286057591,bus,312,Vikebø nord,Frekhaug,Vikebø sør,-PT2M46S
3350361492,60.545387333259,5.28009692206979,bus,310,Frekhaug terminal,skyss.no,Knarvik terminal B,PT33M39S
3350387029,60.3197999764234,5.35236996598542,bus,70,Nesttun terminal C,Nesttun terminal,Nesttun terminal D,-PT27S
3350447570,60.4828213714063,5.38434298709035,bus,97,Garnesstølen,skyss.no,Garasje Haukås,-PT6M36S
3350361498,60.5174918565899,5.24809003807604,bus,310,Hjertås nord,Frekhaug terminal,Frekhaug kai,-PT2M17S
3350453159,60.3628091979772,5.3410841524601,bus,12,Mannsverk garasje,skyss.no,Mindeveien snuplass,PT3M14S
3350361466,60.5318933911622,5.25666866451502,bus,313,Ådland snuplass,Frekhaug,Flatøy terminal  D,-PT2M57S
3350453165,60.3619812335819,5.3748840931803,bus,12,Wiers-Jenssens vei,Lønborglien,Kanonhaugen,PT1M1S
3350324131,59.7180599626154,5.51776578649879,bus,631,Tittelsnes snuplass,Liereid,Tittelsnes snuplass,-PT3H24M52S
3350453103,60.3561192657799,5.36825601942837,bus,18,Barliveien,skyss.no,Garasje Mannsverk,-PT2M58S
3350453168,60.3560957126319,5.36823607049882,bus,12,Lønborglien snuplass,skyss.no,Garasje Mannsverk,-PT2M14S
3350324160,59.7842892352492,5.49870969727635,bus,676,Leirvik terminal C,skyss.no,Garasje Stord,-PT6M4S
3350453149,60.3493171837181,5.28762864880264,bus,14,Bergen busstasjon M,Fyllingsdalen terminal,Fyllingsdalen terminal K,PT2M2S
3350453166,60.4266876820475,5.29812949709594,bus,12,Wiers-Jenssens vei,Lønborglien,Eikeviken,PT1M52S
3350453106,60.3527841903269,5.27720022015274,bus,18,Barliveien,Formanns vei,Barliveien,-PT30M21S
3350453187,60.3561316709965,5.36817203275859,bus,10,Mindeveien snuplass,skyss.no,Garasje Mannsverk,-PT4M52S
3350377433,60.3888999670744,5.33387001603842,bus,460,Ågotnes terminal A,Bergen busstasjon,Bergen busstasjon Q,-PT2M45S
3350377322,60.405200002715,4.99682002700865,bus,471,Ågotnes terminal B,skyss.no,GARASJE Straume,PT5M47S
3350377432,60.405200002715,4.99695003032684,bus,460,Bergen busstasjon G,Ågotnes terminal,Ågotnes terminal A,PT1M28S
3350377320,60.4052999988198,4.9963600281626,bus,471,Ågotnes terminal B,Solsvik - Vindenes,Ågotnes terminal B,-PT13M58S
3350447504,60.4827538970858,5.38440107367933,bus,31,Åsane terminal E,skyss.no,Garasje Haukås,-PT59S
3350453150,60.3561846446246,5.36822467111051,bus,13,Festplassen M,skyss.no,Garasje Mannsverk,PT33S
3350453180,60.3698788303882,5.3380084130913,bus,10,Mindeveien snuplass,Mulen,Skrivergaten,PT16S
3350377437,60.3781999647617,5.05627999082208,bus,460,Ågotnes terminal A,Bergen busstasjon,Knappskog utmark,PT2M4S
3350377436,60.3706000093371,5.15255997888744,bus,460,Bergen busstasjon Q,skyss.no,Knarrevik rv. 555,-PT12M57S
3440189706,61.2218362558633,6.07365100644529,bus,820,Vadheim,Høyanger,Høyanger rutebilstasjon,-PT5M55S
3350447501,60.4828186891973,5.38434298709035,bus,31,Åsane terminal F,skyss.no,Garasje Haukås,-PT6M39S
3350377429,60.3617000207305,5.12661002576351,bus,460,Bergen busstasjon Q,skyss.no,GARASJE Straume,-PT5M42S
3350447511,60.4631908703595,5.32101796008646,bus,30,Viddalen,Åsane terminal,Åsane terminal F,PT3S
3350387030,60.3198999725282,5.35236996598542,bus,70,Nesttun terminal C,Nesttun terminal,Nesttun terminal D,-PT1M7S
3440189709,61.2089337408543,5.82184128463268,bus,820,Høyanger rutebilstasjon,Vadheim,Vadheim,PT1M18S
3350387031,60.3212000057101,5.35397996194661,bus,70,Nesttun terminal C,Nesttun terminal,Nesttun sentrum,-PT5M18S
3350377427,60.405200002715,4.99695003032684,bus,460,Bergen busstasjon G,Ågotnes terminal,Ågotnes terminal A,PT11S
3350447572,60.4631332028657,5.32100412994623,bus,96,Lønborg,Tertneskrysset,Åsane terminal F,-PT1S
3350361475,60.5581113975495,5.26992405764759,bus,313,Knarvik vgs.,skyss.no,Knarvik garasje,-PT4M48S
3350361495,60.5463976040483,5.28644126839936,bus,311,Frekhaug terminal,skyss.no,Knarvik terminal A,-PT4M50S
3350447670,60.394205711782,5.32241396605968,bus,86,Formanns vei,Servicelinjen,Strandgaten,-PT48S
3350447571,60.4636428225785,5.32192136161029,bus,96,Myrane,skyss.no,Åsane terminal E,PT7M14S
3350361498,60.5463427025825,5.28626902028918,bus,311,Frekhaug terminal,skyss.no,Knarvik terminal A,PT12M15S
3350387029,60.2618999686092,5.3436900023371,bus,71,Nesttun terminal D,skyss.no,GARASJE Fana Bussdepot,-PT2M56S
3350324134,59.4118764996529,5.28904812410474,bus,631,Tittelsnes snuplass,Haugesund,Vardafjellhallen,PT8M51S
3350135764,60.4007799737155,5.73418669402599,bus,925,Lønnebakken,skyss.no,Garasje Samnanger,-PT6M57S
3350324154,59.7794641088694,5.50105629488826,bus,678,Sageneset,Leirvik,Leirvik terminal C,-PT59S
3350453152,60.3893944155425,5.32376403920352,bus,10,Wergeland C,Mulen,Festplassen N,PT3M16S
3350324132,59.6815535891801,5.48280595801771,bus,632,Vikse skule,Rophus,Vikse skule,-PT3H14M47S
3350453135,60.3546935878694,5.36803389899433,bus,12,Wiers-Jenssens vei,Lønborglien,Wiers-Jenssens vei,-PT4H4M9S
3350453113,60.3560609277338,5.36819533444941,bus,14,Bergen busstasjon L,skyss.no,Garasje Mannsverk,-PT2M45S
3350453134,60.418480373919,5.31208410859108,bus,12,Lønborglien snuplass,Lægdene - Montana,Munkebotn,PT2M6S
3350135722,59.8131418414414,5.65567743033171,bus,790,Ranavik kai,Sæbøvik,"Gjerde, Eidsvik",-PT3M9S
3350447518,60.5161173082888,5.28329218737781,bus,33,Åsane terminal F,skyss.no,"Klauvaneset, Tellevikv.",-PT1M50S
3350447548,60.4629125073552,5.32102868892252,bus,30,Viddalen,Åsane terminal,Åsane terminal F,-PT5S
3350447525,60.4827765282243,5.38435648195446,bus,32,Åsane terminal F,skyss.no,Garasje Haukås,-PT2M58S
3350377302,60.589700024575,4.839500002563,bus,470,Rong barneskule,skyss.no,GARASJE Tjeldstø,PT2M10S
3350447546,60.4560169670731,5.29359631240368,bus,30,Viddalen,Åsane terminal,Sjøveien,PT2M32S
3350447543,60.4626457951963,5.32121409662068,bus,30,Åsane terminal C,Tertnes,Åsane terminal C,-PT30M16S
3350447511,60.463141836226,5.32102265395224,bus,33,Rolland snuplass,Åsane terminal,Åsane terminal F,-PT46S
3350447521,60.4634165111929,5.32167837023735,bus,32,Åsane terminal C,Skinstø,Åsane terminal C,-PT12M25S
3350361452,60.5190104059875,5.24046099744737,bus,312,Io snuplass,Frekhaug,Frekhaug terminal,-PT2M35S
3350361470,60.5581966415048,5.26994350366294,bus,310,Knarvik vgs.,skyss.no,Knarvik garasje,-PT8M33S
3350453159,60.3560859896243,5.36820480599999,bus,10,Mindeveien snuplass,skyss.no,Garasje Mannsverk,-PT3M1S
3350135794,60.3983222320676,6.32226931862533,bus,925,Granvin terminal,Bergen,Steinstøberget,-PT7S
3350453117,60.3587113693357,5.34166635945439,bus,14,Fyllingsdalen terminal E,Bergen busstasjon,Minde,PT1M55S
3350453127,60.3879120759666,5.33505773171782,bus,13,Festplassen N,Sentrum,Nygårdsgaten / Lars Hilles gate,-PT53S
3350453138,60.355585925281,5.36826280876994,bus,12,Mannsverk garasje,skyss.no,Mannsverk,PT7M37S
3350361454,60.5151526350528,5.23044210858643,bus,312,Flatøy terminal  D,skyss.no,Mjåtveitflaten,-PT3M21S
3350453158,60.3707801364362,5.33503484912217,bus,10,Mulen,Søndre Skogveien,Lærerbakken øvre,-PT1M1S
3350135797,60.3660548385233,6.14516766741872,bus,925,Norheimsund terminal,skyss.no,Garasje Norheimsund,PT2M16S
3350361458,60.5417387746274,5.06260531023145,bus,312,Vestbygd skule,skyss.no,Beitingen,-PT44S
3350453142,60.3553745336831,5.36811084486544,bus,12,Mannsverk garasje,skyss.no,Garasje Mannsverk,PT8M39S
3350324132,59.5874933805317,5.42905054986477,bus,633,Sveio sentrum,skyss.no,"Rød, Øklandsvegen",PT1M17S
3350453146,60.3828278649598,5.33284373581409,bus,12,Lønborglien snuplass,Lægdene - Montana,Florida,PT2M28S
3440189675,61.8349997140467,6.58048591576517,bus,100,Byrkjelo,Sandane,Byrkjelo,-PT1H33M13S
3350453127,60.3903030138463,5.32444666139781,bus,14,Bergen busstasjon L,skyss.no,Festplassen N,-PT14S
3350453125,60.3560569044203,5.3682164568454,bus,14,Bergen busstasjon L,skyss.no,Garasje Mannsverk,-PT1M32S
3350447517,60.4631323646754,5.32102684490383,bus,32,Skinstø,Åsane terminal,Åsane terminal F,PT35S
3350377313,60.6613000016659,4.79075998999178,bus,470,Tjeldstø skule,skyss.no,Hellesøy kai,-PT5M2S
3350377303,60.405200002715,4.99675003811717,bus,471,Turøyna snuplass,Ågotnes terminal,Ågotnes terminal B,PT2M51S
3350377312,60.589700024575,4.84173000790179,bus,470,Tjeldstø skule,skyss.no,GARASJE Tjeldstø,PT4M55S
3350447532,60.4631352983415,5.32103279605508,bus,30,Viddalen,Åsane terminal,Åsane terminal F,PT3M6S
3350135705,59.7927863895893,5.70612257346511,bus,790,Halsnøy skule,skyss.no,Garsje Halsnøy,PT42S
3350447533,60.4634048603475,5.32103246077895,bus,30,Viddalen,Åsane terminal,Åsane terminal F,PT2M37S
3350447530,60.4632374737412,5.32100412994623,bus,30,Viddalen,Åsane terminal,Åsane terminal F,PT2M45S
3350447511,60.4631706699729,5.32101829536259,bus,32,Skinstø,Åsane terminal,Åsane terminal F,-PT11S
3350361452,60.5484507512301,5.2110818400979,bus,313,Frekhaug terminal,Grasdal skule,Grasdal skule,PT4S
3350361473,60.5158024840057,5.22170883603394,bus,311,Frekhaug terminal,skyss.no,Mjåtveit,-PT6M20S
3350361467,60.5285415519029,5.16247862018645,bus,312,Fløksand Beitingvegen,Vestbygd skule,Vestbygd skule,PT4S
3350361454,60.5608572252095,5.02026756294072,bus,313,Frekhaug terminal,skyss.no,Io snuplass,PT2M2S
3350453168,60.435788249597,5.29114225879312,bus,10,Wergeland C,skyss.no,Lønborglien snuplass,PT1M41S
3350361484,60.5452990718186,5.27981160208583,bus,310,Knarvik vgs.,skyss.no,Ostereidet garasje,PT37M27S
3350361465,60.5452212877572,5.2822516579181,bus,312,Sagstad skule,skyss.no,Knarvik garasje,-PT1M16S
3350135786,60.3869660105556,5.33518915995955,bus,925,Øystese,Bergen,Bergen busstasjon O,-PT5M52S
3350135695,60.3765150345862,5.76124330982566,bus,934,Bjørkheim senter,skyss.no,Tysse indre,PT3M32S
3350361488,60.5448948126286,5.27951312251389,bus,310,Flatøy terminal  D,skyss.no,Knarvik garasje,-PT1M33S
3350361468,60.5447697546333,5.27839539572597,bus,312,Vestbygd skule,Brakstad,Vestbygd skule,-PT3H16M8S
3350324158,59.7846857830882,5.49879049882293,bus,631,Tittelsnes snuplass,skyss.no,Garasje Stord,PT31M1S
3350324161,59.7884381935,5.49780906178057,bus,671,Leirvik terminal B,Sandvikvåg,Leirvik terminal B,-PT2H50M39S
3350447534,60.4202843271196,5.46317101456225,bus,910,Bergen busstasjon K,skyss.no,Arna terminal A,PT4M10S
3350324116,59.7721518203616,5.49617140553892,bus,676,Hystad skule,Heiane - Kårevik,Gullbergvegen,PT6M52S
3350447544,60.4604058992118,5.436289915815,bus,28,Åsane terminal D,Arna terminal,Ytre Arna kyrkje,PT1M15S
3350447545,60.4630591068417,5.32099985517561,bus,28,Arna terminal A,Åsane terminal,Åsane terminal F,-PT2S
3350361454,60.5108334403485,5.22549108602107,bus,310,Mjåtveitflaten,skyss.no,Holme parkering,PT2M41S
3350324118,59.7823044843972,5.49962684512138,bus,676,Hornelandsvågen snuplass,Ådland,Leirvik turnhall,PT1M33S
3350447543,60.4632435925305,5.32103464007378,bus,28,Arna terminal A,Åsane terminal,Åsane terminal F,PT3M11S
3350361452,60.5322480294853,5.19191133789718,bus,310,Flatøy terminal  B,Frekhaug-Skjelanger,Flatøy terminal  B,-PT3H15M4S
3350324112,59.7889483999461,5.49748937599361,bus,676,Langeland skule,Kårevik,Langeland skule,-PT3H42M35S
3350361457,60.5452225450426,5.28214244171977,bus,310,Sagstad skule,skyss.no,Knarvik garasje,-PT2M37S
3350361489,60.7842003274709,4.9308876413852,bus,331,Årås skule,skyss.no,Mastrevik garasje,PT8S
3350361458,60.5338255874813,5.24525301530957,bus,310,Flatøy terminal  B,Vikebø,Flatøy terminal  B,-PT4H58M49S
3350324143,59.7886923328042,5.49766631796956,bus,673,Tjødnalio skule snuplass,skyss.no,Garasje Stord,PT34M49S
3350324114,59.7956374939531,5.50849355757236,bus,676,Kårevik sør,Ådland,Hystad skule,PT1M47S
3350361436,60.5867562163621,5.13593732379377,bus,312,Frekhaug terminal,skyss.no,Ådland snuplass,PT1M22S
3440199347,61.3909180182964,5.76410287991166,,FB59,Vieåsen,Førde lufthamn,Førde lufthamn Bringeland,PT1M29S
3350453405,60.3806650824845,5.26855948381126,bus,40,Storavatnet terminal B,Bergen busstasjon,Lyngbø rv. 555 B,-PT1M44S
3350447537,60.4632365517318,5.32065854407847,bus,28,Åsane terminal D,Arna terminal,Åsane terminal D,-PT41M39S
3350361520,60.544916857034,5.27964916080236,bus,304,Seim skule,skyss.no,Knarvik garasje,-PT2M21S
3350361451,60.546534480527,5.2808855753392,bus,311,Frekhaug terminal,skyss.no,Knarvik garasje,-PT8M36S
3350447555,60.4703028313816,5.27540054172277,bus,26,Åsane terminal F,skyss.no,Viddalen,-PT30S
3350453409,60.3658544272184,5.18246342428029,bus,40,Storavatnet terminal B,skyss.no,Ramsvik snuplass,PT16M28S
3350447556,60.463049383834,5.32102550379932,bus,26,Lagunen terminal J,Åsane terminal,Åsane terminal F,-PT27S
3350361462,60.5309971980751,5.15642680227757,bus,310,Flatøy terminal  B,Hjertås,Hjertås sør,PT3M7S
3350447531,60.400667656213,5.46815665438771,bus,28,Åsane terminal F,skyss.no,Arnatveit,PT2M48S
3350447532,60.4631094820797,5.32101402059197,bus,28,Arna terminal A,Åsane terminal,Åsane terminal F,-PT8S
3350453402,60.3518341854215,5.27741714380682,bus,40,Bergen busstasjon Q,skyss.no,Garasje Spelhaugen,-PT46S
3350447530,60.4608973301947,5.42949152179062,bus,28,Arna terminal A,Åsane terminal,Gamsevegen,PT3M10S
3350361466,60.5453571584076,5.28010052628815,bus,310,Flatøy terminal  B,Rossland,Flatøy terminal  B,-PT15M29S
3350361436,60.5463980231434,5.27956156991422,bus,313,Flatøy terminal  D,skyss.no,Holme parkering,PT30M5S
3350361467,60.5451160948724,5.28155721724033,bus,310,Vikebø nord,skyss.no,Knarvik garasje,-PT2M14S
3350324180,59.7887348290533,5.49770152196288,bus,671,Rommetveit snuplass,skyss.no,Garasje Stord,PT15M17S
3350324130,59.771537091583,5.47728253528476,bus,676,Heiane ved Fylkesnes bil,Skulerute,"Stord vgs, Vabakkjen",-PT4M38S
3350447580,60.2987561188638,5.32796605490148,bus,27,Haukeland sjukehus nord C,skyss.no,Lagunen terminal J,-PT6M52S
3350324182,59.919491680339,5.32367376610637,bus,671,Sandvikvåg,Fitjar,Fitjar vgs.,PT3M53S
3350135703,60.3383852541447,6.65465980768204,bus,990,Voss stasjon E,Odda,Helleland,-PT1M42S
3350453182,60.3453268948942,5.36388753913343,bus,6,Birkelundstoppen A,Lyngbø,Kolstibotn,-PT2M46S
3350447588,60.4827819764614,5.38435447029769,bus,26,Åsane terminal F,skyss.no,Garasje Haukås,PT8M50S
3350447578,60.4828233830631,5.38431013002992,bus,27,Åsane terminal F,skyss.no,Garasje Haukås,-PT4M44S
3350447589,60.4632482863963,5.32103581354022,bus,26,Lagunen terminal J,Åsane terminal,Åsane terminal F,-PT14S
3350447579,60.4827734269202,5.3843560628593,bus,27,Åsane terminal F,skyss.no,Garasje Haukås,PT12M45S
3350324138,59.7895820718259,5.49724336713552,bus,676,Langeland,skyss.no,Fitjar vgs.,PT1H37M8S
3350447576,60.3767718560994,5.35935896448791,bus,27,Haukeland sjukehus sør F,Åsane terminal,Haukeland sjukehus sør F,-PT5M30S
3350361474,60.5449544917792,5.27972568757832,bus,330,Knarvik terminal B,skyss.no,Knarvik garasje,-PT2M34S
3350447577,60.4556796792895,5.39956519380212,bus,27,Åsane terminal F,skyss.no,Kalsåsvegen,PT1M3S
3350447574,60.4827903583646,5.38436117582023,bus,27,Åsane terminal F,skyss.no,Garasje Haukås,-PT2M8S
3350447584,60.4828963056207,5.38424936123192,bus,26,Åsane terminal F,skyss.no,Garasje Haukås,-PT1M13S
3350447575,60.4403915069997,5.32588952220976,bus,27,Haukeland sjukehus sør F,Åsane terminal,Tertneskrysset E39,PT15S
3350447572,60.4827816411853,5.38433963432908,bus,27,Åsane terminal F,skyss.no,Garasje Haukås,-PT52S
3350361478,60.5465709418058,5.2868433482945,bus,330,Austrheim kyrkje,Knarvik terminal,Knarvik terminal B,PT15S
3350447573,60.4827828146517,5.38436654023826,bus,27,Haukeland sjukehus nord C,skyss.no,Garasje Haukås,-PT8M34S
3350447580,60.4702924378216,5.27530775405467,bus,26,Åsane terminal F,skyss.no,Viddalen,PT2M26S
3350447570,60.4599488340318,5.42177430354059,bus,27,Åsane terminal F,skyss.no,"Orfallet, Ytre Arna",-PT1M13S
3350447581,60.3780084382743,5.33717768266797,bus,26,Lagunen terminal J,Åsane terminal,Gamle Bergen,PT4M47S
3350447571,60.4560923203826,5.31896280124784,bus,27,Åsane terminal E,Haukeland sjukehus,Tertneskrysset E39,PT1M33S
3350387112,60.1852000225335,5.46915996819735,bus,607,Osøyro terminal A,skyss.no,Osøyro terminal A,-PT1M28S
3350387082,60.2035999763757,5.44669998809695,bus,610,Osøyro terminal B,skyss.no,GARASJE Os Garasje,PT2M27S
3350361494,60.5452000815421,5.28189173899591,bus,300E,Bergen busstasjon J,skyss.no,Knarvik garasje,-PT6M12S
3350361495,60.5448876880109,5.27949476614594,bus,300E,Knarvik terminal A,skyss.no,Knarvik garasje,-PT7M
3350361496,60.5472031887621,5.28950317762792,bus,300E,Bergen busstasjon J,Knarvik terminal,Knarvik terminal A,PT11S
3350447579,60.4631353821605,5.32102114520967,bus,26,Lagunen terminal J,Åsane terminal,Åsane terminal F,PT4S
3350447578,60.4630894493312,5.32098535448313,bus,26,Lagunen terminal J,Åsane terminal,Åsane terminal F,PT1M27S
3350447555,60.4631305206567,5.32100111246109,bus,28,Arna terminal A,Åsane terminal,Åsane terminal F,-PT1M10S
3350447575,60.4632031917572,5.32100798562169,bus,26,Lagunen terminal J,Åsane terminal,Åsane terminal F,-PT1M17S
3350361443,60.5449213832617,5.27967422269285,bus,310,Knarvik terminal B,skyss.no,Knarvik garasje,-PT3M38S
3350447551,60.4827804677188,5.3843608405441,bus,28,Arna terminal A,skyss.no,Garasje Haukås,-PT4M53S
3350361479,60.7461942639202,5.17365890555084,bus,331,Lindås skulestopp,skyss.no,Fanebust garasje,-PT3M45S
3350447550,60.422365386039,5.5156341008842,bus,28,Garnesstølen,skyss.no,Takvam ved rundkjøring,-PT42S
3350361506,60.3886077739298,5.33316476270556,bus,300,Knarvik terminal A,Bergen busstasjon,Bergen busstasjon J,PT6S
3350361448,60.7844417262822,4.93078529834747,bus,330,Mastrevik torg,skyss.no,Mastrevik garasje,-PT3M15S
3350361504,60.5151368770748,5.23027991876006,bus,300,Bergen busstasjon J,skyss.no,Mjåtveitflaten,PT10M14S
3350361505,60.5469522345811,5.28838025406003,bus,300,Knarvik terminal A,Bergen busstasjon,"Blandeverket, mot Flatøy",-PT4M50S
3350377348,60.4075999930501,5.22682003676891,bus,408,Hanevik,Kleppestø terminal,Kleppestø terminal E,PT47S
3350361509,60.5466806609184,5.28733117505908,bus,300,Bergen busstasjon J,Knarvik terminal,Knarvik terminal B,PT18S
3350387101,60.1446000114083,5.43839000165462,bus,607,Kysthospitalet,skyss.no,Halhjemsmarka snuplass,PT5M21S
3350361497,60.5451392289251,5.2817297168076,bus,300E,Bergen busstasjon J,skyss.no,Knarvik garasje,PT10M8S
3350361498,60.5452322680503,5.28223313391209,bus,300E,Bergen busstasjon J,skyss.no,Knarvik garasje,-PT15M8S
3350135605,59.8898766562343,5.55795332416892,bus,651,Våge kai,Hodnanes,Hodnanes,-PT44S
3350447522,60.4827907774597,5.38435840979218,bus,26,Lagunen terminal I,skyss.no,Garasje Haukås,-PT8M10S
3350377346,60.4455000255257,5.16913997009397,bus,408,Erdal ungdomsskole,skyss.no,GARASJE Haugland,-PT1M59S
3350361514,60.5325082037598,5.25767524726689,bus,300,Bergen busstasjon J,skyss.no,Knarvik garasje,-PT5M32S
3350361453,60.5456378683448,5.27961814776063,bus,330,Knarvik terminal B,Mastrevik torg,Knarvik terminal B,-PT6M40S
3350361511,60.5454067792743,5.2784710843116,bus,300,Knarvik terminal B,skyss.no,Knarvik garasje,PT1M53S
3350361449,60.746222930029,5.17347550950944,bus,331,Lindås skulestopp,skyss.no,Fanebust garasje,PT4M15S
3350361515,60.5314861144871,5.25721164420247,bus,300,Bergen busstasjon J,skyss.no,Flatøy terminal  B,PT5M17S
3350361457,60.5319042038172,5.2567922975868,bus,330,Knarvik terminal B,skyss.no,Flatøy terminal  C,PT7S
3350387091,60.1992999762297,5.44439001940191,bus,740,Os vidaregåande skule,skyss.no,Mobergslien,PT2M34S
3350453111,60.3803263697773,5.26910464279354,bus,6,Lyngbø D,Birkelundstoppen,Lyderhornsveien,-PT6M57S
3350150118,60.4206346906722,5.46601574867964,bus,920,Arna terminal C,Dale,Arna terminal C,-PT24M58S
3350324137,59.7650163061917,5.43774761259556,bus,671,Fitjar vgs.,skyss.no,Valvatne snuplass,PT9M35S
3350377350,60.4077999852598,5.2268900256604,bus,408,Hanevik,Kleppestø terminal,Kleppestø terminal E,-PT52S
3350324139,59.9428584147245,5.42584329843521,bus,671,Sandvikvåg,Leirvik,Stranda bedehus,PT4M7S
3350324113,59.7892432752997,5.49602698534727,bus,673,Rommetveit snuplass,skyss.no,Garasje Stord,PT32M57S
3350324114,59.7639931272715,5.45274778269231,bus,673,Vikanes snuplass,Rommetveit,Heiane ved Fylkesnes bil,-PT1M11S
3350324115,59.7888949234039,5.49750630743802,bus,673,Rommetveit snuplass,Leirvik-Litlabø,Rommetveit snuplass,-PT3H9M24S
3350324110,59.7658259980381,5.44492344371974,bus,673,Rommetveit snuplass,Leirvik-Sagvåg,Hillesgjerdet,PT2M2S
3350361467,60.5465272720903,5.28669565916061,bus,330,Kolås kryss,Knarvik terminal,Knarvik terminal B,-PT1M56S
3350324130,59.7626302298158,5.45551456511021,bus,671,Leirvik terminal B,skyss.no,Heiane ved Fylkesnes bil,PT3M19S
3350377338,60.4264000151306,5.15153998509049,bus,407,Kleppestø terminal E,skyss.no,Hetlevik snuplass,-PT20S
3350377337,60.4461999982595,5.17030002549291,bus,407,Haugland verkstedet,skyss.no,GARASJE Haugland,PT21S
3350377336,60.4455000255257,5.16910996288061,bus,407,Kleppestø terminal E,skyss.no,GARASJE Haugland,-PT2M4S
3350135713,60.3657816722989,6.1459266487509,bus,799,Kvam ungdomsskule,skyss.no,Garasje Norheimsund,-PT9S
3350135623,59.8594763316214,5.77311703003943,bus,760,Utåker kai,Årsnes kai,Onarheimselva,PT44M13S
3350135731,59.6515705995262,6.02270496077836,bus,640,Ølen terminal,Tesdal kryss,Tesdal kryss,PT2M14S
3350135741,60.6614010035992,6.43639739602804,bus,990,Voss stasjon E,Bu,Voss stasjon E,-PT24M14S
3350135736,59.9355214834213,6.58778445795178,bus,640,Håbru snuplass,skyss.no,Garasje Odda,PT5M23S
3350135735,60.0568834785372,6.54677792452276,bus,640,Fjæra,Skulerute,Odda US/VGS,PT2M10S
3350135627,59.8604253306985,5.75379841960967,bus,760,Utåker kai,Husnes,Husnes sentrum sør,-PT56S
3350135738,60.0682588946074,6.55203429982066,bus,640,Etne terminal,skyss.no,Garasje Odda,PT8M58S
3350135718,60.3740950115025,5.75965502299368,bus,799,Norheimsund skule,skyss.no,Tysse bru,PT27M27S
3350135608,60.0694189500064,5.42150633409619,bus,653,Kaldafoss snuplass,Våge,Skår kai avkøyring,PT27S
3350135625,59.8616745695472,5.7539708353579,bus,760,Husnes sentrum nord,Utåker,Helland,PT58S
3350387087,60.2034999802709,5.44659999199212,bus,740,Osøyro terminal A,skyss.no,GARASJE Os Garasje,-PT1M16S
3350135728,60.4659791942686,7.07012400962412,bus,991,Øvre Eidfjord,skyss.no,Garasje Eidfjord,-PT7M9S
3350447528,60.4631861764938,5.32102097757161,bus,28,Sletta,Åsane terminal,Åsane terminal F,PT35S
3350135737,60.3393214289099,6.65512852370739,bus,990,Kinsarvik skule,skyss.no,Garasje Odda,PT7M51S
3350135727,60.06825260818,6.55185199342668,bus,991,Odda busstasjon avstiging,skyss.no,Garasje Odda,PT4M13S
3350135618,60.0935356132686,6.13593081012368,bus,760,Garasje Odda,skyss.no,Rosendal kai,-PT12M54S
3440189710,61.5109324548393,5.71809377521276,bus,250,Førde rutebilstasjon,Florø,Naustdal kryss,PT5M15S
3350377390,60.3617000207305,5.12668001465499,bus,449,Kolltveit skule,skyss.no,GARASJE Straume,-PT14M17S
3350447524,60.4630286805332,5.32100044190884,bus,28,Arna terminal A,Åsane terminal,Åsane terminal F,PT8M34S
3350447525,60.4630610346794,5.32101670280099,bus,28,Arna terminal A,Åsane terminal,Åsane terminal F,-PT41S
3350377395,60.3617000207305,5.12665998190641,bus,449,Bildøy skulesenter,skyss.no,GARASJE Straume,-PT5M32S
3350377341,60.4455000255257,5.16912999562919,bus,406,Kleppestø terminal B,skyss.no,GARASJE Haugland,PT5M15S
