VehicleRef,Latitude,Longitude,Vehicle,LineNum,StartName,DestinationName,StopPointName,Delay
3350387030,60.3244999609888,5.37445996887982,bus,29,Arna terminal B,Nesttun terminal,Midtun,PT1M12S
3350447631,60.4869209602475,5.2783989161253,bus,3,Vadmyra,Støbotn,Støbotn snuplass,-PT48S
3350447614,60.3608718886971,5.29662276618183,bus,5,Fyllingsdalen terminal E,Sletten,Sikthaugen,PT2M45S
3350447634,60.3950046747923,5.32580520026386,bus,3,Vadmyra,Støbotn,Bryggen B,PT4M1S
3350447624,60.3487746231258,5.28663673438132,bus,4,Hesjaholtet,skyss.no,Fyllingsdalen terminal E,-PT1M32S
3350447633,60.3652971982956,5.22585729137063,bus,3,Vadmyra,Støbotn,Vestre Vadmyra,-PT7M56S
3350447615,60.3497824631631,5.28799661435187,bus,5,Fyllingsdalen terminal E,Sletten,Skarphaugen,PT2M43S
3350447638,60.4631213843822,5.32121619209647,bus,3,Vadmyra,Støbotn,Åsane brannstasjon,PT7M13S
3350387081,60.1852000225335,5.46908000484109,bus,601,Eidsvik snuplass,Osøyro,Osøyro terminal B,-PT55S
3350447629,60.4625440388918,5.37053220905364,bus,4,Flaktveit snuplass,Hesjaholtet,Breimyra,PT4S
3350447734,60.4525020159781,5.49616461619735,bus,902,Lonevåg terminal,Haus,Haus kai,PT8S
3350447519,60.3713532071561,5.30364814214408,bus,19,Løvstakkskiftet,Åsane terminal,Hamrehaugen,PT2M56S
3350447729,60.5265203397721,5.49364644102752,bus,903,Valestrand kai,skyss.no,Garasje Lonevåg,-PT3S
3350447739,60.5255734361708,5.49846494570374,bus,902,Kvisti terminal,Lonevåg,Lonevåg terminal,PT1M38S
3350361462,60.5544081050903,5.27157160453498,bus,345,Knarvik vgs.,skyss.no,Alversund skule,-PT2S
3350361472,60.6264042947441,5.4736989364028,bus,344,Rødland,Ostereidet,Ostereidet senter,PT1M16S
3350447517,60.4366441257298,5.31139779835939,bus,19,Løvstakkskiftet,Åsane terminal,Fabrikkvegen,PT5M35S
3350361483,60.622259862721,5.42036949656904,bus,343,Hindenes,Ostereidet skule,"Vassel, skulemuseet",PT2M48S
3350361471,60.6274492666125,5.09569756686687,bus,320,Knarvik terminal B,Manger,Kartveit vest,PT4M37S
3350447518,60.3820026665926,5.3037924785167,bus,19,Åsane terminal E,Løvstakkskiftet,Svingen,PT8M11S
3350361491,60.7320474553853,5.272560082376,bus,342,Vabø,Eikanger bru,Sævrås kai,-PT1M36S
3350324146,59.7364203538746,5.34551750868559,bus,552,Kulleseidkanalen sør,Gassasundet,Gassasundet,PT38S
3350324148,59.7271430119872,5.23683775216341,bus,552,Svortland terminal D,Langevåg,Våge skule,PT2M48S
3350361473,60.6402401346713,5.04548451863229,bus,320,Knarvik terminal B,skyss.no,Manger senter,PT7M38S
3350447512,60.4250016622245,5.30108017846942,bus,19,Løvstakkskiftet,Åsane terminal,Solbakken,PT7M23S
3350361447,60.6806020159274,5.05895180627704,bus,323,Straume nord,Manger,Lygresvingen,PT4M53S
3350324150,59.7941931243986,5.17930713482201,bus,552,Langevåg kai,Svortland,Svortland terminal D,PT23S
3350447621,60.3652951028198,5.22583214566112,bus,3,Støbotn,Vadmyra,Vadmyra,PT19S
3350447603,60.3646869957447,5.22528832778335,bus,5,Fyllingsdalen terminal K,skyss.no,Vadmyra,-PT4M16S
3350447612,60.4223651345819,5.30656764283776,bus,4,Hesjaholtet,Flaktveit,Handelshøyskolen,PT11M11S
3350447625,60.4868356324732,5.2785905264318,bus,3,Støbotn,Vadmyra,Toppe,-PT5M52S
3350447604,60.3834073059261,5.3577898722142,bus,5,Fyllingsdalen terminal E,Sletten,Statsarkivet,PT8M10S
3350447627,60.4242342151701,5.30474089086056,bus,3,Vadmyra,Støbotn,Handelshøyskolen,PT4M17S
3350447606,60.3930783458054,5.32741066999733,bus,5,Fyllingsdalen terminal E,Sletten,Nygaten,PT3M39S
3350447616,60.3998727165163,5.31647211872041,bus,4,Hesjaholtet,Flaktveit,Bontelabo,PT8M2S
3350447619,60.3441113512963,5.27229638770223,bus,4,Flaktveit snuplass,Hesjaholtet,Allestadveien,PT8M1S
3350387047,60.3385999985039,5.50332996994257,bus,29,Nesttun terminal D,skyss.no,Lund snuplass,-PT9M43S
3350447628,60.3821459133178,5.31416416168213,bus,3,Støbotn,Vadmyra,Lyngbø rv. 555 A,PT2M45S
3440189708,61.3630849868059,5.39966803975403,bus,220,Dale,Askvoll,Eikenes Dalen,-PT4M19S
3350377394,60.3598000109196,5.12321996502578,bus,23E,Straume terminal A,Straume terminal,Straume terminal B,PT1M49S
3440189707,61.3459261413664,5.06293656304479,bus,220,Askvoll kai,Dale,Askvoll sentrum,PT1M6S
3350377386,60.3111999761313,5.26898000389338,bus,23E,Straume terminal A,Straume terminal,Frieda Fasmer rv. 555,PT2M56S
3350447726,60.5252265930176,5.49829395487905,bus,902,Kvisti terminal,Lonevåg,Lonevåg terminal,PT1M53S
3350453109,60.3598215524107,5.35029402002692,bus,82,Grønnestølen,Wergeland,Wergeland C,PT1M2S
3350361477,60.7528189010918,5.3241553902626,bus,345,Masfjordnes kai,Knarvik,"Hope, Kleivane",PT5S
3350361446,60.7619064766914,4.8994136787951,bus,324,Toska snuplass,Mastrevik torg,Bergsvik,PT2M45S
3350361473,60.5191065464169,5.24003486149013,bus,321,Austmarka,skyss.no,Frekhaug terminal,PT5M42S
3350453114,60.3592764772475,5.34974919632077,bus,81,Mannsverk garasje,skyss.no,Wergeland C,PT5M22S
3350324135,59.699059445411,5.38701865822077,bus,554,Mosterhamn kai,Gassasundet,Moster gamle kyrkje,PT1M
3350324136,59.6923569403589,5.35999741405249,bus,554,Sakseidteen,Moster skule,Hestavollen kryss,PT0S
3350447580,60.4190306458622,5.31115480698645,bus,39,Viddalen,Bergen busstasjon,Gamle Bergen,PT4M2S
3350447602,60.4604734573513,5.37013255991042,bus,4E,Flaktveit snuplass,Sentrum ekspress,Breimyra,-PT6S
3350447642,60.3955941740423,5.32589429989457,bus,4,Flaktveit snuplass,Hesjaholtet,Olav Kyrres gate G,PT7M56S
3350361447,60.7257663924247,4.97578538954258,bus,320,Knarvik terminal B,skyss.no,Straume nord,PT20M22S
3350447654,60.3626879118383,5.22831075824797,bus,3,Støbotn,Vadmyra,Vadmyra,-PT9S
3350324163,59.7942403145134,5.17918509431183,bus,552,Svortland skule til Mækjebakken,skyss.no,Svortland terminal B,PT3M41S
3350447636,60.3873049747199,5.34605872817338,bus,5,Sletten,Fyllingsdalen terminal,Stadsporten,PT4M6S
3350447645,60.3452615998685,5.26029601693153,bus,4,Hesjaholtet,Flaktveit,Allestadhaugen,-PT2M15S
3350387080,60.2978999912739,5.32773999497294,bus,22,Lagunen terminal J,Fyllingsdalen terminal,Søråsskiftet,-PT4M48S
3350447648,60.3495123144239,5.28786887414753,bus,4,Hesjaholtet,Flaktveit,Løvås,PT2M13S
3350447657,60.4806277435273,5.25759721174836,bus,3,Støbotn,Vadmyra,Saudalskleivane,-PT49S
3350447738,60.526308529079,5.49409076571465,bus,900,Hatland skulesenter,skyss.no,Garasje Lonevåg,PT32S
3350447538,60.4827611893415,5.38437634706497,bus,19,Åsane terminal F,skyss.no,Garasje Haukås,-PT2M42S
3350361442,60.7592486590147,5.33510777167976,bus,345,Sandnes skule,skyss.no,Hope parkering,PT6M51S
3350361438,60.8352902904153,5.58363522402942,bus,346,Andås kryss,skyss.no,Haukeland,PT19M55S
3350447573,60.455667860806,5.31828965060413,bus,39,Bergen busstasjon U,Tertnes,Myrane,PT6M3S
3350324146,59.7962305974215,5.18462972715497,bus,554,Svortland terminal E,skyss.no,Garasje Bømlo,-PT11S
3350447640,60.4623418673873,5.37098567001522,bus,4,Hesjaholtet,Flaktveit,Flaktveit snuplass,PT3M12S
3350324167,59.7674347367138,5.2388018835336,bus,552,Hestanesvegen kryss,Svortland,Ersland,PT4M33S
3350447631,60.4827224649489,5.3843716531992,bus,4,Hesjaholtet,skyss.no,Garasje Haukås,PT7M8S
3350447630,60.4082028195262,5.32230751588941,bus,4,Flaktveit snuplass,Hesjaholtet,Sandvikstorget,PT2M28S
3350361459,60.5466081574559,5.2869036141783,bus,320,Knarvik terminal B,Manger,Litlevika,-PT1M49S
3350447635,60.3570624813437,5.29353034682572,bus,4,Flaktveit snuplass,Hesjaholtet,Nebbeveien,PT6M13S
3350447624,60.3855818230659,5.31913504935801,bus,5,Sletten,Fyllingsdalen terminal,Gyldenpris,PT5M58S
3350447647,60.4009958077222,5.31517954543233,bus,3,Støbotn,Vadmyra,Bradbenken,PT58S
3350387021,60.3197999764234,5.352389998734,bus,29,Arna terminal B,Nesttun terminal,Nesttun terminal D,-PT2M11S
3350387026,60.2899999637157,5.34873004071414,bus,29,Nesttun terminal D,skyss.no,Smørås snuplass,-PT3M33S
3350447710,60.5131010804325,5.47707181423903,bus,901,Haus terminal,skyss.no,Garasje Bruvik,PT44S
3350447720,60.4733838513494,5.52790713496506,bus,900,Arna terminal A,Lonevåg,Hannisdal,PT59S
3350135625,59.8286894336343,5.79285582527518,bus,791,Halsnøy industribase,Valen,"Valen, sjukehuset",PT5M3S
3350447711,60.4527429118752,5.4955590236932,bus,901,Haus terminal,Bruvik,Haus terminal,-PT29M7S
3350387029,60.4202000051737,5.46436996199191,bus,29,Arna terminal B,Nesttun terminal,Bommane,PT1M10S
3350447722,60.5255585163832,5.49750127829611,bus,900,Hatland skulesenter,Arna terminal,Lonevåg terminal,PT53S
3350447712,60.4801595304161,5.67998696118593,bus,901,Øvre Rivenes snuplass,Bruvik,Bruvik kyrkje,PT4M2S
3350447724,60.4200751148164,5.46437105163932,bus,900,Hatland skulesenter,Arna terminal,Arna terminal A,-PT36S
3350135626,59.7809005156159,5.74756865389645,bus,790,Sydnes kai,Sæbøvik,Landamarka snuplass,PT3S
3350361481,60.732099339366,5.27419991791248,bus,342,Jordal nord,Lindås senter,Sævrås kai,-PT2M4S
3350447528,60.4631515592337,5.32173913903534,bus,19,Åsane terminal E,Løvstakkskiftet,Hesthaugen,-PT8M58S
3350447727,60.5051572155207,5.42923972941935,bus,900,Hatland skulesenter,skyss.no,Valestrand kai,PT11M30S
3350447529,60.3922833222896,5.32513707876205,bus,19,Åsane terminal E,Løvstakkskiftet,Møhlenpris,PT8M1S
3350453507,60.3722485620528,5.21335744298995,bus,40,Storavatnet terminal B,Bergen busstasjon,Godviksvingane,PT46S
3350324149,59.7919149231166,5.16499704681337,bus,555,Svortland terminal B,Hiskjo,Svortland,-PT1M37S
3350361486,60.8034651260823,4.98061462305486,bus,342,Natås barnehage,Austrheim vgs,Bakkastraumen bru,PT1M8S
3350361469,60.6666720472276,5.41805148124695,bus,344,Nesbø kai,Ostereidet skule,Askelandsvågen,PT21S
3350453502,60.3503039851785,5.28804053552449,bus,40,Bergen busstasjon Q,skyss.no,Fyllingsdalen terminal E,PT52S
3350361455,60.6410102639347,4.98730941675603,bus,321,Radøy ungdomsskule,skyss.no,Toska snuplass,PT4M6S
3350324148,59.7395288664848,5.23292399011552,bus,555,Svortland terminal B,skyss.no,Kulleseidkanalen sør,-PT26M12S
3350361469,60.6258268654346,5.47232975251973,bus,340,Knarvik terminal C,Ostereidet,Ostereidet senter,-PT5M14S
3350387072,60.3340000100434,5.39046999067068,bus,29,Nesttun terminal C,Arna terminal,Helldal sør,PT1M15S
3350453009,60.3552612941712,5.3683390840888,bus,6,Lyngbø D,Birkelundstoppen,Bolstad,PT2M57S
3350453008,60.353675018996,5.36854058504105,bus,6,Birkelundstoppen A,Lyngbø,Wiers-Jenssens vei,PT49S
3350447701,60.6185518763959,5.58522342704237,bus,909,Tyssebotn kai,Hosanger,Tyssebotn byggefelt,PT41S
3350132664,59.9345504399389,5.52861783653498,bus,654,Våge kai,Hodnanes,Skor,PT1M3S
3350447702,60.4577914159745,5.54883423261344,bus,909,Arna terminal A,Hatland skulesenter,Veset sør,PT4S
3350453005,60.3916323836893,5.32591165043414,bus,6,Lyngbø D,Birkelundstoppen,Nygaten,PT45S
3350447703,60.5254960712045,5.49567595124245,bus,909,Flatås snuplass,Hatland skulesenter,Lonevåg terminal,-PT8M30S
3350447733,60.5252895411104,5.49837953411043,bus,906,Tyssebotn kai,Lonevåg,Lonevåg terminal,-PT1M37S
3350453007,60.385938892141,5.31964383088052,bus,6,Birkelundstoppen A,Lyngbø,Møhlenpris,PT11M7S
3350447704,60.5260166712105,5.5267324950546,bus,909,Njåstad snuplass,Lonevåg,Husavatnet,-PT1M
3350453006,60.3766680881381,5.35940498113632,bus,6,Birkelundstoppen A,Lyngbø,Statsarkivet,PT4M6S
3350447735,60.5898709315807,5.52426025271416,bus,906,Fotlandsvåg sentrum,Lonevåg,Fotland,-PT3M48S
3350453003,60.3852552641183,5.29752633534372,bus,6,Lyngbø D,Birkelundstoppen,Damsgård hovedgård,PT56S
3350135723,59.9191345274448,5.79248551279306,bus,760,Raudstein,Herøysund,Herøysund kai,PT1M37S
3350447529,60.4631040338427,5.32101024873555,bus,38,Hetlebakken snuplass,Åsane terminal,Åsane terminal F,PT4M52S
3350447537,60.4861734621227,5.37631287239492,bus,37,Breistein snuplass,Åsane terminal,Haukåsvegen,PT1M16S
3350447558,60.5159105267376,5.28385863639414,bus,35,Åsane terminal D,Salhus - Klauvaneset,"Klauvaneset, Tellevikv.",PT3M44S
3350324159,59.8635675385594,5.34445610828698,bus,680,Rydland,Fitjar,Tislevoll,PT4S
3350447554,60.4631531517953,5.32103799283504,bus,35,Hordvikneset,Åsane terminal,Åsane terminal F,PT1M42S
3350361472,60.5478344298899,5.29224699363112,bus,340,Knarvik terminal C,skyss.no,"Ostereidet skule, stopp 1",PT17M38S
3350447541,60.5027205124497,5.3587756678462,bus,36,Bergen busstasjon K,Hordvik-Klauvaneset,Hylkje,-PT8S
3350361468,60.5519689712673,5.27911003679037,bus,341,Knarvik vgs.,skyss.no,Knarvik garasje,PT39S
3350447726,60.5252463743091,5.49831951968372,bus,906,Tyssebotn kai,Lonevåg,Lonevåg terminal,PT59S
3350447559,60.4630655609071,5.32102692872286,bus,34,Langarinden,Åsane terminal,Åsane terminal F,PT52S
3350135709,60.0460699852556,5.52350169047713,bus,651,Våge nedre,Våge,Våge kai,PT2M20S
3350387038,60.1991999801248,5.42214000597596,bus,601,Eidsvik snuplass,Osøyro,Ulven leir,PT34S
3350447513,60.4713219869882,5.39075598120689,bus,38,Hetlebakken snuplass,Åsane terminal,Hetlebakkvegen,PT27S
3350361484,60.6007575150579,4.96380295604467,bus,340,Knarvik terminal C,skyss.no,Skjelanger kai,-PT5M15S
3350447541,60.5159268714488,5.2838728018105,bus,35,Åsane terminal D,Salhus - Klauvaneset,"Klauvaneset, Tellevikv.",PT1M30S
3350361461,60.6399838160723,5.35486089996994,bus,342,Myking butikk,Ostereidet skule,Høyland kryss,-PT10S
3350361487,60.5903546512127,5.39163934998214,bus,340,Knarvik terminal C,Ostereidet,Fyllingsnes sentrum,PT5M12S
3350361505,60.3886787686497,5.33325050957501,bus,310,Hjertås nord,Bergen busstasjon,Bergen busstasjon J,-PT4M7S
3350361506,60.5464168824255,5.28623607940972,bus,310,Rossland,Knarvik terminal,Knarvik terminal B,-PT1M10S
3350447611,60.380206508562,5.26784165762365,bus,3,Vadmyra,Støbotn,Lyngbø rv. 555 B,PT2M18S
3350387055,60.3197999764234,5.35236996598542,bus,29,Arna terminal B,Nesttun terminal,Nesttun terminal D,-PT1M27S
3350447613,60.4646491538733,5.31007002107799,bus,3,Støbotn,Vadmyra,Åsane brannstasjon,-PT21S
3350361508,60.519059272483,5.2764886803925,bus,310,Bergen busstasjon J,skyss.no,Knarvik garasje,-PT3M29S
3350447605,60.4698289185762,5.33682631328702,bus,4,Flaktveit snuplass,Hesjaholtet,Gullgruven,PT58S
3350135715,60.013875765726,5.51310268230736,bus,654,Våge kai,Gjermundshamn,Våge kai,-PT1H22M6S
3350447617,60.4863774776459,5.25920670479536,bus,3,Vadmyra,Støbotn,Slettestølen,PT34S
3350447607,60.4675206262618,5.32759649679065,bus,4,Hesjaholtet,Flaktveit,Salhuskrysset,PT10M45S
3350135717,60.0606316979975,5.91964837163687,bus,654,Ølve Dalsjøen,Gjermundshamn,Gjermundshamn kai,PT1M40S
3350135726,60.3783106058836,6.64425367489457,bus,980,Hauso skule,Jondal,Grimo,PT1M5S
3350135724,60.2787233702838,6.2509997561574,bus,980,Samland,Jondal,Jondal kai,PT3M21S
3350135709,60.013783313334,5.51342831924558,bus,654,Uggdal skule,skyss.no,Garasje Uggdal,PT2M3S
3350447729,60.5255332868546,5.4984447453171,bus,905,Myking,Lonevåg,Lonevåg terminal,-PT4M35S
3350447603,60.4344063252211,5.31397883780301,bus,3,Støbotn,Vadmyra,Handelshøyskolen,PT37S
3350132664,60.0427466444671,5.52293373271823,bus,655,Neshamn snuplass,Våge,Våge kai,-PT4M11S
3350447602,60.4827490355819,5.38440375588834,bus,3,Vadmyra,skyss.no,Garasje Haukås,PT18M23S
3350447605,60.4828315973282,5.38429956883192,bus,3,Vadmyra,skyss.no,Garasje Haukås,PT18M31S
3350447730,60.5066160857677,5.48196466639638,bus,903,Valestrand kai,Hatland skulesenter,Hauge terminal,-PT47S
3350447720,60.526308696717,5.49326221458614,bus,904,Lonevåg terminal,skyss.no,Hatland skulesenter,PT30M28S
3350447733,60.5062641296536,5.43340796604753,bus,903,Lonevåg terminal,Valestrand,Valestrand skule,PT3M12S
3350447608,60.3622394800186,5.22869875654578,bus,3,Vadmyra,Støbotn,Vestre Vadmyra,PT1M
3350447734,60.5254302732646,5.4981891810894,bus,903,Valestrand kai,Lonevåg,Lonevåg terminal,PT2M50S
3350135715,60.0138408970088,5.51322882995009,bus,653,Tysnes skule,skyss.no,Garasje Uggdal,-PT44S
3350447726,60.5267957691103,5.45834085904062,bus,904,Lonevåg terminal,Raknes,Skår,PT52S
3350447737,60.5051853787154,5.42798655107617,bus,903,Valestrand kai,Valestrand,Valestrand kai,-PT18S
3350453010,60.3830383345485,5.35813981667161,bus,6,Lyngbø D,Birkelundstoppen,Statsarkivet,PT5M1S
3350447558,60.4709502495825,5.32718829810619,bus,36,Klauvaneset Tellevikv.,Bergen busstasjon,Salhuskrysset,PT6M16S
3350447739,60.5288151372224,5.41349583305418,bus,903,Valestrand kai,Valestrand,Tveitaskaret,PT3M20S
3350447549,60.5236523039639,5.30114480294287,bus,37,Åsane terminal F,skyss.no,Hordvikneset,PT3M55S
3350447542,60.4634134937078,5.32099658623338,bus,37,Breistein snuplass,Åsane terminal,Åsane terminal F,PT34S
3350361451,60.5556227266788,5.26918016374111,bus,341,Knarvik vgs.,skyss.no,Frekhaug terminal,PT12S
3440189688,60.9320334624499,5.13523148372769,bus,361,Brandanger,Dalsøyra,Dalsøyra,PT4M5S
3350324182,59.8675466794521,5.33082420006394,bus,680,Fitjar terminal B,Koløyholmen,Sjoarreiset,PT1M24S
3350387070,60.2615999802947,5.30383002944291,bus,65,Lagunen terminal I,skyss.no,Hordnes snuplass,PT10M41S
3350453502,60.3606882411987,5.3507823497057,bus,49,Bønestoppen,Langhaugen Vgs,Wergeland D,PT4M18S
3350135730,60.2795268595219,6.25036491081119,bus,981,Ytre Årsand,Jondal,Jondal skule,-PT4M7S
3350135720,60.2308982424438,5.72239134460688,bus,740,Venjaneset kai,Eikelandsosen,Austestad,-PT3M32S
3350377438,60.3885999787599,5.332269994542,bus,460E,Ågotnes terminal A,Bergen busstasjon,Bergen busstasjon U,-PT10M41S
3350453505,60.3579081315547,5.11213908903301,bus,49,Bjorøy skule,Bildøy skulesenter,Bildøy skulesenter,PT42S
3440189690,61.3660677708685,5.55590705014765,bus,210,Førde rutebilstasjon,Dale,Nistadlia,PT58S
3350447659,60.4588483739644,5.31914443708956,bus,4E,Bergen busstasjon Q,skyss.no,Støbotn,PT4M47S
3350453180,60.360675919801,5.35078964196146,bus,82,Grønnestølen,Wergeland,Wergeland C,PT2M33S
3350135750,59.9141300283372,5.58576498180628,bus,651,Våge kai,Hodnanes,Skjeljavik,-PT31S
3350135751,60.0565699115396,6.54541946947575,bus,760,Rosendal kai,Odda,Odda US/VGS,PT11M4S
3350361506,60.5454872455448,5.28192568570375,bus,300E,Knarvik terminal A,skyss.no,Knarvik garasje,-PT5M20S
3350453514,60.3426057938486,5.36069168709219,bus,49,Fantoft,skyss.no,Garasje Mannsverk,PT2M47S
3350447651,60.4162488598377,5.31713663600385,bus,4E,Flaktveit snuplass,Sentrum ekspress,Bradbenken,-PT1M49S
3350361501,60.3885532077402,5.33304439857602,bus,300E,Knarvik terminal A,Bergen busstasjon,Bergen busstasjon J,-PT4M37S
257055860,60.14489833333334,5.426985,ferry,1018,Sandvikvåg,Halhjem,Halhjem,PT0S
3350387032,60.2916999813169,5.28428996913135,bus,22,Lagunen terminal I,skyss.no,Sandslihaugen,-PT3M22S
3350361503,60.4338315781206,5.31314810737967,bus,300E,Knarvik terminal A,Bergen busstasjon,Bergen busstasjon J,-PT4M23S
3350135711,60.196578707546,5.79511944204569,bus,740,Eikelandsosen terminal,skyss.no,Sævareid nord,-PT2M23S
3350135717,60.2100166585296,5.56666664779186,bus,740,Gjermundshamn kai,Osøyro,Hatvik mot Bergen,PT4M44S
3350135756,59.9225509073585,6.00147418677807,bus,760,Åsvegen kryss,Malmanger skule,Landakrysset,PT37S
3350453404,60.3387548122555,5.32258135266602,bus,40E,Bergen busstasjon Q,skyss.no,Bergveien,PT17M5S
3350377427,60.3688999917358,5.22197999060154,bus,460E,Ågotnes terminal A,Bergen busstasjon,Frieda Fasmer rv. 555,-PT4M24S
3350453119,60.3619903698564,5.23473339155316,bus,41,Hetlevikåsen snuplass,Loddefjord terminal,Loddefjord terminal B,-PT6S
3350377422,60.3883999865502,5.33227996900678,bus,460E,Ågotnes terminal A,Bergen busstasjon,Bergen busstasjon U,-PT26M18S
3350361502,60.5191582627594,5.24002379737794,bus,310,Flatøy terminal  B,Frekhaug-Skjelanger,Frekhaug terminal,PT1M18S
3350447648,60.3445907123387,5.26071142405272,bus,4E,Bergen busstasjon Q,skyss.no,Hesjaholtet,-PT17S
3350361500,60.3885354381055,5.33330591395497,bus,310,Skjelanger kai,Bergen busstasjon,Bergen busstasjon J,-PT45S
3350377406,60.4074000008404,5.22677997127175,bus,408,Hanevik,Kleppestø terminal,Kleppestø terminal E,PT1M13S
3350377415,60.4588000103831,5.15179999172688,bus,407,Kleppestø terminal E,skyss.no,Ravnanger terminal A,PT1M19S
3350377414,60.413200026378,5.23450003936887,bus,407,Haugland verkstedet,Kleppestø terminal,Solhola,-PT1M52S
3350135750,60.0461033452302,5.52349003963172,bus,654,Uggdal,skyss.no,Våge kai,PT27M24S
3350377348,60.4595999792218,5.15212001278996,bus,414,Herdla snuplass,Ravnanger terminal,Ravnanger terminal B,PT1M15S
3350377347,60.4906000290066,5.14060000889003,bus,414,Herdla snuplass,Ravnanger terminal,Heiavatnet,-PT54S
3350377417,60.3724000230432,5.25190003216267,bus,407,Bergen busstasjon Q,skyss.no,GARASJE Haugland,PT12M15S
3350387083,60.1906999759376,5.34825000911951,bus,62,Lagunen terminal E,Drange,Eidsvik snuplass,-PT5S
3350387061,60.2964999619871,5.32672997564077,bus,64,Lagunen terminal F,Hordnes,"Rådal, Fanavegen",PT25S
3350135617,60.0568201951683,6.54546339064837,bus,995,Odda US/VGS,skyss.no,Garasje Odda,-PT9S
3440189679,61.4524037204683,5.85350459441543,bus,210,Førde rutebilstasjon,Dale,Halbrend,-PT4M
3440189672,61.25443758443,5.39317927323282,bus,210,Rysjedalsvika kai,Dale,Loneland,PT1M11S
3350377412,60.3887999709696,5.3341799788177,bus,407,Steinrusten,Bergen busstasjon,Bergen busstasjon Q,PT1M44S
3350324130,59.8653639480472,5.34943152219057,bus,680,Fitjar terminal B,Rydland,Rydland,PT8S
3350387070,60.296599958092,5.32698000781238,bus,64,Hordnes snuplass,Lagunen terminal,Lagunen terminal I,PT10M33S
3350135757,59.8345758765936,5.72004935704172,bus,762,Husnes sentrum nord,Ringbuss Husnes,Slettestølsvegen kryss,PT2M1S
3350135748,60.0138533022255,5.51333502866328,bus,654,Tysnes skule,skyss.no,Garasje Uggdal,PT35S
3350387120,60.2996000088751,5.32838003709912,bus,610,Nesttun terminal D,skyss.no,Lagunen terminal F,PT4M
3440189676,61.1368276644498,5.34687143750489,bus,221,Sørbøvåg,Leirvik,Leirvik,-PT5M4S
3350387127,60.1988999918103,5.45828000642359,bus,610,Osøyro terminal A,Nesttun terminal,Flåten,PT10S
3350377447,60.3870000410825,5.33291003666818,bus,460E,Bergen busstasjon U,skyss.no,Anglavika snuplass,-PT9M53S
3350387124,60.3098000306636,5.36141001619399,bus,610,Nesttun terminal C,Osøyro,Bjørkåsen,PT1M9S
3350387125,60.3865999728441,5.33492999151349,bus,610,Nesttun terminal D,skyss.no,Bergen busstasjon L,PT25S
3350324142,59.9459576234221,5.40431982837617,bus,680,Eide,Fitjar,Engevik aust,PT7S
3440189681,61.3713056221604,5.47365208156407,bus,210,Dale,Sande,Strand fv. 57,PT11S
3350387128,60.2450000401586,5.44098000973463,bus,610,Osøyro terminal A,Nesttun terminal,Tømmernes,PT37S
3350377413,60.4074000008404,5.22680000402033,bus,408,Hanevik,Kleppestø terminal,Kleppestø terminal E,-PT1M41S
3350377385,60.2057999745011,5.04107999615371,bus,459,Skogsskiftet terminal B,Tælavåg Glesvær,Slettebergsmauet,PT52S
3350377368,60.2880000416189,5.03572002053261,bus,458,Skogsskiftet terminal F,skyss.no,Kallestad snuplass,PT4M29S
3350377354,60.4540000297129,5.13355996459723,bus,411,Ramsøy snuplass,Ravnanger terminal,Tveitevågskiftet,PT1M9S
3350377334,60.522399963811,5.09449996054173,bus,413,Heggernes snuplass,Ravnanger terminal,Heggernes,PT12S
3350377457,60.3908999729902,5.12425001710653,bus,449,Bildøy skulesenter,skyss.no,Våge snuplass,PT35S
3350447622,60.3845428861678,5.33584554679692,bus,4E,Bergen busstasjon Q,skyss.no,Garasje Haukås,PT2M27S
3350377331,60.459499983117,5.15196000225842,bus,413,Berland snuplass,Ravnanger terminal,Ravnanger terminal B,-PT28S
3350377338,60.4436000157148,5.16423001885414,bus,413,Fauskanger skule,skyss.no,Haugland verkstedet,PT3M29S
3350377348,60.4595999792218,5.15235001221299,bus,412,Breivik snuplass,Ravnanger terminal,Ravnanger terminal B,PT1M28S
3350135763,60.2320650033653,5.71761500090361,bus,740,Venjaneset kai,Eikelandsosen,Austestad,PT2S
3350377347,60.4617999773473,5.1102000195533,bus,412,Ravnanger terminal B,skyss.no,Kollevågshøyden,-PT7M3S
3350447621,60.3949263878167,5.32562817446887,bus,4E,Flaktveit snuplass,Sentrum ekspress,Olav Kyrres gate G,PT2M54S
3350377337,60.4618999734521,5.11036003008485,bus,413,Ravnanger terminal B,skyss.no,Kollevågshøyden,-PT45M29S
3350135711,60.1463829260319,5.74596955440938,bus,745,Baldersheim kryss skule,skyss.no,Garasje Eikelandsosen,-PT3M53S
3350135708,60.4013566486537,5.73196004144847,bus,940,Solbjørg snuplass,Tysse,Bjørkheim senter,-PT4M12S
3350388362,60.3883999865502,5.33331002108753,bus,460E,Ågotnes terminal A,Bergen busstasjon,Bergen busstasjon U,-PT25M8S
3350387112,60.3093999624252,5.36207000724971,bus,610,Osøyro terminal A,Nesttun terminal,Elveneskrysset,PT1M33S
3350387110,60.3865999728441,5.33486000262201,bus,610,Nesttun terminal D,skyss.no,Bergen busstasjon L,PT2M3S
3350447559,60.4553319979459,5.31826324760914,bus,19,Løvstakkskiftet,Åsane terminal,Stamskaret,PT9M7S
3440189696,61.4524493180215,5.85441160015762,bus,250,Florø terminal,Førde sentralsjukehus,Førde rutebilstasjon,-PT2M19S
3350453142,60.3563814517111,5.3683324623853,bus,81,Mannsverk garasje,skyss.no,Wiers-Jenssens vei,PT4M37S
3350447557,60.4827249795198,5.38442010059953,bus,19,Åsane terminal F,skyss.no,Garasje Haukås,PT3S
3350377450,60.4053999949247,4.99755998142064,bus,449,Tranevågen ungdomsskule,skyss.no,Ågotnes terminal A,PT4M33S
3350447554,60.4295271355659,5.29049618169665,bus,19,Åsane terminal E,Løvstakkskiftet,Eikeviken,PT1M27S
3350377362,60.2351000066847,5.04393998533487,bus,458,Golta snuplass,Sund US,Spildepollen skule,-PT56S
3350447552,60.409291125834,5.32250951975584,bus,19,Åsane terminal E,Løvstakkskiftet,Sandvikstorget,PT5M45S
3350377361,60.2840000297874,5.03513999283314,bus,458,Skogsskiftet terminal F,skyss.no,Kallestad snuplass,-PT1M2S
3350447591,60.3947382140905,5.32548920251429,bus,39,Viddalen,Bergen busstasjon,Olav Kyrres gate H,PT8M35S
3350377405,60.3817999921739,5.27220997028053,bus,407,Steinrusten,Bergen busstasjon,Møhlenpris,PT7M32S
3350377404,60.4077999852598,5.22657000459731,bus,407,Kleppestø terminal E,Haugland,Kleppestø senter,-PT6M54S
3350377387,60.1751999929547,5.04455999471247,bus,457,Sæle snuplass,Sund US,Viksøy kryss,PT1M57S
3350377367,60.1846999581903,5.10788996703923,bus,459,Skogsskiftet terminal F,skyss.no,Forland kai,-PT1M27S
3350377402,60.4024000279605,5.21044003777206,bus,407,Steinrusten,Bergen busstasjon,"Brøstaneset, Askøybrua",PT1M46S
3350135775,59.8512743040919,5.70766945369542,bus,762,Reset,Skulerute,Røyrvik,PT1M42S
3350377407,60.4522000160068,5.10298999026418,bus,407,Haugland verkstedet,skyss.no,Kollevåg,PT6M47S
3350135720,60.2058028243482,5.59320744127035,bus,743,Ådnavik snuplass,Venjaneset,Venjaneset kai,-PT50S
3350377406,60.4614999890327,5.10859002359211,bus,407,Haugland verkstedet,skyss.no,Kollevågshøyden,PT1M3S
3350387104,60.2795000374317,5.40743001736701,bus,610,Nesttun terminal C,Osøyro,Kaland,PT2M9S
3350447548,60.4056382924318,5.32370184548199,bus,19,Løvstakkskiftet,Åsane terminal,Sandvikstorget,PT3M48S
3350447549,60.4828143306077,5.38432530127466,bus,19,Åsane terminal F,skyss.no,Garasje Haukås,-PT2M6S
3350377361,60.245400024578,5.06418001838028,bus,459,Telavåg snuplass,Sund US,Eidesjøen,-PT1M46S
3350387109,60.3197999764234,5.35239997319877,bus,610,Osøyro terminal A,Nesttun terminal,Nesttun terminal D,PT3M51S
3350447586,60.4555538669229,5.29498150572181,bus,39,Viddalen,Bergen busstasjon,Haukedalsvegen,PT3M9S
3350447544,60.4381524492055,5.30726929195225,bus,19,Åsane terminal E,Løvstakkskiftet,Hagebyen,PT1M9S
3350447545,60.3821757528931,5.31589929945767,bus,19,Løvstakkskiftet,Åsane terminal,Møhlenpris,PT4M27S
3440189674,61.4874451048672,5.51495952531695,bus,240,Stavang,Naustdal-Førde,Helle kryss,PT36S
3350377331,60.4912000056356,5.14023003168404,bus,414,Ravnanger terminal B,skyss.no,Åsebø,PT14M54S
3350447585,60.3986868448555,5.31973586417735,bus,39,Bergen busstasjon U,Tertnes,Bontelabo,PT4M54S
3350377363,60.3528000321239,5.10831995867193,bus,459,Telavåg snuplass,Bildøy skulesenter,Bildøy skulesenter,-PT16M42S
3350447540,60.4828156717122,5.38431398570538,bus,19,Åsane terminal F,skyss.no,Garasje Haukås,-PT1M55S
3350447583,60.4596463311464,5.2791341766715,bus,39,Bergen busstasjon U,Tertnes,Nesmyr,PT13M45S
3350377376,60.2674000058323,5.10640997439623,bus,455,Skaganeset snuplass,Sund US,Skogsvåg kai,PT7S
3350377436,60.3671999741346,5.15057003125548,bus,449,Knarrevik rv. 555,Brathholmen skule,Valen Tona,PT24S
3350377433,60.3850000351667,5.11867999099195,bus,449,Anglavika snuplass,Bildøy skulesenter,Vågo kryss,PT6M11S
3350135766,60.0569106359035,6.54546783305705,bus,984,Odda busstasjon,Odda,Odda US/VGS,PT2M16S
3350135765,60.070702303201,6.54730212874711,bus,984,Odda busstasjon,Odda,Odda busstasjon,-PT2M26S
3350387043,60.2978999912739,5.32826000824571,bus,22,Fyllingsdalen terminal D,Lagunen terminal,Lagunen terminal I,-PT5M12S
3350377337,60.4912000056356,5.14023003168404,bus,411,Ravnanger terminal B,skyss.no,Åsebø,PT45S
3350387046,60.2978999912739,5.32826998271048,bus,22,Fyllingsdalen terminal D,Lagunen terminal,Lagunen terminal I,-PT4M12S
3350387048,60.3283999767154,5.27268002741039,bus,22,Lagunen terminal J,Fyllingsdalen terminal,Sandeide terminal A,PT3M39S
3350377333,60.4655999969691,5.08154002949595,bus,412,Breivik snuplass,Ravnanger US,Breivik,PT1M10S
3350377331,60.4595999792218,5.15215999446809,bus,412,Breivik snuplass,Ravnanger terminal,Ravnanger terminal B,-PT15S
3350377385,60.2696000039577,5.07360999472439,bus,455,Sund ungdomsskule,Skogsskiftet,Skogsskiftet terminal F,-PT1M3S
3350447634,60.3647501114756,5.22528363391757,bus,4E,Bergen busstasjon Q,skyss.no,Vadmyra,-PT3M37S
3350377347,60.459499983117,5.15192999504507,bus,411,Ramsøy snuplass,Ravnanger terminal,Ravnanger terminal B,-PT57S
3350377456,60.4358999803662,5.1815300155431,bus,400,Haugland verkstedet,Kleppestø terminal,Juvikflaten nord,PT32S
3350377368,60.2780000120401,5.11444000527263,bus,457,Skogsskiftet terminal F,skyss.no,Haganes snuplass,-PT1M41S
3350135698,60.3399388398975,6.65555918589234,bus,990,Odda busstasjon,Voss,Ulvasand,PT8M43S
3350387054,60.337299965322,5.27112996205688,bus,22,Fyllingsdalen terminal D,Lagunen terminal,Vardeveien,PT57S
3350135697,60.0558921508491,6.54556673951447,bus,990,Kinsarvik kai,Odda - Odda vgs,Odda US/VGS,PT58S
3350387052,60.3106999956071,5.292540024966,bus,22,Lagunen terminal J,Fyllingsdalen terminal,Søvikgeilen,-PT30S
3350134008,59.779595034197,5.86346497759223,bus,760,Seldal,Husnes,Skarveland skule,PT2M55S
3350453129,60.3606810327619,5.35078980959952,bus,82,Grønnestølen,Wergeland,Wergeland C,PT6M5S
3350387059,60.2968000341207,5.32721000723541,bus,22,Fyllingsdalen terminal D,Lagunen terminal,Lagunen terminal I,-PT1M42S
3350453128,60.3605853114277,5.35081344656646,bus,82,Grønnestølen,Wergeland,Wergeland C,PT46S
3440189678,61.7981369420886,5.36404302343726,bus,260,Davik,Svelgen-Florø,Svelgen,-PT11S
3350453134,60.3476035874337,5.36629364825785,bus,81,Mannsverk,Mannsverk,Nedre Nattlandsfjellet,-PT11S
3350377360,60.2694000117481,5.07347001694143,bus,457,Sæle snuplass,Skogsskiftet,Skogsskiftet terminal F,-PT46S
3350377420,60.3947999887168,5.21571996621788,bus,400,Ravnanger terminal A,Bergen busstasjon,"Brøstaneset, Askøybrua",PT6M48S
3350377454,60.3896000236273,5.32642998732626,bus,445,Bergen busstasjon G,Anglevik,Møhlenpris,PT9S
3350377363,60.3612000402063,5.12828003615141,bus,454,Skogsskiftet terminal D,Sund US,Skogsskiftet terminal D,-PT5H39M11S
3350377452,60.3880000021309,5.33256998285651,bus,445,Bergen busstasjon G,Anglevik,Bergen busstasjon G,-PT17M43S
3350377424,60.388499982655,5.33476998098195,bus,400,Bergen busstasjon F,Ravnanger terminal,Lars Hilles gate K,-PT1M16S
3350377413,60.4584000259638,5.10509996674955,bus,401,Kleppestø terminal B,skyss.no,"Kollevåg, Friluften",-PT5M15S
3350377457,60.3910999651998,5.12411003932357,bus,445,Våge snuplass,Bergen busstasjon,Vågo,-PT55S
3350377421,60.442799963057,5.1696200016886,bus,400,Bergen busstasjon F,Ravnanger terminal,"Berget, Ravnangervegen",-PT1M7S
3350377417,60.4074999969453,5.22683998569846,bus,401,Marikoven snuplass,Kleppestø terminal,Kleppestø terminal B,-PT1M20S
3350387010,60.2924000378698,5.26703003793955,bus,99,Grimstad snuplass,Skolerute,Blomsterdalen,PT17S
3350447549,60.5004092026502,5.36246546544135,bus,96,Hordvikneset,Myrsæter,Almåsvegen,PT2M20S
3350377405,60.4077999852598,5.22696998901665,bus,402,Kleppestø US,skyss.no,Kleppestø terminal E,-PT1M23S
3350387012,60.2877999655902,5.26153997518122,bus,75,Nesttun terminal D,skyss.no,Birkelandsskiftet C,-PT5M33S
3350447546,60.4873248003423,5.25967332534492,bus,96,Marikollen,skyss.no,Breistein snuplass,PT5M58S
3350387055,60.2952000126243,5.38147998042405,bus,71,Nesttun terminal D,skyss.no,Valle,PT36S
3350447543,60.4873613454401,5.26123940013349,bus,96,Marikollen,skyss.no,Åsane terminal D,PT5M54S
3350387035,60.2581000328064,5.24104999378324,bus,73,Nesttun terminal D,skyss.no,Hjellestad snuplass,-PT3M10S
3350447544,60.463226409629,5.32099231146276,bus,96,Breistein snuplass,Åsane terminal,Åsane terminal F,PT49S
3350387018,60.2787999808788,5.40496003814042,bus,99,Valle,Skolerute,Kaland skole,-PT2M20S
3350447531,60.4601911548525,5.41878934018314,bus,97,Garnesstølen,skyss.no,Garasje Haukås,-PT38S
3350387015,60.2852999791503,5.38353002630174,bus,99,Kaland skole,skyss.no,GARASJE Fana Bussdepot,-PT2M52S
3350387016,60.2968000341207,5.32757000997663,bus,99,Dolvik terminal B,Skolerute,Lagunen terminal K,PT1M17S
3350447532,60.4204738419503,5.46498167328537,bus,97,Garnesstølen,skyss.no,Arna terminal A,PT29S
3350387017,60.2882000338286,5.26293003000319,bus,51,Dolvik terminal B,Birkelandsskiftet,Birkelandsskiftet C,PT55S
3350387058,60.3149999957532,5.37601003423333,bus,71,Riple snuplass,Nesttun terminal,Ulsmågåsen,PT3S
3350377365,60.2697000000626,5.07383001968265,bus,455,Skogsskiftet terminal F,skyss.no,Kallestad snuplass,PT32M44S
3350135763,60.2056766767055,5.59276169165969,bus,743,Vinnes butikk,Venjaneset,Venjaneset kai,-PT1M57S
3350377364,60.2646000310779,5.09112004190683,bus,455,Skogsskiftet terminal F,Forland,Skogsvåg,PT1M4S
3350377431,60.3714999742806,5.21498001180589,bus,424,Ramsvik snuplass,Storavatnet term.,Storavatnet terminal B,-PT2M28S
3350135766,60.07000987418,6.5466633439064,bus,985,Eitrheim,Odda,Odda busstasjon,-PT1M35S
3350377368,60.2625000290573,5.09317997843027,bus,455,Slettafjellet,Sund US,Skogsvåg,PT1S
3350135765,60.0746153946966,6.55425642617047,bus,985,Eitrheim,skyss.no,Freim snuplass,PT1M39S
3350377367,60.2992000244558,5.08562000468373,bus,455,Forland kai,Straume terminal,Brubrekko,PT33S
3350453113,60.3909242805094,5.32368617132306,bus,13,Festplassen M,skyss.no,Olav Kyrres gate J,-PT12S
3350387020,60.3089999780059,5.2679699845612,bus,99,Søreide,skyss.no,GARASJE Fana Bussdepot,PT41S
3350135749,60.2337832935154,5.83777997642756,bus,745,Sundfjord kryss,Eikelandsosen,Holdhus,-PT1M4S
3350387072,60.3162000328302,5.35550999455154,bus,70,Nesttun terminal C,Nesttun terminal,Nesttun terminal D,PT28S
3350447526,60.4225430823863,5.45982060022652,bus,97,Garnesstølen,skyss.no,Garasje Haukås,PT7M16S
3350387010,60.3165000211447,5.22282002493739,bus,52,Lagunen terminal F,Grimstad,Grimstad snuplass,PT1M17S
3350387024,60.2721999865025,5.22273000329733,bus,99,Espeland kai,Skolerute,Wiikskiftet,-PT1M17S
3350387020,60.3167000133544,5.22319000214338,bus,51,Bergen busstasjon M,skyss.no,Grimstad snuplass,PT2M44S
3350387023,60.3169000055641,5.34270001575351,bus,75,Skiparvik snuplass,Nesttun terminal,Nesttun myr,PT21S
3350387025,60.2981999795884,5.3285800293088,bus,99,Lagunen terminal F,Skolerute,"Rådal, Fanavegen",-PT4M1S
3350387047,60.2763999905437,5.41685001924634,bus,73,Lund snuplass,Kaland,Smådalen,-PT1M56S
3350447553,60.3617521561682,5.45407497324049,bus,94,Espeland Moldalia,Espeland,Haukeland,-PT34S
3350447533,60.4874620959163,5.25977533310652,bus,96,Marikollen,skyss.no,Åsane terminal C,PT5M44S
3350387035,60.3385999985039,5.50331002101302,bus,74,Kalandseidet,skyss.no,Lund snuplass,PT47S
3350387023,60.3166000172496,5.33736996352673,bus,51,Bergen busstasjon M,skyss.no,Skiparvik snuplass,PT4M54S
3350387027,60.2617999725044,5.34382000565529,bus,51,Bergen busstasjon M,skyss.no,GARASJE Fana Bussdepot,-PT6M39S
3350453117,60.3860933706164,5.31937452033162,bus,13,Festplassen N,Sentrum,Festplassen M,PT1M21S
3350377361,60.2550999820232,4.97743997722864,bus,452,Skogsskiftet terminal G,skyss.no,Telavåg snuplass,-PT8M1S
3350377365,60.2599999587983,5.09701997973025,bus,452,Sotra vgs. Sund,skyss.no,Skogsvåg,PT1M12S
3350377376,60.2673000097275,5.10670996271074,bus,475,Sotra vgs. Sund,skyss.no,Skaganeset snuplass,PT27S
3350377434,60.3624999895692,5.12028001248837,bus,445,Våge snuplass,Bergen busstasjon,Straume terminal A,PT1M7S
3350377441,60.2094000019133,5.04018003121018,bus,420,Glesvær snuplass,Spildepollen skule,Porsvika kryss,PT26S
3350135736,60.0546983163804,6.54656393453479,bus,725,Liamyrane snuplass,Odda,Hovden,PT1M
3350377433,60.389800015837,5.11218996718526,bus,445,Bergen busstasjon G,Anglevik,Anglavika snuplass,PT4M48S
3350377404,60.4077999852598,5.22697996348143,bus,400,Bergen busstasjon Q,skyss.no,Kleppestø terminal E,-PT6M33S
3350377368,60.2627000212669,5.09185002185404,bus,452,Sotra vgs. Sund,skyss.no,Slettafjellet,-PT4M20S
3350377438,60.3653999604285,5.13745000585914,bus,445,Bergen busstasjon G,Anglevik,Straume terminal B,PT54S
3350377437,60.3688999917358,5.22394998930395,bus,445,Våge snuplass,Bergen busstasjon,Frieda Fasmer rv. 555,-PT5M47S
3350387030,60.3197999764234,5.35242998041213,bus,71,Riple snuplass,Nesttun terminal,Nesttun terminal D,PT2M2S
3350447553,60.448146443814,5.44672211632133,bus,97,Garnesstølen,skyss.no,Garasje Haukås,-PT3S
3350387018,60.2796000335366,5.40691997855902,bus,73,Kaland skole,Bontveit,Kaland skole,-PT44M18S
3350387015,60.2678999863565,5.43041001074016,bus,73,Kaland skole (rundkjøring),skyss.no,Kalandseidet,PT11M23S
3350387006,60.2697999961674,5.37090998142958,bus,74,Sandven,skyss.no,Vågsbro,-PT4M7S
3350453114,60.3860715776682,5.31920042820275,bus,10,Wergeland C,Mulen,Festplassen N,PT4M9S
3350135760,60.6586949899793,6.43045999109745,bus,964,Voss stasjon F,Skjerpe,Skulestadhagane,PT1M13S
3350377373,60.2632000017911,5.09008998982608,bus,452,Haganes snuplass,Sund US,Hammarslandsdalen,PT1M8S
3350377412,60.3913000412285,5.21879998035729,bus,400,Bergen busstasjon F,Ravnanger terminal,Storeklubben,PT2M7S
3350453113,60.3503075893968,5.28809593990445,bus,11,Tollbodallm. i Strandgt,skyss.no,Fyllingsdalen terminal E,-PT15S
3350377446,60.3887999709696,5.33420998603106,bus,445,Anglavika snuplass,Bergen busstasjon,Bergen busstasjon Q,-PT5M3S
3350377411,60.420000012964,5.21468999795616,bus,400,Ravnanger terminal A,Bergen busstasjon,Florvågskiftet,PT5S
3350377410,60.3893000353128,5.32353001646698,bus,400,Ravnanger terminal A,Bergen busstasjon,Festplassen M,PT11M45S
3350453101,60.3720914013684,5.21275931037962,bus,12,Mannsverk garasje,skyss.no,Storavatnet terminal B,-PT48S
3350377416,60.4443999845535,5.16259999014437,bus,400,GARASJE Haugland,skyss.no,Ravnanger terminal A,PT5M1S
3350377449,60.3887999709696,5.33419003710151,bus,445,Våge snuplass,Bergen busstasjon,Bergen busstasjon Q,-PT11M31S
3350387050,60.3198999725282,5.35229000262916,bus,70,Sørlien,Øvsttun-Nesttun terminal,Nesttun terminal D,-PT1M40S
3350377419,60.459499983117,5.15193996950984,bus,400,Bergen busstasjon F,Ravnanger terminal,Ravnanger terminal A,-PT1M21S
3350377418,60.4071000125259,5.22660001181066,bus,400,Ravnanger terminal A,Kleppestø terminal,Kleppestø terminal D,-PT9S
3350387006,60.2796000335366,5.40527997538447,bus,99,Vågsbro,Skolerute,Kaland skole (rundkjøring),-PT2M10S
3350387015,60.300299981609,5.37674998864532,bus,74,Nesttun terminal D,skyss.no,Kirkebirkeland,PT2M40S
3350387210,60.0809999741614,5.2488399669528,bus,532,Austevoll vgs.,skyss.no,Austevoll us.,PT2M6S
3350387004,60.1944999955595,5.48399996012449,bus,99,Heggland nord,Borgafjellet skule,Hauge,-PT1S
3350387005,60.2466999739408,5.45995999127626,bus,99,Gåssand,Skolerute,Søfteland,-PT22S
3350387058,60.3153999801725,5.44226998463273,bus,70,Nesttun terminal D,skyss.no,Riple snuplass,-PT55S
3350135770,60.2831754181534,5.65730930306017,bus,744,Eikelandsosen ungdomsskule,Åse,Eikelandsosen ungdomsskule,-PT6H10M48S
3350453128,60.3630339168012,5.34123133867979,bus,10,Mindeveien snuplass,Mulen,Løbergsveien sør,-PT3M17S
3350453129,60.3769883606583,5.3244146425277,bus,10,Mulen,Wergeland,Skoglien,PT4M8S
3350377312,60.5896000284702,4.83906003646553,bus,479,Ågotnes terminal B,skyss.no,Tjeldstø terminal,-PT18S
3350135543,60.6291016750038,6.38847998343408,bus,964,Voss stasjon F,Voss stasjon,Raugstadvegen,-PT2S
3350453422,60.3722788207233,5.21333472803235,bus,49,Storavatnet terminal A,Olsvikåsen VGS,Godviksvingane,PT49S
3350377310,60.3599000070244,5.12320999056101,bus,479,Blomvåg terminal,Straume terminal,Straume terminal C,PT3S
3350453420,60.3618344664574,5.23495157249272,bus,49,Alvøen kai,Loddefjord terminal,Loddefjord terminal B,-PT1M56S
3350377316,60.502699976787,4.9194800388068,bus,479,Hellesøy kai,Øygarden US,Raudhammaren,PT1M57S
3350387042,60.2494000364095,5.44123004190624,bus,76,Nesttun terminal D,skyss.no,Tømmernes,-PT32S
3350377318,60.6611000094563,4.80151003226638,bus,479,Hellesøy kai,Ågotnes terminal,Kalfaret,PT1M30S
3350135739,60.6356067024171,6.45234497264028,bus,945,Hjeltnes snuplass,Voss,Voss stasjon E,-PT1M4S
3350447526,60.3617164492607,5.45405209064484,bus,94,Espeland Moldalia,Espeland,Haukeland,-PT59S
3350324181,59.5490928646177,5.43027455918491,bus,633,Eilerås,Sveio,Liavegen,PT1M40S
3350387053,60.3759999666363,5.33913997001946,bus,51,Birkelandsskiftet D,Bergen busstasjon,Bergen busstasjon M,PT7M27S
3350387057,60.2968000341207,5.32712996006012,bus,99,Søreide,Lagunen terminal,Lagunen terminal K,-PT57S
3350387044,60.2917999774218,5.31364004127681,bus,52,Grimstad snuplass,Lagunen terminal,"Rådal, Flyplassvegen",PT6M10S
3350387055,60.2831999771297,5.40237003006041,bus,99,Kaland skole,skyss.no,GARASJE Fana Bussdepot,-PT3S
3350387057,60.3149999957532,5.27045999653637,bus,51,Bergen busstasjon M,skyss.no,Søreide,PT1M14S
3350377426,60.3712999820709,5.17988003790379,bus,450E,Skogsskiftet terminal A,Bergen busstasjon,Drotningsvik ved Janaveien,-PT5M2S
3350387047,60.3197999764234,5.35241003148258,bus,76,Smørås snuplass,Nesttun terminal,Nesttun terminal D,-PT2M22S
3350387059,60.2791999652982,5.22999996319413,bus,99,Flesland snuplass,Skolerute,Nobi,PT5S
3350387202,60.0142999738455,5.19991002045572,bus,532,Austevoll us.,skyss.no,Våge snuplass,-PT10S
3350387203,60.0804999936372,5.25994003750384,bus,532,Storebø kai,Austevoll vgs,Austevoll vgs.,PT2M50S
3350387039,60.2883000299335,5.26231999509037,bus,53,Milde snuplass,Birkelandsskiftet,Birkelandsskiftet D,PT1M19S
3350387206,60.0849999859929,5.24531001225114,bus,532,Storebø kai,skyss.no,Austevoll us.,PT4M58S
3350387207,60.0674999970943,5.18356002867222,bus,532,Husavik kai,skyss.no,Drøna snuplass,PT12M8S
3440189714,61.5992465335876,5.06339932791889,bus,253,Florø terminal,Florø lufthamn,Florø terminal,PT26S
3350377322,60.4286000132561,5.00174003653228,bus,479,Straume terminal C,skyss.no,Vindenes snuplass,PT1M27S
3350324134,59.4201071932912,5.29435018077493,bus,700,Amanda terminal,Leirvik,Amanda terminal,PT9M4S
3350387060,60.2117999922484,5.38869998417795,bus,99,Sagstad,Skolerute,Lysekloster skole,-PT2M14S
3350377425,60.365099972114,5.13646001927555,bus,445,Bergen busstasjon G,Våge,Straume terminal B,-PT43S
3350377422,60.3886999748647,5.33424996770918,bus,445,Straume terminal A,Bergen busstasjon,Bergen busstasjon Q,PT6M21S
3350387040,60.2885000221431,5.26296003721654,bus,53,Birkelandsskiftet C,Hjellestad-Milde,Blomsterdalen,PT3S
3350387041,60.2488999720663,5.26533999480307,bus,53,Lagunen terminal F,Hjellestad-Milde,Milde snuplass,-PT7S
3350387143,60.3868999611586,5.33591000363231,bus,67,Søråshøgda snuplass,Bergen busstasjon,Bergen busstasjon L,PT3M56S
3350377427,60.3887999709696,5.33423001877964,bus,445,Anglavika snuplass,Bergen busstasjon,Bergen busstasjon Q,PT38S
3350387062,60.2117999922484,5.38846001029015,bus,99,Nordvik nord,Skolerute,Lysekloster skole,-PT1M59S
3350387140,60.3068999759853,5.31717997044325,bus,67,Søråshøgda snuplass,Bergen busstasjon,Nordåsgrenda,PT11S
3350387146,60.3475999832153,5.33712001517415,bus,67,Søråshøgda snuplass,Bergen busstasjon,Fjøsanger,PT56S
3350447724,60.4204876720905,5.46509575098753,bus,97,Garnesstølen,skyss.no,Arna terminal A,-PT1M1S
3350387074,60.2917999774218,5.38085997104645,bus,74,Kaland skole (rundkjøring),skyss.no,Lagunen terminal F,PT5M59S
3350387059,60.2981999795884,5.32806999050081,bus,52,Grimstad snuplass,Lagunen terminal,Lagunen terminal I,-PT1M1S
3350387149,60.3885999787599,5.33341999165714,bus,67,Søråshøgda snuplass,Bergen busstasjon,Bergen busstasjon L,PT2M8S
3350387057,60.3020999953151,5.28643003664911,bus,52,Lagunen terminal F,Grimstad,Fanatorget,PT55S
3350387118,60.3123000171036,5.29008002020419,bus,22,Fyllingsdalen terminal D,Lagunen terminal,Søvik,PT3M3S
3350453104,60.3285946883261,5.2931790612638,bus,10,Wergeland C,skyss.no,Bønes senter,PT2M36S
3350387215,60.0573999714106,5.2505099773407,bus,530,Storebø kai,skyss.no,GARASJE Tide Buss Austevoll,PT29S
3350453109,60.3737899940461,5.33432498574257,bus,10,Wergeland C,Mulen,Blekenberg,-PT34S
3350387207,60.0937999784946,5.22347004152834,bus,531,Drøna snuplass,Storebø,Storebø kai,PT50S
3350387208,60.0335999764502,5.22617002017796,bus,531,Drøna snuplass,Bekkjarvik,Kjempefaret sør,PT2S
3350377308,60.372500019148,5.15721998177469,bus,23,Straume terminal A,Kokstad - Flyplassen,Drotningsvik,PT1M56S
3350324145,59.7888828534633,5.49752592109144,bus,700,Rommetveit snuplass,skyss.no,Garasje Stord,PT4M53S
3350135718,60.3875866904855,6.19661662727594,bus,925,Øystese,skyss.no,Kvam ungdomsskule,PT1M2S
3350453403,60.3787086624652,5.20392956212163,bus,49,Ramsvik snuplass,Olsvikåsen VGS,Leirvikneset,PT58S
3350377432,60.3887999709696,5.33424996770918,bus,441,Hjelteryggen snuplass,Bergen busstasjon,Bergen busstasjon Q,PT48S
3350377432,60.3272000234574,5.03776998259127,bus,465,Ågotnes terminal A,Straume terminal,Ulveset,PT3M45S
3350453510,60.3869268670678,5.33592190593481,bus,14,Fyllingsdalen terminal E,Bergen busstasjon,Bergen busstasjon L,PT4M53S
3350324141,59.6170540899038,5.4817461501807,bus,700,Leirvik terminal B,Haugesund,Førde kyrkje,PT28S
3350377378,60.405200002715,4.99686000868678,bus,471,Solsvik kai,Ågotnes terminal,Ågotnes terminal B,-PT1M58S
3350387032,60.3011000342667,5.27173002250493,bus,99,Sandslihaugen,Skolerute,Skranesvingen,PT2M10S
3350377376,60.4049000144005,4.99729997478426,bus,471,Aker CCB,skyss.no,Ågotnes terminal A,-PT2M56S
3350377436,60.4052999988198,4.99706997536123,bus,465,Straume terminal C,Ågotnes terminal,Ågotnes terminal B,-PT1M59S
3350135719,60.3792949765921,6.23908831737936,bus,925,Kvanndal ferjekai,Norheimsund,Langhesjane,PT1S
3350387035,60.264500034973,5.25326997041702,bus,99,Hjellestad snuplass,Skolerute,Kaptein Kaland,-PT26S
3350377429,60.386699968949,5.15067002736032,bus,442,Knarrevik rv. 555,skyss.no,Hjelteryggen snuplass,PT4M22S
3350387036,60.2662999648601,5.25512999854982,bus,99,Hjellestadskiftet,Skolerute,Ådlandsstraumen sør,PT9S
3350387012,60.2568999957293,5.26058997027576,bus,53,Milde snuplass,Birkelandsskiftet,Planteskogen,PT1M5S
3350387021,60.3021999914199,5.34693002700806,bus,76,Smørås snuplass,Nesttun terminal,Traneveien,PT1M10S
3350447514,60.4204735904932,5.46499483287334,bus,97,Garnesstølen,skyss.no,Arna terminal B,-PT1M1S
3350387034,60.2710000332445,5.27426001615822,bus,99,Stend,skyss.no,Grimseid snuplass,-PT40S
3350387037,60.2634999901056,5.25621998123825,bus,99,Hjellestadskiftet,Skolerute,Kaptein Kaland,PT8S
3350387026,60.3198999725282,5.35232998430729,bus,76,Smørås snuplass,Nesttun terminal,Nesttun terminal D,PT13S
3350387039,60.2881000377238,5.26268997229636,bus,51,Birkelandsskiftet D,Bergen busstasjon,Birkelandsskiftet D,-PT12M55S
3350387029,60.3196999803185,5.35246996209025,bus,76,Smørås snuplass,Nesttun terminal,Nesttun terminal D,-PT25S
3350453303,60.3841061890125,5.35795306786895,bus,11,Starefossen,Nordnes,Kalvedalsveien,PT4M9S
3350387204,59.9809000175446,5.18863996490836,bus,530,Grasdal snuplass,Bekkjarvik,Båtevik,-PT4M51S
3350387205,60.0071000028402,5.14785999432206,bus,530,Våge snuplass,Bekkjarvik,Rabbalio,-PT1M49S
3350453503,60.3336326312274,5.3094994649291,bus,15,Olav Kyrres gate G,Bønes,Bønes skole,-PT37S
3350453405,60.3708279971033,5.23208714090288,bus,49,Alvøen kai,Kjøkkelvik skole,Kjøkkelvik skole,-PT1M10S
3350453513,60.3292852733284,5.29506649821997,bus,14,Fyllingsdalen terminal E,Bergen busstasjon,Bønes senter,-PT1M31S
3350453406,60.3591228369623,5.11817883700132,bus,49,Tyssøy snuplass,Bildøy skulesenter,Bildøy skulesenter,PT3M28S
3350453514,60.328520424664,5.29324083589017,bus,14,Fyllingsdalen terminal K,skyss.no,Bønes senter,PT4M35S
3350453302,60.3885613381863,5.34147885628045,bus,11,Tollbodallm. i Strandgt,Starefossen,Kalfarlien,PT1M21S
3350135773,59.8123665992171,6.76763378083706,bus,725,Turtveit øvre,Røldal,Turtveit nedre,PT26S
3350135710,60.38699333556,5.33440662547946,bus,925,Bergen busstasjon O,Øystese,Bergen busstasjon O,-PT1H43M56S
3350387208,60.1227000262588,5.20023004151881,bus,530,Våge snuplass,Hufthamar,Hufthamar kai,-PT4M35S
3350453509,60.3314488101751,5.30079200863838,bus,15,Festplassen M,skyss.no,Bergveien,PT5M29S
3350387209,60.0101999659091,5.25381999090314,bus,530,Austevoll us.,Bekkjarvik,Teisnes,PT3M7S
3350453507,60.3899986669421,5.33287147991359,bus,15,Festplassen M,skyss.no,Bergen busstasjon H,-PT36S
3350453409,60.3743906412274,5.23004882968962,bus,49,Ramsvik snuplass,Kjøkkelvik skole,Kjøkkelvik skole,-PT2S
3350387207,60.0514000374824,5.25728004053235,bus,530,Storebø kai,Bekkjarvik,Åno,PT1M31S
3350453512,60.3660534135997,5.29824483208358,bus,15,Bergveien,Bergen sentrum,Gyldenpris,PT2M33S
3350453414,60.3619896993041,5.23482693359256,bus,49,Alvøen kai,Olsvik skole,Loddefjordtoppen,PT1M9S
3350453513,60.3502680268139,5.28804891742766,bus,15,Festplassen M,skyss.no,Fyllingsdalen terminal E,PT3M17S
3350453415,60.3671672008932,5.24892898276448,bus,49,Bergen busstasjon H,Olsvikåsen VGS,Bjørndalsbakken,PT30S
3350377431,60.3658000286669,5.1825699582696,bus,442,Knarrevik rv. 555,skyss.no,Ramsvik snuplass,PT27M6S
3350453511,60.3895113430917,5.32211347483099,bus,15,Olav Kyrres gate G,Bønes,Møhlenpris,-PT5S
3350387042,60.1978000346571,5.45975999906659,bus,99,Osøyro terminal B,skyss.no,GARASJE Fana Bussdepot,-PT5M41S
3350377307,60.5665000062436,4.80946001596749,bus,479,Ågotnes terminal B,skyss.no,Herdlevær snuplass,-PT5M13S
3350387041,60.2662999648601,5.25516998022795,bus,99,Milde snuplass,Skolerute,Ådlandsstraumen sør,PT59S
3350387022,60.2627000212669,5.26241001673043,bus,53,Milde snuplass,skyss.no,GARASJE Fana Bussdepot,-PT1M56S
3350447502,60.4243415035307,5.45798437669873,bus,97,Arna terminal A,skyss.no,Garasje Haukås,-PT5M44S
3350387123,60.387300029397,5.33551999367774,bus,67,Søråshøgda snuplass,Bergen busstasjon,Bergen busstasjon L,-PT1M3S
3350447503,60.3725138492882,5.4934368096292,bus,97,Osevatn,Lone skule,Bjørndalen sør,PT44S
3350387031,60.3090999741107,5.26856996119022,bus,52,Grimstad snuplass,Lagunen terminal,Dolvik terminal B,PT1M16S
3350447553,60.4201085586101,5.4644740652293,bus,92,Takvam ved rundkjøring,Arna terminal,Arna terminal A,-PT40S
3350447513,60.4716435167938,5.39079680107534,bus,96,Myrane,skyss.no,Hetlebakken snuplass,PT1M24S
3350447550,60.4205141589046,5.46538023278117,bus,92,Arna terminal A,Garnes - Takvam,Bommane,PT43S
3350387056,60.3190000075847,5.51267000846565,bus,74,GARASJE Fana Bussdepot,skyss.no,Hausdal snuplass,-PT46S
3350387045,60.3457999695092,5.33388996496797,bus,51,Bergen busstasjon M,Birkelandsskiftet,Langebekken,PT56S
3350387049,60.3084000013769,5.26914998888969,bus,99,Nesttun terminal C,BKG,Dolvik terminal A,PT3M14S
3350453418,60.3646046854556,5.29765030369163,bus,49,Lynghaug skole,skyss.no,Bergen busstasjon H,PT7S
3350453419,60.3829230833799,5.21996288560331,bus,49,Olsvikåsen,skyss.no,Garasje Spelhaugen,PT2M58S
3350453514,60.3900032769889,5.33289285376668,bus,15,Festplassen M,skyss.no,Bergen busstasjon M,-PT33S
3350135741,60.596066666767,6.56462056562304,bus,945,Garasje Voss,skyss.no,Granvin terminal,PT46S
3350324162,59.581315331161,5.43449736200273,bus,631,Førde skule E39,Sveio skule,Tveitadalen,PT2M8S
3350324165,59.6052371989936,5.48352076672018,bus,631,Ulveraker sør,skyss.no,"Førde skule, E39",PT7M38S
3350453136,60.3488222323358,5.28634294867516,bus,18,Formanns vei,Barliveien,Skarphaugen,PT2M52S
3350377315,60.2658999804407,5.0774400215596,bus,475,Blomvåg terminal,Sotra VGS,Sotra vgs. Sund,PT8M27S
3350447538,60.4634036868811,5.3210265096277,bus,33,Rolland snuplass,Åsane terminal,Åsane terminal F,-PT17S
3350324165,59.5636434294283,5.33943836577237,bus,632,Nesheim,Sveio,Nygård,-PT56S
3350447731,60.526184309274,5.52279459312558,bus,909,Bernes nord,Lonevåg,Husavatnet,PT3M38S
3350447732,60.5042876768857,5.47575920820236,bus,909,Valestrand kai,Lonevåg,Hauge terminal,-PT6S
3350324162,59.6078063361347,5.46773378737271,bus,632,Førde skule E39,skyss.no,"Førde skule, E39",PT5M20S
3350377426,60.4052999988198,4.99706000089645,bus,465,Straume terminal C,Ågotnes terminal,Ågotnes terminal B,-PT29S
3350447737,60.5255194567144,5.36190597340465,bus,909,Raknes,Valestrand,Angelskår nord,PT2M27S
3350447518,60.4630928020924,5.32101050019264,bus,34,Langarinden,Åsane terminal,Åsane terminal F,PT2M17S
3350453184,60.3492856677622,5.28765060938895,bus,14,Bergen busstasjon M,Fyllingsdalen terminal,Fyllingsdalen terminal K,PT1M40S
3350377429,60.3887999709696,5.33420001156628,bus,441,Hjelteryggen snuplass,Bergen busstasjon,Bergen busstasjon Q,-PT8M4S
3350377429,60.3498999774456,5.16062999144197,bus,465,Straume terminal C,skyss.no,Brattholmen kai,-PT1M31S
3350453183,60.3487207274884,5.28802050277591,bus,14,Bergen busstasjon M,Fyllingsdalen terminal,Fyllingsdalen terminal K,PT4M7S
3350447554,60.4636568203568,5.32190166413784,bus,30,Viddalen,skyss.no,Åsane terminal E,PT2M37S
3350447515,60.462808907032,5.32074764370918,bus,34,Åsane terminal C,Langarinden,Rollandskrysset,-PT3M58S
3350447555,60.463427407667,5.30990892089903,bus,30,Viddalen,Åsane terminal,Åsane brannstasjon,PT3M
3440189699,60.8569163549691,5.06351030431688,bus,360,Rutledal ferjekai,Sløvåg ferjekai,Sløvågen ferjekai,-PT3M14S
3350447523,60.4631463624537,5.3210161998868,bus,33,Rolland snuplass,Åsane terminal,Åsane terminal F,-PT5S
3350387109,60.3200999647379,5.35218003205955,bus,83,Nesttun terminal D,Bergen busstasjon,Hopsbro,-PT4M17S
3350324168,59.4152233097702,5.27761152014136,bus,632,Karmsund vgs,skyss.no,Sveio,PT30M33S
3350324169,59.5263136178255,5.33694910816848,bus,632,Eltrevåg nord,Sveio,Hokla,PT8M7S
3350324165,59.5874269120395,5.42916010133922,bus,633,Våga kai,skyss.no,"Rød, Øklandsvegen",PT16M44S
3350447722,60.52255326882,5.50984086468816,bus,909,Haus terminal,Hatland skulesenter,Hatland skulesenter,PT3M29S
3350324162,59.621835462749,5.33432632684708,bus,633,Sveio sentrum,skyss.no,Tjernagel,PT3M28S
3350453178,60.3560956288129,5.36824679933488,bus,12,Lønborglien snuplass,skyss.no,Garasje Mannsverk,-PT1M20S
3350447724,60.429585473612,5.5344015173614,bus,909,Arna terminal A,Valestrand,Kvisti terminal,-PT3M33S
3350377444,60.4053999949247,4.99617998488247,bus,460,Ågotnes terminal A,Bergen busstasjon,Ågotnes senter,-PT3M48S
3350377443,60.3908999729902,5.32514998689294,bus,460,Ågotnes terminal A,Bergen busstasjon,Bergen busstasjon Q,-PT9M47S
3350447725,60.5238616000861,5.50772728398442,bus,909,Tyssebotn kai,Lonevåg,Hatland skulesenter,PT1M
3350377302,60.5164000298828,4.91007001139224,bus,474,Stegavika,Øygarden US,Øygarden ungdomsskule,-PT5S
3350447727,60.5070709716529,5.48171195201576,bus,909,Valestrand kai,Lonevåg,Lonevåg vognstasjon,PT3M8S
3350447728,60.5014440324157,5.54365547373891,bus,909,Hauge terminal,Hatland skulesenter,Skistad,PT5M32S
3350377448,60.3818999882787,5.27276996523142,bus,460,Ågotnes terminal A,Bergen busstasjon,Møhlenpris,-PT1M31S
3350447729,60.5255746096373,5.49893592484295,bus,909,Dale snuplass,Hatland skulesenter,Fossen,PT2M3S
3350453172,60.4266616981477,5.29830350540578,bus,12,Wiers-Jenssens vei,Lønborglien,Eikeviken,PT12M41S
3350377307,60.5662000179291,4.82111999765038,bus,474,Øygarden ungdomsskule,skyss.no,Herdlevær snuplass,PT2M27S
3350453150,60.3385750204325,5.32442721538246,bus,14,Fyllingsdalen terminal E,Bergen busstasjon,Langebekken,PT59S
3350447537,60.4633804690093,5.32100815325975,bus,35,Klauvaneset Tellevikv.,Åsane terminal,Åsane terminal F,PT5M28S
3350447527,60.5162588786334,5.2828819770366,bus,36,Bergen busstasjon K,Hordvik-Klauvaneset,"Klauvaneset, Tellevikv.",PT4M16S
3350447515,60.472642891109,5.3497426584363,bus,37,Åsane terminal F,skyss.no,Langarinden,-PT3M4S
3350447523,60.5180958565325,5.30045849271119,bus,36,Klauvaneset Tellevikv.,Åsane terminal,Øvre Prestavegen,PT2M31S
3350447520,60.5161163862795,5.28316461481154,bus,36,Bergen busstasjon K,Hordvik-Klauvaneset,"Klauvaneset, Tellevikv.",PT8M43S
3350453186,60.3976871352643,5.32160293310881,bus,12,Wiers-Jenssens vei,Lønborglien,Bontelabo,PT2M50S
3350135746,60.5650399625301,6.90605998970568,bus,925,Granvin terminal,skyss.no,Ulvik sentrum,PT6M24S
3350377451,60.350900022313,5.09363000281155,bus,460,Bergen busstasjon G,Ågotnes terminal,Kolltveit skule,PT3M10S
3350324181,59.4662921503186,5.36714147776365,bus,632,Vikse skule snuplass,skyss.no,Eilerås,PT3M10S
3350377310,60.5365000013262,4.87836001440883,bus,474,Ovågen,Blomvåg terminal,Blomvåg terminal,-PT57S
3350377450,60.4052999988198,4.99646002426744,bus,460,Ågotnes terminal A,Bergen busstasjon,Ågotnes terminal A,-PT24M2S
3350447711,60.4552601650357,5.49263851717114,bus,909,Øvre Rivenes snuplass,Haus,Haus terminal,-PT2M24S
3350453188,60.3957881312817,5.32547503709793,bus,12,Lønborglien snuplass,Lægdene - Montana,Torget D,PT4M7S
3350377455,60.3724000230432,5.15672997571528,bus,460,Ågotnes terminal A,Bergen busstasjon,Drotningsvik,PT1M2S
3350447714,60.5381862726063,5.47985594719648,bus,909,Hosanger,Hatland skulesenter,Lonevåg vognstasjon,PT5M41S
3350377453,60.3881999943405,5.33272001892328,bus,460,Bergen busstasjon G,Ågotnes terminal,Lars Hilles gate K,-PT4M19S
3350447715,60.4528671316803,5.50039387308061,bus,909,Haus terminal,Valestrand,Mjeldalen nedre,PT28S
3350453173,60.3877087309957,5.33520240336657,bus,13,Festplassen N,Sentrum,Nygårdsgaten / Lars Hilles gate,-PT2S
3350377458,60.3536999970675,5.08647998794913,bus,460,Ågotnes terminal A,Bergen busstasjon,Kolltveit sør,PT1M46S
3350447558,60.4631764534861,5.32101301476359,bus,32,Skinstø,Åsane terminal,Åsane terminal F,PT39S
3350453121,60.3820982202888,5.31462432816625,bus,18,Barliveien,Formanns vei,Møhlenpris,PT1M55S
3350453181,60.357575789094,5.36848643794656,bus,12,Lønborglien snuplass,Lægdene - Montana,Mannsverk garasje,PT2M12S
3350447527,60.5162275303155,5.28287585824728,bus,35,Klauvaneset Tellevikv.,Åsane terminal,Sveisdalen,-PT3M17S
3350447537,60.4633987415582,5.32102441415191,bus,34,Langarinden,Åsane terminal,Åsane terminal F,PT1M22S
3440189699,60.9315329790115,5.14546151272953,bus,361,Sløvågen ferjekai,Eivindvik,Dalsøyra,PT2M5S
3350447544,60.4634252283722,5.32101519405842,bus,33,Rolland snuplass,Åsane terminal,Åsane terminal F,PT50S
3350447545,60.4631600249559,5.32100488431752,bus,33,Rolland snuplass,Åsane terminal,Åsane terminal F,-PT26S
3350447542,60.4607027862221,5.32930095680058,bus,33,Rolland snuplass,Åsane terminal,Barkaleitet,PT0S
3350447523,60.5160314776003,5.2833706419915,bus,35,Åsane terminal D,Salhus - Klauvaneset,"Klauvaneset, Tellevikv.",PT5M6S
3350447520,60.4637940321118,5.3233215585351,bus,35,Åsane terminal D,Salhus - Klauvaneset,Rollandskrysset,PT38S
3350447510,60.4635053593665,5.32585146836936,bus,36,Bergen busstasjon K,skyss.no,Åsane terminal E,PT6M24S
3350453134,60.3555716760457,5.3679196536541,bus,14,Bergen busstasjon L,skyss.no,Mannsverk,-PT16M57S
3350453151,60.3876923024654,5.33525277860463,bus,12,Lønborglien snuplass,Lægdene - Montana,Nygårdsgaten / Lars Hilles gate,PT6M58S
3350453157,60.3203642461449,5.35235160961747,bus,12,Mannsverk garasje,skyss.no,Nesttun terminal D,PT9M20S
3350453177,60.4029807262123,5.32743950374424,bus,10,Mindeveien snuplass,Mulen,Prahls vei,PT1M6S
3350453137,60.3385346196592,5.32449527643621,bus,14,Fyllingsdalen terminal E,Bergen busstasjon,Langebekken,PT11M10S
3440189680,60.9104374889284,4.92566077038646,bus,362,Sløvågen ferjekai,Gardvågen,Kvernevåg,-PT2M24S
3350453156,60.3650382813066,5.37466716952622,bus,12,Wiers-Jenssens vei,Lønborglien,Lægdesvingen,PT1M6S
3350377422,60.3883999865502,5.33230000175536,bus,460,Bergen busstasjon G,Ågotnes terminal,Bergen busstasjon G,-PT24M47S
3350377426,60.2688000351191,5.07423997856677,bus,460,Bergen busstasjon Q,skyss.no,Skogsskiftet terminal A,-PT36M33S
3350377425,60.3888999670744,5.33393003046513,bus,460,Landro skule snuplass,Bergen busstasjon,Bergen busstasjon Q,PT9M7S
3350453130,60.3658158704638,5.18254045397043,bus,14,Bergen busstasjon L,skyss.no,Ramsvik snuplass,-PT2M12S
3350447577,60.460308836773,5.40747670456767,bus,97,Garnesstølen,skyss.no,Garasje Haukås,-PT3M4S
3350361473,60.5149029381573,5.22923427633941,bus,312,Mjåtveit,Sagstad skule,Mjåtveitflaten,-PT1M34S
3350387026,60.3097000345588,5.37349001504481,bus,70,Nesttun terminal C,Nesttun terminal,Sørlien,PT2M9S
3350361492,60.5463081691414,5.28607120737433,bus,310,Knarvik terminal B,Frekhaug,"Blandeverket, mot Flatøy",-PT4M12S
3350387029,60.3197999764234,5.35236996598542,bus,70,Nesttun terminal C,Nesttun terminal,Nesttun terminal D,-PT27S
3350361498,60.5174918565899,5.24809003807604,bus,310,Hjertås nord,Frekhaug terminal,Frekhaug kai,-PT2M17S
3350447570,60.4835678637028,5.37446198053658,bus,97,Garnesstølen,skyss.no,Garasje Haukås,-PT6M59S
3350453159,60.3628091979772,5.3410841524601,bus,12,Mannsverk garasje,skyss.no,Mindeveien snuplass,PT3M14S
3350361466,60.5642343778163,5.24624157696962,bus,313,Flatøy terminal  C,Ådland,Flatøy terminal  C,-PT26M
3350453165,60.4045374132693,5.32115860842168,bus,12,Wiers-Jenssens vei,Lønborglien,Sandvikstorget,PT10M22S
3350324131,59.6021794807166,5.46032594516873,bus,631,Tittelsnes snuplass,Haugesund,Hanaleitet,PT2M16S
3350453103,60.3821024950594,5.31377934850752,bus,18,Formanns vei,Barliveien,Løvstakktunnelen,PT1M7S
3350453168,60.3651742357761,5.36641493439674,bus,12,Wiers-Jenssens vei,Lønborglien,Langhaugen,PT3M30S
3350324160,59.7749498672783,5.48452910967171,bus,676,Hornelandsvågen snuplass,Leirvik,"Stord vgs, Vabakkjen",-PT2M27S
3350453149,60.3493171837181,5.28762864880264,bus,14,Bergen busstasjon M,Fyllingsdalen terminal,Fyllingsdalen terminal K,PT2M2S
3350453166,60.3801877330989,5.33420101739466,bus,12,Wiers-Jenssens vei,Lønborglien,Florida,PT3M44S
3350453106,60.4053766932338,5.3250121884048,bus,18,Formanns vei,Barliveien,Sandvikskirken,-PT7S
3350377433,60.3888999670744,5.33387001603842,bus,460,Ågotnes terminal A,Bergen busstasjon,Bergen busstasjon Q,-PT2M45S
3350377432,60.405200002715,4.99695003032684,bus,460,Bergen busstasjon G,Ågotnes terminal,Ågotnes terminal A,PT1M28S
3350377322,60.431699976325,4.96607998386025,bus,471,Solsvik kai,Ågotnes terminal,Landro samfunnshus,PT8M55S
3350447504,60.4279613960534,5.35587494261563,bus,31,Jordal snuplass,Eidsvåg skole,Jordal,-PT5S
3350453180,60.4056799504906,5.32853677868843,bus,10,Mulen,Søndre Skogveien,Prahls vei,PT1M26S
3350377436,60.3706000093371,5.15255997888744,bus,460,Bergen busstasjon Q,skyss.no,Knarrevik rv. 555,-PT12M57S
3440189706,61.2035934627056,6.05727410875261,bus,820,Vadheim,Høyanger,Sandvika,-PT5M19S
3350447511,60.4709351621568,5.27459001168609,bus,30,Viddalen,Åsane terminal,Bryggjedalen,-PT3M51S
3350447501,60.4489126335829,5.32049409113824,bus,31,Selvik,Åsane terminal,Åstveitvegen,-PT49S
3350377429,60.3709999937564,5.20129999145865,bus,460,Bergen busstasjon G,Ågotnes terminal,Breivikskiftet,PT31S
3350387030,60.3198999725282,5.35236996598542,bus,70,Nesttun terminal C,Nesttun terminal,Nesttun terminal D,-PT1M7S
3440189709,61.2089337408543,5.82184128463268,bus,820,Høyanger rutebilstasjon,Vadheim,Vadheim,PT1M18S
3350377427,60.405200002715,4.99695003032684,bus,460,Bergen busstasjon G,Ågotnes terminal,Ågotnes terminal A,PT11S
3350447572,60.4631332028657,5.32100412994623,bus,96,Lønborg,Tertneskrysset,Åsane terminal F,-PT1S
3350361495,60.5463976040483,5.28644126839936,bus,311,Frekhaug terminal,skyss.no,Knarvik terminal A,-PT4M50S
3350361475,60.5512771289796,5.28020965866745,bus,313,Ådland snuplass,Frekhaug,Knarvik vgs.,PT16S
3350447571,60.4636428225785,5.32192136161029,bus,96,Myrane,skyss.no,Åsane terminal E,PT7M14S
3350361498,60.5463427025825,5.28626902028918,bus,311,Frekhaug terminal,skyss.no,Knarvik terminal A,PT12M15S
3350324134,59.4118764996529,5.28904812410474,bus,631,Tittelsnes snuplass,Haugesund,Vardafjellhallen,PT8M51S
3350135764,60.4003466293216,5.7948649674654,bus,925,Eikedalen Skisenter,Lønnebakken,Totland,PT2M43S
3350324154,59.8032741621137,5.51578279584646,bus,678,Sageneset,Leirvik,Prestegardsskogen,PT2M8S
3350324132,59.5445507951081,5.42105781845748,bus,632,Sveio skule,skyss.no,Kvalvåg kryss,PT6M16S
3350453113,60.3502859640867,5.28809434734285,bus,14,Fyllingsdalen terminal E,Bergen busstasjon,Sælemyr,-PT2M6S
3350135722,59.7891660779715,5.76155243441463,bus,790,Øyatun skule,skyss.no,Halsnøy industribase,PT2M22S
3350447548,60.4629125073552,5.32102868892252,bus,30,Viddalen,Åsane terminal,Åsane terminal F,-PT5S
3350447525,60.4637401364744,5.31900119036436,bus,32,Skinstø,Åsane terminal,Åsane terminal F,PT29S
3350447521,60.4700565710664,5.30489972792566,bus,32,Åsane terminal C,Skinstø,Riveskaftet,-PT8S
3350361452,60.5190104059875,5.24046099744737,bus,312,Io snuplass,Frekhaug,Frekhaug terminal,-PT2M35S
3350361470,60.555464476347,5.26934369467199,bus,310,Knarvik vgs.,skyss.no,Knarvik garasje,-PT2M25S
3350453159,60.3936382569373,5.32476265914738,bus,10,Mulen,Søndre Skogveien,Olav Kyrres gate E,PT53S
3350453117,60.3902411554009,5.32455872744322,bus,14,Bergen busstasjon L,skyss.no,Festplassen N,-PT1M24S
3350453158,60.3818460926414,5.31594238243997,bus,10,Mindeveien snuplass,Mulen,Møhlenpris,PT1M53S
3350453138,60.355585925281,5.36826280876994,bus,12,Mannsverk garasje,skyss.no,Mannsverk,PT7M37S
3350135797,60.3925045207143,5.66117009148002,bus,925,Bergen busstasjon O,Norheimsund,Hisdal korrespondanse,PT1M32S
3350361458,60.5430929549038,5.13342535123229,bus,312,Meland kyrkje snuplass,Vestbygd skule,Brakstad,PT1M10S
3350453142,60.4185534641147,5.31199919991195,bus,12,Lønborglien snuplass,Lægdene - Montana,Munkebotn,PT3M6S
3350453146,60.3794953040779,5.33803825266659,bus,12,Lønborglien snuplass,Lægdene - Montana,Strømmen,PT11M18S
3350453127,60.3656067419797,5.34254260361195,bus,14,Bergen busstasjon M,Fyllingsdalen terminal,Minde,PT35S
3350453125,60.349308969453,5.28764164075255,bus,14,Bergen busstasjon M,Fyllingsdalen terminal,Fyllingsdalen terminal K,PT54S
3350447517,60.4631323646754,5.32102684490383,bus,32,Skinstø,Åsane terminal,Åsane terminal F,PT35S
3350377303,60.4066000320017,4.98863996006548,bus,471,Turøyna snuplass,Ågotnes terminal,Polleidet,PT2M7S
3350377313,60.6126999668777,4.82456001453102,bus,470,Tjeldstø skule,skyss.no,Hellesøy kai,-PT3M16S
3350377312,60.5636000353843,4.84944999217987,bus,470,Øygarden ungdomsskule,Tjeldstø skule,Ovågen,PT4M54S
3350135705,59.7892533335835,5.74819109402597,bus,790,Halsnøy industribase,Halsnøy skule,Hovda,PT41S
3350447511,60.4631706699729,5.32101829536259,bus,32,Skinstø,Åsane terminal,Åsane terminal F,-PT11S
3350361452,60.5484507512301,5.2110818400979,bus,313,Frekhaug terminal,Grasdal skule,Grasdal skule,PT4S
3350361473,60.5158024840057,5.22170883603394,bus,311,Frekhaug terminal,skyss.no,Mjåtveit,-PT6M20S
3350361467,60.5420233402401,5.08772620931268,bus,312,Fløksand Beitingvegen,Vestbygd skule,Fløksand sør,-PT4M5S
3350361454,60.5500224418938,5.07574209943414,bus,313,Frekhaug terminal,skyss.no,Io snuplass,PT34S
3350453168,60.435788249597,5.29114225879312,bus,10,Wergeland C,skyss.no,Lønborglien snuplass,PT1M41S
3350361484,60.5466786492616,5.28734508901834,bus,310,Skjelanger kai,Knarvik terminal,Knarvik vgs.,PT1M12S
3350361465,60.5190702527761,5.23825504817069,bus,312,Dalamarka,Sagstad skule,Sagstad skule,PT20S
3350135695,60.3673500102013,5.72394501417875,bus,934,Eikelandsosen terminal,Bjørkheim,Sætrevika,-PT3M10S
3350361488,60.5310458131135,5.1360737811774,bus,310,Hjertås nord,Flatøy,Hjertås sør,-PT5M14S
3350324158,59.7585118655115,5.40926297195256,bus,631,Tittelsnes snuplass,skyss.no,Garasje Stord,-PT37S
3350324161,59.7792952973396,5.50128696486354,bus,671,Sandvikvåg,Leirvik,Leirvik terminal B,PT2M49S
3350447534,60.3882289957255,5.33521380275488,bus,910,Bergen busstasjon K,skyss.no,Arna terminal A,PT6M57S
3350324116,59.7793019190431,5.4981598444283,bus,676,Hornelandsvågen snuplass,Ådland,Leirvik terminal C,PT4M29S
3350447545,60.4630591068417,5.32099985517561,bus,28,Arna terminal A,Åsane terminal,Åsane terminal F,-PT2S
3350324118,59.7489615250379,5.46396947465837,bus,676,Hystad skule,Heiane - Kårevik,Skjersholmane kai,PT9M22S
3350361489,60.7997059263289,5.00457177869976,bus,331,Utkilen nord,Kaland skule,Kaland skule,PT1M51S
3350324112,59.7658684104681,5.46881463378668,bus,676,Hystad skule,Hornelandsvågen,Kårevik nord,PT1M33S
3350361457,60.5276823230088,5.248251138255,bus,310,Flatøy terminal  C,Skulerute,Sagstad skule,PT1M27S
3350324143,59.7850177902728,5.39838736876845,bus,673,Stuva aust,Tjødnalio skule,Nysæterfeltet,PT3M8S
3350324114,59.7903176676482,5.50823145546019,bus,676,Hystad skule,Heiane - Kårevik,Leirvik kyrkjegard,PT11S
3350361436,60.5867562163621,5.13593732379377,bus,312,Frekhaug terminal,skyss.no,Ådland snuplass,PT1M22S
3440199347,61.4524035528302,5.85397926159203,,FB59,Vieåsen,Førde lufthamn,Halbrend,-PT4M11S
3350453405,60.3520418889821,5.18630443140864,bus,40,Bergen busstasjon Q,skyss.no,Alvøen kai,PT1M32S
3350361520,60.6161456834525,5.30732628889382,bus,304,Konglevoll Vassbygdvegen,Skulerute,Kleivdal,PT1M2S
3350447555,60.4703028313816,5.27540054172277,bus,26,Åsane terminal F,skyss.no,Viddalen,-PT30S
3350453409,60.3658544272184,5.18246342428029,bus,40,Storavatnet terminal B,skyss.no,Ramsvik snuplass,PT16M28S
3350447556,60.4364876355976,5.32173234969378,bus,26,Lagunen terminal J,Åsane terminal,Tertneskrysset E39,PT1M10S
3350447531,60.400667656213,5.46815665438771,bus,28,Åsane terminal F,skyss.no,Arnatveit,PT2M48S
3350447532,60.4198491387069,5.46340201981366,bus,28,Arna terminal A,Åsane terminal,Arna terminal A,-PT29M22S
3350453402,60.3733436577022,5.22249380126595,bus,40,Storavatnet terminal B,Bergen busstasjon,Brønndalen,PT1M29S
3350447530,60.4209256265312,5.4617503657937,bus,28,Arna terminal A,Åsane terminal,Hammaren,PT37S
3350361436,60.5484309699386,5.21112819202244,bus,313,Ådland snuplass,Flatøy,Grasdal,PT4M9S
3350324180,59.8090772889555,5.51874227821827,bus,671,Rommetveit snuplass,skyss.no,Garasje Stord,-PT51S
3350324130,59.771537091583,5.47728253528476,bus,676,Heiane ved Fylkesnes bil,Skulerute,"Stord vgs, Vabakkjen",-PT4M38S
3350447580,60.2987561188638,5.32796605490148,bus,27,Haukeland sjukehus nord C,skyss.no,Lagunen terminal J,-PT6M52S
3350324182,59.919491680339,5.32367376610637,bus,671,Sandvikvåg,Fitjar,Fitjar vgs.,PT3M53S
3350135703,60.6302787456661,6.4865754917264,bus,990,Odda busstasjon,Voss,Rene,PT1M17S
3350453182,60.3839664626867,5.27103080414236,bus,6,Birkelundstoppen A,Lyngbø,Lyngbø C,PT6M4S
3350447578,60.4631288442761,5.32100572250783,bus,27,Haukeland sjukehus sør F,Åsane terminal,Åsane terminal F,PT31S
3350447588,60.4632616974413,5.32173000276089,bus,26,Åsane terminal E,Lagunen terminal,Hesthaugen,-PT5M52S
3350447589,60.4632482863963,5.32103581354022,bus,26,Lagunen terminal J,Åsane terminal,Åsane terminal F,-PT14S
3350447576,60.4553366918117,5.31967777758837,bus,27,Haukeland sjukehus sør F,Åsane terminal,Stamskaret,PT3M7S
3350324138,59.7563091851771,5.45885441824794,bus,676,Hornelandsvågen snuplass,Langeland skule,Hornelandsvegen nord,PT4M58S
3350447577,60.4556796792895,5.39956519380212,bus,27,Åsane terminal F,skyss.no,Kalsåsvegen,PT1M3S
3350361474,60.8036434091628,4.91923310793936,bus,330,Knarvik terminal B,Mastrevik torg,Toftegård,PT2M17S
3350447584,60.4214816819876,5.30758948065341,bus,26,Åsane terminal E,Lagunen terminal,Gamle Bergen,PT4M44S
3350447574,60.462761297822,5.32086666673422,bus,27,Åsane terminal E,Haukeland sjukehus,Hesthaugen,-PT2M
3350447572,60.3835641313344,5.33520600758493,bus,27,Åsane terminal E,Haukeland sjukehus,Krohnsminde K,PT22S
3350447573,60.4702900070697,5.27544781565666,bus,27,Åsane terminal F,skyss.no,Viddalen,-PT13S
3350361478,60.5465709418058,5.2868433482945,bus,330,Austrheim kyrkje,Knarvik terminal,Knarvik terminal B,PT15S
3350447570,60.4599488340318,5.42177430354059,bus,27,Åsane terminal F,skyss.no,"Orfallet, Ytre Arna",-PT1M13S
3350447580,60.4702924378216,5.27530775405467,bus,26,Åsane terminal F,skyss.no,Viddalen,PT2M26S
3350447581,60.3068367764354,5.32747973687947,bus,26,Åsane terminal E,Lagunen terminal,Lagunen terminal I,PT2M33S
3350447571,60.4364759847522,5.32063029706478,bus,27,Åsane terminal E,Haukeland sjukehus,Handelshøyskolen,PT2M10S
3350387082,60.1851000264287,5.46910003758967,bus,610,Osøyro terminal B,skyss.no,GARASJE Os Garasje,PT58S
3350387112,60.1852000225335,5.46915996819735,bus,607,Osøyro terminal A,skyss.no,Osøyro terminal A,-PT1M28S
3350361494,60.386205771938,5.33413228578866,bus,300E,Bergen busstasjon J,skyss.no,Knarvik garasje,-PT2M37S
3350361495,60.38613980636,5.33405726775527,bus,300E,Bergen busstasjon J,Knarvik terminal,Flatøy terminal  D,PT4M9S
3350361496,60.5472031887621,5.28950317762792,bus,300E,Bergen busstasjon J,Knarvik terminal,Knarvik terminal A,PT11S
3350447579,60.3475479315966,5.33712990581989,bus,26,Lagunen terminal J,Åsane terminal,Fjøsanger,PT8S
3350447578,60.2973746135831,5.32750639133155,bus,26,Lagunen terminal J,Åsane terminal,"Hop, Sjølinjen",-PT2M49S
3350447555,60.4631305206567,5.32100111246109,bus,28,Arna terminal A,Åsane terminal,Åsane terminal F,-PT1M10S
3350361443,60.6025714427233,5.02542972564697,bus,310,Flatøy terminal  B,Frekhaug-Skjelanger,Seljehøyen,PT37S
3350447551,60.453040972352,5.40637783706188,bus,28,Åsane terminal D,Arna terminal,Spåkevegen,PT1M8S
3350361479,60.7417533639818,5.12117528356612,bus,331,Risøy bru,Lindås skule,Saltnes nord,PT3S
3350447550,60.422365386039,5.5156341008842,bus,28,Garnesstølen,skyss.no,Takvam ved rundkjøring,-PT42S
3350361506,60.3886077739298,5.33316476270556,bus,300,Knarvik terminal A,Bergen busstasjon,Bergen busstasjon J,PT6S
3350361504,60.455765677616,5.32020952552557,bus,300,Bergen busstasjon J,Knarvik terminal,Åsane terminal D,PT3M11S
3350361505,60.3881870862097,5.33273879438639,bus,300,Bergen busstasjon J,Knarvik terminal,Bergen busstasjon J,-PT13M54S
3350377348,60.4892999958247,5.20014001987875,bus,408,Hanevik,Kleppestø terminal,Bakkeland,-PT17S
3350361509,60.5466806609184,5.28733117505908,bus,300,Bergen busstasjon J,Knarvik terminal,Knarvik terminal B,PT18S
3350387101,60.1446000114083,5.43839000165462,bus,607,Kysthospitalet,skyss.no,Halhjemsmarka snuplass,PT5M21S
3350361497,60.5404132604599,5.26150829158723,bus,300E,Bergen busstasjon J,skyss.no,Knarvik terminal A,PT5M49S
3350361498,60.5134791042656,5.33253142610192,bus,300E,Knarvik terminal A,Bergen busstasjon,Bergen busstasjon J,PT12S
3350135605,59.8898766562343,5.55795332416892,bus,651,Våge kai,Hodnanes,Hodnanes,-PT44S
3350447522,60.3741031419486,5.34093939699233,bus,26,Lagunen terminal J,Åsane terminal,Årstad vgs. C,PT1M56S
3350361514,60.3883820492774,5.33468012697995,bus,300,Bergen busstasjon J,Knarvik terminal,Gamle Bergen,PT46S
3350377346,60.4666000418365,5.22463001310825,bus,408,Hanevik,Erdal ungdomsskule,Strømsnes,-PT5S
3350361453,60.5456342641264,5.27961655519903,bus,330,Knarvik terminal B,Mastrevik torg,Knarvik terminal B,-PT7M40S
3350361449,60.7995946146548,5.00756470486522,bus,331,Fonnes senter,Lindås senter,Kjeilen kryss,PT0S
3350361515,60.4706040769815,5.32665495760739,bus,300,Knarvik terminal A,Bergen busstasjon,Salhuskrysset,PT2M8S
3350361457,60.5319042038172,5.2567922975868,bus,330,Knarvik terminal B,skyss.no,Flatøy terminal  C,PT7S
3350387091,60.1992999762297,5.44439001940191,bus,740,Os vidaregåande skule,skyss.no,Mobergslien,PT2M34S
3350150118,60.546811753884,5.73059387505054,bus,920,Sandvik vest,Dale,Stanghelle sør,-PT12S
3350324137,59.7650163061917,5.43774761259556,bus,671,Fitjar vgs.,skyss.no,Valvatne snuplass,PT9M35S
3350377350,60.4077999852598,5.2268900256604,bus,408,Hanevik,Kleppestø terminal,Kleppestø terminal E,-PT52S
3350324113,59.7955146990716,5.52630040794611,bus,673,Rommetveit snuplass,Leirvik-Litlabø,Hystad,PT5S
3350324115,59.8069357965142,5.51942682825029,bus,673,Vikanes snuplass,Rommetveit,Hagastølen,PT2M19S
3350324110,59.7717878781259,5.40645067580044,bus,673,Rommetveit snuplass,Leirvik-Sagvåg,Almås,PT9M2S
3350324130,59.7626302298158,5.45551456511021,bus,671,Leirvik terminal B,skyss.no,Heiane ved Fylkesnes bil,PT3M19S
3350361467,60.5465272720903,5.28669565916061,bus,330,Kolås kryss,Knarvik terminal,Knarvik terminal B,-PT1M56S
3350377336,60.4148999601603,5.21945997141302,bus,407,Kleppestø terminal E,skyss.no,Kleppestø US,-PT30S
3350135713,60.3640399966389,6.08325499109924,bus,799,Norheimsund terminal,Skulerute,Dalatun,PT5M8S
3350135623,59.8594915028661,5.7731187902391,bus,760,Utåker kai,Årsnes kai,Onarheimselva,PT23M32S
3350135731,59.6476787142456,6.00771870464087,bus,640,Ølen terminal,Tesdal kryss,Tesdal kryss,-PT1M55S
3350135741,60.6614010035992,6.43639739602804,bus,990,Voss stasjon E,Bu,Voss stasjon E,-PT24M14S
3350135735,60.0568834785372,6.54677792452276,bus,640,Fjæra,Skulerute,Odda US/VGS,PT2M10S
3350135627,59.9304980412126,5.86134720593691,bus,760,Årsnes kai,Utåker,"Fet, Uskedalsvegen",PT5M36S
3350135608,60.0138312578201,5.51292414776981,bus,653,Kaldafoss snuplass,Våge,Kaldafoss snuplass,-PT1H59M24S
3350135738,59.8355147335678,6.28968860954046,bus,640,Odda busstasjon,Etne,Viskjer,PT20S
3350135718,60.384384971112,6.19805169291794,bus,799,Kvam ungdomsskule,Skulerute,Evjo,-PT11S
3350135625,59.8286920320243,5.79285289160907,bus,760,Valen sjukehuset,Husnes,Valen skule,-PT4M19S
3350387087,60.2441999875009,5.75794997625053,bus,740,Eikelandsosen terminal,Osøyro,Eikelandsosen terminal,-PT9M39S
3350447528,60.4631861764938,5.32102097757161,bus,28,Sletta,Åsane terminal,Åsane terminal F,PT35S
3350135728,60.4572961293161,7.08437927998602,bus,991,Øvre Eidfjord,skyss.no,Garasje Eidfjord,-PT6M39S
3350135727,60.3756983019412,6.71940254978836,bus,991,Bu terminal,Odda,Salthella,PT5M57S
3350135737,60.3779309056699,6.6850167978555,bus,990,Hovland,Kinsarvik skule,Midnes,PT1M11S
3350377390,60.3035000246018,5.13025003485382,bus,449,Liaskjæret snuplass,Kolltveit skule,Kløvningen,-PT45S
3440189710,61.4578111376613,5.88893791660666,bus,250,Florø terminal,Førde sentralsjukehus,Førde sentralsjukehus,PT2M2S
3350447524,60.4663459863514,5.37678301334381,bus,28,Arna terminal A,Åsane terminal,Blindheimsdalen,PT9M24S
3350447525,60.4630610346794,5.32101670280099,bus,28,Arna terminal A,Åsane terminal,Åsane terminal F,-PT41S
3350377341,60.4179000109434,5.24748997762799,bus,406,Florvågøen snuplass,Kleppestø terminal,Florvågøen kryss,PT2M46S
3350377395,60.355200022459,5.12562003917992,bus,449,Hjelteryggen snuplass,Bildøy skulesenter,Lonavegen,-PT1M2S
3350377393,60.3536999970675,5.13460996560752,bus,449,Straume terminal B,Danielsen skole,Straume idrettspark,PT1M2S
3350377335,60.4178000148386,5.24757002480328,bus,407,Kleppestø terminal E,Haugland,Bakarvågen,PT3M2S
3350324142,59.9251803103834,5.47230108641088,bus,671,Fitjar vgs.,skyss.no,Eide,PT4M10S
3350324143,59.7906319051981,5.49235948361456,bus,671,Nysæterfeltet,skyss.no,Stuva aust,PT1M49S
3350377332,60.4076999891549,5.22683998569846,bus,407,Haugland verkstedet,Kleppestø terminal,Kleppestø terminal E,PT31S
3350361519,60.6984808668494,5.57889735326171,bus,346,Romarheim snuplass,Ostereidet skule,Urdal,PT3M53S
3350377337,60.4874999821186,5.20232995972037,bus,408,Åsebø,Hop skole,Bakkeland,-PT46S
3350135701,60.3724733646959,6.14097336307168,bus,799,Vangdal,Skulerute,Norheimsund skule,PT4M11S
3350135704,60.3767625521868,6.24200697988272,bus,799,Steinstø,Skulerute,Høgebekk,-PT58S
3350135725,60.4235706198961,7.13138658553362,bus,991,Liset,Bu,Hagavegen,PT52S
3440189668,61.3038883823901,4.73971646279097,bus,234,Hillersøy snuplass,Værlandet,Værlandet ferjekai,-PT1M57S
3440189717,61.6026668529958,5.13622473925352,bus,250,Førde rutebilstasjon,Florø,Slettevollen,PT54S
3440189709,61.4524892996997,5.85407850332558,bus,820,Vadheim,Førde,Førde rutebilstasjon,PT2M26S
3350135609,59.9143719300628,5.78248774632812,bus,760,Uskedalen skule,skyss.no,Garasje Husnes,PT13S
3350387116,60.1718000415713,5.42021996341646,bus,603,Røttingen snuplass,Osøyro,Skeie,-PT53S
3440189714,61.7383523471653,5.18210484646261,bus,260,Florø terminal,Svelgen,Sandvik indre,-PT6M2S
3350324159,59.8670938052237,5.3487132769078,bus,671,Fitjar terminal A,skyss.no,Rydland,PT9M43S
3440189712,61.6099940612912,5.11736604385078,bus,260,Sande ytre,Florø,Havikbotn,-PT1M22S
3440189720,61.5991679951549,5.10570757091045,bus,250,Florø terminal,Førde sentralsjukehus,Midttunet,PT4M29S
3350447514,60.3571773972362,5.45184480026364,bus,28,Arna terminal A,skyss.no,"Haukeland, Unnelandsveg",PT5M23S
3350377342,60.4148999601603,5.21940004080534,bus,407,Kleppestø terminal E,skyss.no,Kleppestø US,PT19M5S
3350377332,60.4199000168592,5.23855000734329,bus,408,Kleppestø terminal E,Hanevik,Florvågøen kryss,PT4M20S
3350377331,60.4673000145704,5.22367003373802,bus,408,Åsebø,Erdal ungdomsskule,Strømsnes,PT8S
3350324137,59.7704849950969,5.41035597212613,bus,673,Valvatne snuplass,Skulerute,"Tjødnalio skule, snuplass",PT5M31S
3350361502,60.5314793251455,5.25711718015373,bus,300,Knarvik terminal B,skyss.no,Flatøy terminal  B,PT1M1S
3350377346,60.4074999969453,5.22682003676891,bus,407,Haugland verkstedet,Kleppestø terminal,Kleppestø terminal E,PT18S
3350324152,59.9257413949817,5.47149701043963,bus,671,Fitjar vgs.,skyss.no,Garasje Stord,-PT2M11S
3350377335,60.4074999969453,5.22680997848511,bus,408,Hanevik,Kleppestø terminal,Kleppestø terminal E,PT5S
3350361503,60.3886117134243,5.33290408551693,bus,300,Knarvik terminal A,Bergen busstasjon,Bergen busstasjon J,PT1M3S
3350361500,60.500998115167,5.36156977526844,bus,300,Bergen busstasjon J,Knarvik terminal,Hylkje,PT5M1S
3350361501,60.5448336247355,5.28030982241035,bus,300,Bergen busstasjon J,Knarvik terminal,Kvernhusmyrane,PT3M41S
3350377356,60.4288000054657,5.18062996678054,bus,403,Stongafjellet snuplass,Krokåsfeltet,"Krokåsfeltet, Peragjeret",-PT1M14S
3350361509,60.5693037528545,5.23489491082728,bus,320,Alversund skule,Knarvik terminal,Alverflaten nord,-PT3M54S
3350387091,60.1811000145972,5.45213003642857,bus,99,Mobergslien,Skulerute Kuventræ,Moberg,-PT50S
3350447641,60.4888761229813,5.27102552354336,bus,3E,Salhus kai,Sentrum ekspress,Støbotn,PT4M56S
257055990,60.107875,5.38535,ferry,1018,Halhjem,Sandvikvåg,Sandvikvåg,PT0S
3350135607,60.2794819325209,6.25042492523789,bus,982,Jondal skule,skyss.no,Garasje Jondal,-PT4S
3350387045,60.2883000299335,5.26235997676849,bus,56,Espeland kai,Birkelandsskiftet,Birkelandsskiftet C,PT8S
3350387075,60.2883000299335,5.26231999509037,bus,53,Milde snuplass,Birkelandsskiftet,Birkelandsskiftet D,PT2S
3350135619,60.3781831171364,6.64432844147086,bus,980,Hauso skule,Odda,Hausaneset,-PT2S
3350387079,60.2282000239938,5.36939000710845,bus,53,Lagunen terminal I,skyss.no,Sagstad,PT4M50S
3350135618,60.0565856695175,6.54553656466305,bus,980,Utne,Odda,Hovden,PT16M
3350387102,60.1716999616474,5.42047997005284,bus,603,Røttingen snuplass,Tøsdalskiftet,Skeie,-PT1M6S
3350135607,60.2759153489023,6.25142849050462,bus,981,Ytre Årsand,Jondal,Jondal kai,-PT4M37S
3350150127,60.7315929885954,5.79904317855835,bus,922,Modalstunnelen sør,Dale,Eidsøyra,PT34S
3350361440,60.9019344672561,5.4654048755765,bus,351,Duesundøy ferjekai,Matre,Krossleitet,PT9S
3350150122,60.7817108184099,5.94770058989525,bus,922,Modalstunnelen sør,Bergo,Flatekvål Dalastovo,PT3M28S
3350377372,60.3622999973595,5.0741000007838,bus,449,Tranevågen ungdomsskule,skyss.no,GARASJE Straume,-PT8M31S
3350150125,60.5864661186934,5.81586230546236,bus,922,Eidslandet,Dale,Dale stasjon,PT5M43S
3350377381,60.3272000234574,5.03650004044175,bus,448,Søre Bildøyna snuplass,skyss.no,Ulveset skule,PT3M52S
3350377380,60.3597000148147,5.12350000441074,bus,448,Liaskjæret snuplass,Straume terminal,Straume terminal C,PT5M52S
3350377370,60.3703000210226,5.15196997672319,bus,449,Hjelteryggen snuplass,Bildøy skulesenter,Straume terminal C,PT4M15S
3350377353,60.4043000377715,5.2140399813652,bus,403,Stongafjellet snuplass,Krokåsfeltet,Holmedal,-PT15S
3350361511,60.5469208862633,5.2883971016854,bus,320,Manger senter,Knarvik terminal,Knarvik terminal B,PT3M22S
3350377375,60.3550000302494,5.12549003586173,bus,449,Knarrevik rv. 555,Bildøy skulesenter,Lonavegen,-PT52S
3350377320,60.3118000365794,5.26770997792482,bus,23,Straume terminal A,Kokstad - Flyplassen,Dolvik terminal B,PT2M58S
3350447639,60.3613988589495,5.23542473092675,bus,3E,Støbotn,Vadmyra,Loddefjord terminal B,PT9M15S
3350361515,60.5464919004589,5.28649373911321,bus,320,Manger senter,Knarvik terminal,Knarvik terminal B,PT1M44S
3350447637,60.4868865106255,5.27836295776069,bus,3E,Støbotn,Sentrum ekspress,Toppe,-PT5M52S
3350387080,60.2975000068545,5.32773999497294,bus,53,Milde snuplass,Lagunen terminal,Lagunen terminal I,PT27S
3350377317,60.289799971506,5.25513997301459,bus,23,Bergen Lufthavn,Straume terminal,Kokstadskiftet,PT23S
3350447631,60.3980211541057,5.32090296037495,bus,3E,Støbotn,Vadmyra,Torget D,-PT50S
3350387045,60.2883000299335,5.26309004053473,bus,57,Espehaugen,Birkelandsskiftet,Birkelandsskiftet C,PT1M7S
3350447702,60.4200954828411,5.46447473578155,bus,95,Risnes vest,Arna terminal,Arna terminal A,-PT1M45S
3350387150,60.2978999912739,5.32826000824571,bus,22,Fyllingsdalen terminal D,Lagunen terminal,Lagunen terminal I,-PT19S
3350135752,60.5937361624092,6.59121349453926,bus,990,Voss stasjon E,Bu,Svelgane,-PT41S
3350135734,59.7266148682684,5.86545299738646,bus,641,Etne terminal,Skånevik,Mortveit,PT13S
3350135741,60.4697434231639,6.83583036996424,bus,991,Øvre Eidfjord,Odda,Bu terminal,PT1S
3350135729,59.6808244474232,5.79334432259202,bus,641,Sandvik,Etne,Nervik,PT27S
3350387121,60.2159000001848,5.42342998087406,bus,600,Bergen busstasjon L,Osøyro,Tøsdalskiftet B,PT3M3S
3350377390,60.2964999619871,5.13082997873425,bus,448,Straume terminal B,Liaskjæret,Liaskjæret snuplass,PT28S
3350150127,60.7843940332532,5.83825162611902,bus,923,Mo sentrum,Dale,Modalstunnelen sør,-PT1M21S
3350377454,60.3883999865502,5.3333199955523,bus,450E,Skogsskiftet terminal A,Bergen busstasjon,Bergen busstasjon U,-PT25M28S
3350387125,60.2230999711901,5.42411000467837,bus,600,Halhjemsmarka snuplass,Bergen busstasjon,Rådalslien,PT7S
3350377384,60.3546999581158,5.1252499781549,bus,449,Straume terminal B,Danielsen skole,Straume idrettspark,PT59S
3350453504,60.3354864567518,5.31429483555257,bus,14,Bergen busstasjon M,Fyllingsdalen terminal,Bønes skole,PT2M9S
3350377311,60.3342000022531,5.14540996402502,bus,23,Straume terminal C,skyss.no,Gavlen snuplass,PT3M48S
3350453502,60.3366502001882,5.29995893128216,bus,14,Fyllingsdalen terminal K,skyss.no,Bønestoppen,PT1M29S
3350377382,60.3012000303715,5.13062998652458,bus,449,Liaskjæret snuplass,Kolltveit skule,Liaskjæret,PT4S
3350387129,60.3456999734044,5.3929900098592,bus,600,Bergen busstasjon L,skyss.no,Sædal,PT3M
3350150125,60.6659544724971,5.76022960245609,bus,923,Dale stasjon,Mo,Leiren,PT1M10S
3350377381,60.3705000132322,5.06051000207663,bus,449,Tranevågen ungdomsskule,skyss.no,GARASJE Straume,-PT5M51S
3350453508,60.3359343856573,5.30171242542565,bus,14,Bergen busstasjon M,Fyllingsdalen terminal,Bønestoppen,PT5M30S
3350377393,60.386699968949,5.15068000182509,bus,424,Storavatnet terminal B,skyss.no,Hjelteryggen snuplass,PT9M48S
3350377341,60.4078999813646,5.22697996348143,bus,405,Øvre Florvåg snuplass,Kleppestø terminal,Kleppestø terminal B,PT2M8S
3350377343,60.4047000221908,5.19329996779561,bus,402,Kleppestø US,Hetlevik,Strusshamn,PT4M28S
3350377342,60.4031000006944,5.21235999651253,bus,402,Hetlevik snuplass,Myrane,Holmedal,PT4M2S
3350377366,60.3598000109196,5.12308996170759,bus,448,Liaskjæret snuplass,Straume terminal,Straume terminal C,-PT1M16S
3350453420,60.3410876635462,5.21947002969682,bus,43,Loddefjord terminal B,Bjorøy,"Sætre, Hillerenveien",-PT54S
3350447525,60.4199553374201,5.46386101283133,bus,92,Takvam ved rundkjøring,Arna terminal,Arna terminal A,PT7S
3350387052,60.2975000068545,5.32770001329482,bus,53,Milde snuplass,Lagunen terminal,Lagunen terminal I,PT4M26S
3350387076,60.1525000389665,5.43176000006497,bus,99,Halhjemsmarka snuplass,Skulerute,Haugland,PT1M6S
3350135777,59.9356707651168,6.58730828203261,bus,640,Vintertun,Skare skule,Espeland (Skarsmo),PT2M24S
3350447514,60.4196805786341,5.46232108958066,bus,93,Arna terminal B,Tungeland - Lone,Algaard,PT39S
3350387072,60.2899999637157,5.34871000796556,bus,75,Nesttun terminal D,skyss.no,Smørås snuplass,PT1M12S
3350387152,60.3874000255018,5.33522000536323,bus,67,Søråshøgda snuplass,Bergen busstasjon,Bergen busstasjon L,-PT3M10S
3350387079,60.1986999996006,5.43954997323453,bus,99,Lysekloster skole,Skulerute,Ulvensletta,PT8S
3350387157,60.3872000332922,5.33545997925103,bus,67,Søråshøgda snuplass,Bergen busstasjon,Bergen busstasjon L,-PT3M22S
3350387053,60.2880000416189,5.26169001124799,bus,53,Milde snuplass,Birkelandsskiftet,Birkelandsskiftet D,PT43S
3350387078,60.2841000258923,5.29459996148944,bus,99,Fana stadion,Skolerute,Skage,-PT1M59S
3350387156,60.3057000227273,5.32596001401544,bus,67,Bergen busstasjon L,Søråshøgda,Kilden senter,PT2M12S
3350387113,60.2968000341207,5.32773002050817,bus,600,Bergen busstasjon L,Halhjem,"Rådal, Fanavegen",PT1S
3350387110,60.1958000287414,5.46234003268182,bus,600,Halhjemsmarka snuplass,Bergen busstasjon,Flåten sør,PT2M58S
3350387017,60.2885000221431,5.26274998672307,bus,57,Espehaugen,Birkelandsskiftet,Birkelandsskiftet C,-PT1S
3350150105,60.6068686768413,5.82859240472317,bus,922,Eidslandet,Dale,Dalseiddalen,PT8M11S
3350387117,60.1607999671251,5.4369199834764,bus,600,Halhjemsmarka snuplass,Bergen busstasjon,Lekven,PT1M10S
3350387114,60.3678000345826,5.34129001200199,bus,600,Bergen busstasjon L,Halhjem,Minde,PT1M2S
3350387115,60.3508000262082,5.33790003508329,bus,600,Halhjemsmarka snuplass,Bergen busstasjon,Kristianborg C,PT40S
3350453421,60.3720651660115,5.21276995539665,bus,43,Loddefjord terminal B,skyss.no,Storavatnet terminal B,PT38S
3350387119,60.2988000400364,5.32809002324939,bus,600,Halhjemsmarka snuplass,Bergen busstasjon,"Hop, Sjølinjen",PT2M47S
3350377350,60.372500019148,5.21245001815259,bus,401,Kleppestø terminal B,skyss.no,Storavatnet terminal A,PT3M48S
3350377354,60.4588000103831,5.15175003558397,bus,402,Kleppestø US,skyss.no,Ravnanger terminal B,-PT56S
3350361439,60.8377591799945,5.33238700591028,bus,350,Sløvågen,Duesundøy,Reknes,PT1M6S
3440199798,61.4186858385801,5.81656370311975,,820,Førde rutebilstasjon,Vadheim-Høyanger-Sogndal,Langeland,PT2M36S
3350135610,60.1633335649967,5.9064241591841,bus,740,Gjermundshamn kai,Osøyro,Mundheim terminal,PT3S
3350387083,60.2049000095576,5.45098003931344,bus,99,Eidsvik snuplass,Skulerute,Tøsdalskiftet A,-PT1M47S
3350361437,60.8839029818773,5.22117499262094,bus,350,Ostavatn,Hosteland,Haugen nord,PT36S
3350447653,60.4200060479343,5.30997580848634,bus,3E,Støbotn,Vadmyra,Bradbenken,-PT4M10S
3350387086,60.1698000356555,5.42352000251412,bus,99,Nordstrøno snuplass,Skulerute Osøyro,Grindevoll aust,PT25S
3350135613,60.2322022989392,5.84015850909054,bus,740,Gjermundshamn kai,Osøyro,Holdhus,-PT42S
3350135605,60.0411566812545,5.53769996389747,bus,656,Hodnanes,Våge,Tysnes skule,PT1M1S
3350135614,60.2282113395631,5.66214968450367,bus,740,Osøyro terminal B,Eikelandsosen,Bjåneset,PT5M24S
3350447651,60.4623319767416,5.37099254317582,bus,3E,Åsane terminal B,skyss.no,Flaktveit snuplass,PT3M13S
3350447502,60.4249404743314,5.62500058673322,bus,93,Arna terminal B,skyss.no,Trengereid,PT7M40S
3350387072,60.3197999764234,5.35235999152064,bus,76,Smørås snuplass,Nesttun terminal,Nesttun terminal D,-PT47S
3350387071,60.3171999938786,5.24728001095355,bus,52,Lagunen terminal F,Grimstad,Ytre Hope,PT5M7S
3350447503,60.3796574939042,5.52199671976268,bus,93,Arna terminal B,skyss.no,Osevatn,PT4M38S
3350453504,60.3888018988073,5.33429296687245,bus,40E,Olsvikskjenet,Bergen busstasjon,Bergen busstasjon Q,PT2M37S
3350387027,60.2883000299335,5.26235000230372,bus,57,Flesland snuplass,Birkelandsskiftet,Birkelandsskiftet C,PT1M15S
3350387024,60.2719999942929,5.22308003157377,bus,57,Birkelandsskiftet C,skyss.no,Espeland kai,-PT1M15S
3350387101,60.3778999764472,5.33719000406563,bus,600,Halhjemsmarka snuplass,Bergen busstasjon,Bergen busstasjon L,PT2M6S
3350387102,60.1836000010371,5.46885997988284,bus,600,Halhjemsmarka snuplass,skyss.no,Osøyro terminal A,PT8M7S
3350387039,60.2883000299335,5.26235997676849,bus,56,Espeland kai,Birkelandsskiftet,Birkelandsskiftet C,PT2M20S
3350387106,60.162699976936,5.43797995895147,bus,600,Bergen busstasjon L,Halhjem,Nesjabuen,PT2M59S
3350387103,60.3236999921501,5.33535000868142,bus,600,Bergen busstasjon L,Halhjem,Lagunen terminal C,PT7S
3350150117,60.8272891771048,6.24384127557278,bus,922,Eksingedalen skule,Gullbrå,Ekse,PT49S
3350387107,60.1444000191987,5.43836996890604,bus,600,Halhjemsmarka snuplass,Bergen busstasjon,Auredalen,-PT8M58S
3350377370,60.386699968949,5.15068000182509,bus,448,Straume terminal C,skyss.no,Hjelteryggen snuplass,PT14M40S
3350150124,60.5866678711027,5.83180007524788,bus,921,Rødland snuplass,Dale,Dale heradshus,-PT5S
3350387108,60.3872000332922,5.33306996338069,bus,600,Bergen busstasjon L,Halhjem,Danmarks plass E,-PT4M6S
3440189710,61.4532616082579,5.85325179621577,bus,201,Førde rutebilstasjon,Hogane,Førde rutebilstasjon,-PT54M38S
3350377340,60.4185999836773,5.2159499656409,bus,403,Krokåsfeltet snuplass,Stongafjellet,Kleppestø ungdomsskole,PT3M10S
3350447601,60.4211117047817,5.30859086662531,bus,3E,Vadmyra,Åsane terminal,Åsane terminal B,PT4M45S
3350135765,60.0734476279467,6.5566398203373,bus,994,Freim snuplass,Odda,Freimsvegen ved nr 46,-PT4M1S
3350377388,60.2411000244319,5.04587000235915,bus,420,Telavåg snuplass,Spildepollen skule,Kårevik utmark,PT1M4S
3350377345,60.4077999852598,5.22696001455188,bus,400,Kleppestø ungdomsskole,skyss.no,Kleppestø terminal B,-PT15M26S
3350377339,60.4039999656379,5.21425003185868,bus,401,Marikoven snuplass,Kleppestø terminal,Holmedal,-PT19S
3350387075,60.2906000241637,5.21288000978529,bus,57,Flesland snuplass,Birkelandsskiftet,Slettenskiftet,PT11S
3350135766,60.0707250181586,6.54748921282589,bus,994,Freim snuplass,Odda,Odda busstasjon Toppensstopp,-PT1M58S
3350453417,60.3617337159812,5.23510336875916,bus,42,Alvøen kai,Loddefjord terminal,Loddefjord terminal B,-PT2M6S
3440189673,61.325773531571,5.00011092983186,bus,232,Herland båthamn,Gjervik ferjekai,Urane,PT6S
3350453401,60.3162923175842,5.17114156857133,bus,43,Tyssøy snuplass,Loddefjord terminal,Bjorøy skule,PT21S
3350453412,60.3400620538741,5.20025099627674,bus,42,Alvøen kai,Loddefjord terminal,Medhaugsflaten,PT1M9S
3350453403,60.3658069018275,5.18256031908095,bus,43,Loddefjord terminal B,skyss.no,Ramsvik snuplass,PT6M16S
3350453414,60.3518413100392,5.18589665181935,bus,42,Loddefjord terminal B,Håkonshella-Alvøen,Alvøen kai,PT3M18S
3350447590,60.3716898243874,5.35941738635302,bus,27,Åsane terminal E,Haukeland sjukehus,Haukeland sjukehus sør E,PT1M51S
3350377336,60.4113000165671,5.15481001697481,bus,402,Hetlevik snuplass,Myrane,Follese bedehus,-PT1M52S
3350377345,60.4071000125259,5.22715003229678,bus,401,Kleppestø terminal B,Marikoven,Holmedal,-PT8M52S
3350135657,60.3775832243264,6.64362285286188,bus,980,Hauso skule,skyss.no,Garasje Utne,PT28S
3350447589,60.3890543617308,5.34001420252025,bus,27,Haukeland sjukehus sør F,Åsane terminal,Gamle Bergen,PT5M21S
3440189676,61.2089287117124,5.82188436761498,bus,200,Leirvik,Vadheim-Førde,Ytredal,-PT8M51S
3350453410,60.3674692008644,5.25066638365388,bus,43,Loddefjord terminal B,skyss.no,Garasje Spelhaugen,PT3M42S
3350447584,60.4630876891315,5.32100203447044,bus,27,Haukeland sjukehus sør F,Åsane terminal,Åsane terminal F,PT2M10S
3350377350,60.3721000347286,5.19148997962475,bus,424,Storavatnet terminal A,Alvøen skole,Stiaberget,PT2M49S
3350447582,60.3719373419881,5.35825029015541,bus,27,Haukeland sjukehus sør F,Åsane terminal,Haukeland ved Ibsens gt H,PT1M11S
3350447623,60.362488841638,5.22835660725832,bus,3E,Vadmyra,Åsane terminal,Lyngfaret,PT9S
3350377393,60.3659000247717,5.18254003487527,bus,441,Knarrevik rv. 555,skyss.no,Ramsvik snuplass,PT12M40S
3350377360,60.2619999647141,5.10941002517939,bus,420,Skogsskiftet terminal A,Skogsvåg skule,Huldaberget,PT4M9S
3350377394,60.4054999910295,4.99633002094924,bus,465,Ågotnes terminal B,skyss.no,GARASJE Straume,PT1M9S
3350447727,60.4202487040311,5.46499005518854,bus,92,Takvam ved rundkjøring,Arna terminal,Arna terminal A,-PT24S
3350377319,60.3533000126481,5.13164998032153,bus,449,Straume terminal B,Danielsen skole,Straume idrettspark,PT1M44S
3350447621,60.4623576253653,5.37095826119184,bus,3E,Åsane terminal B,skyss.no,Flaktveit snuplass,-PT1M52S
3350447622,60.4623660910875,5.37094099447131,bus,3E,Åsane terminal B,skyss.no,Flaktveit snuplass,PT2M3S
3350135740,60.6289699953049,6.41240336000919,bus,950,Gudvangen kai,Voss,Voss stasjon B,-PT1M56S
3350447620,60.3928775992244,5.32568450085819,bus,3E,Salhus kai,Vadmyra,Olav Kyrres gate F,PT10M2S
3350447724,60.4200218897313,5.46423610299826,bus,92,Takvam ved rundkjøring,Arna terminal,Arna terminal A,PT1M5S
3350377380,60.3349999710917,5.2581700310111,bus,23,Bergen Lufthavn,Straume terminal,Bjørgelien,PT4M6S
3350453415,60.38908126764,5.33400035463274,bus,40,Storavatnet terminal B,Bergen busstasjon,Bergen busstasjon Q,-PT13S
3350453416,60.3928884118795,5.32701873220503,bus,40,Bergen busstasjon H,Olsvik,Olav Kyrres gate H,PT1M33S
3350377311,60.365099972114,5.14722003601491,bus,449,Valen Tona,Brathholmen skule,Arefjordsjøen,-PT29S
3350377391,60.3818999882787,5.27295000851154,bus,441,Hjelteryggen snuplass,Bergen busstasjon,Møhlenpris,-PT12M23S
3440189691,61.4523694384843,5.85359587334096,bus,230,Førde rutebilstasjon,Askvoll,Førde rutebilstasjon,PT49S
3350447618,60.3806499950588,5.26852553710341,bus,3E,Vadmyra,Åsane terminal,Møhlenpris,PT10S
3350453413,60.3810588642955,5.22200396284461,bus,40,Bergen busstasjon H,Olsvik,Olsvikåsen,PT4M4S
3350150131,60.8335476089269,5.86420811712742,bus,923,Straume,Mo,Hugnastad,-PT15S
3350377384,60.3597000148147,5.12294000945985,bus,23,Bergen Lufthavn,Straume terminal,Straume terminal C,PT3M39S
3350377382,60.296599958092,5.13062998652458,bus,466,Bildøy skulesenter,skyss.no,Liaskjæret snuplass,PT1M25S
3350150123,60.547023396939,5.28851419687271,bus,924,Knarvik terminal C,Mo,Gjervik ytre,-PT3M48S
3350377396,60.3718999586999,5.20750997588038,bus,442,Brattholmen kai,Bergen busstasjon,Storavatnet terminal B,-PT4M53S
3350377323,60.3846999630332,5.11815000325441,bus,449,Våge snuplass,Bildøy skulesenter,Vågaleite,PT5M48S
3350135765,60.0699207745492,6.54656644910574,bus,995,Odda busstasjon,Odda,Odda busstasjon,-PT3M
3440199798,61.4524617232382,5.8543261885643,,201,Vieåsen,Vieåsen-Førde rutebilstasjon,Førde rutebilstasjon,-PT2M6S
3350453406,60.2982348483056,5.16341806389391,bus,42,Loddefjord terminal B,skyss.no,Tyssøy snuplass,PT7M34S
3350453407,60.3451497852802,5.19008156843483,bus,42,Loddefjord terminal B,Håkonshella-Alvøen,Håkonshellaveien,-PT50S
3350453421,60.3909904137254,5.32533958554268,bus,40,Storavatnet terminal B,Bergen busstasjon,Bergen busstasjon Q,-PT5S
3350447609,60.4772118665278,5.35400468856096,bus,3E,Åsane terminal B,skyss.no,Garasje Haukås,-PT2M43S
3350377383,60.3476999793202,4.99092000536621,bus,467,Syltøyna snuplass,Straume terminal,Algrøyna kryss,-PT29S
3350453422,60.3716412931681,5.21485486999154,bus,40,Bergen busstasjon H,Olsvik,Storavatnet terminal B,PT4M4S
3350453402,60.3720608074218,5.21279199980199,bus,42,Loddefjord terminal B,skyss.no,Storavatnet terminal B,PT2M13S
3350377392,60.3273000195622,5.03635000437498,bus,466,Ekren snuplass,Straume terminal,Ulveset,PT2M2S
3350377301,60.3728000074625,5.18435002304614,bus,424,Ramsvik snuplass,Bergen busstasjon,Breivikdalen,PT43S
3350135694,60.0161583255976,5.81965335644782,bus,654,Stussvikhovda snuplass,Gjermundshamn,Ølve,-PT28S
3350377374,60.405200002715,4.99695003032684,bus,465,Straume terminal C,Ågotnes terminal,Ågotnes terminal B,-PT1M17S
3350453130,60.3492678981274,5.28761171735823,bus,46,Løvstakkskiftet,Fyllingsdalen terminal,Fyllingsdalen terminal K,-PT8S
257055910,60.11440833333334,5.402378333333333,ferry,1018,Sandvikvåg,Halhjem,Halhjem,PT0S
