VehicleRef,Latitude,Longitude,Vehicle,LineNum,StartName,DestinationName,StopPointName,Delay
3350387031,60.3197999764234,5.35244003869593,bus,29,Arna terminal B,Nesttun terminal,Nesttun terminal D,-PT1M42S
3350447621,60.4717083927244,5.32967864535749,bus,4,Hesjaholtet,Flaktveit,IKEA,PT8M38S
3350447631,60.4828321002424,5.38427853025496,bus,3,Støbotn snuplass,skyss.no,Garasje Haukås,-PT6M51S
3350447634,60.3809690941125,5.26900196447968,bus,3,Vadmyra,Støbotn,Møhlenpris,-PT4S
3350447614,60.4828221257776,5.38430275395513,bus,5,Fyllingsdalen terminal K,skyss.no,Garasje Haukås,-PT3M9S
3350447633,60.462351590395,5.37098743021488,bus,3,Støbotn snuplass,skyss.no,Flaktveit snuplass,-PT2M3S
3350447616,60.3664527274668,5.36564170382917,bus,5,Sletten,Fyllingsdalen terminal,Fridalen,PT1M56S
3350447615,60.344850635156,5.26025176048279,bus,5,Fyllingsdalen terminal K,skyss.no,Garasje Haukås,-PT1M17S
3350387038,60.4219000227749,5.46819001436234,bus,29,Arna terminal B,Nesttun terminal,Bommane,PT20S
3350447638,60.4827852454036,5.38432940840721,bus,3,Støbotn snuplass,skyss.no,Garasje Haukås,-PT9M52S
3350447639,60.397834489122,5.32134954817593,bus,3,Støbotn,Vadmyra,Torget D,-PT8S
3350447629,60.3909236937761,5.32512282952666,bus,4,Hesjaholtet,Flaktveit,Torget B,PT52S
3350361472,60.6261020433158,5.47340179793537,bus,344,Ostereidet senter,skyss.no,Ostereidet garasje,PT1M31S
3350361483,60.626620631665,5.47466503456235,bus,343,Ostereidet garasje,skyss.no,"Ostereidet skule, stopp 5",PT4M23S
3350361461,60.5656033940613,5.36874761804938,bus,345,Ostereidet garasje,skyss.no,Knarvik terminal C,-PT4M39S
3350361491,60.7004688866436,5.32593344338238,bus,342,Myking butikk,Skauge - Sævrås,"Myking, butikk",PT1M22S
3350324148,59.7739345673472,5.17432417720556,bus,552,Langevåg kai,Svortland,Tverråno,PT1M49S
3350324145,59.734241142869,5.27349064126611,bus,552,Gassasundet,Sakseidteen,Nedrebø,PT1M10S
3350324150,59.7972407005727,5.20447975024581,bus,552,Tormodsæter,skyss.no,"Bremnes ungdomsskule, ny",PT35M6S
3350387042,60.3446000162512,5.40404004044831,bus,29,Nesttun terminal C,Arna terminal,Grimen,-PT19S
3350447611,60.4063169751316,5.32328702509403,bus,4,Hesjaholtet,Flaktveit,Sandvikstorget,PT5M21S
3350447601,60.4822870250791,5.38563522510231,bus,5,Fyllingsdalen terminal E,Sletten,Fyllingsdalen terminal E,PT0S
3350387046,60.3197999764234,5.35239997319877,bus,29,Arna terminal B,Nesttun terminal,Nesttun terminal D,-PT2M27S
3350447612,60.3428335301578,5.2663348428905,bus,4,Flaktveit snuplass,Hesjaholtet,Allestadhaugen,PT2M58S
3350447602,60.3837418276817,5.31652316451073,bus,5,Sletten,Fyllingsdalen terminal,Gyldenpris,PT4M10S
3350447615,60.4827930405736,5.3843143209815,bus,4,Flaktveit snuplass,skyss.no,Garasje Haukås,-PT4M40S
3350447625,60.4828984849155,5.38425816223025,bus,3,Støbotn snuplass,skyss.no,Garasje Haukås,-PT6M12S
3350387043,60.2617999725044,5.34373995848,bus,29,Nesttun terminal D,skyss.no,GARASJE Fana Bussdepot,-PT3M25S
3350447604,60.3549420274794,5.30109702609479,bus,5,Fyllingsdalen terminal E,Sletten,Dag Hammarskjõlds vei,PT4M46S
3350447624,60.4875704739243,5.25981028564274,bus,3,Støbotn,Vadmyra,Lokketodalen,PT1M36S
3350447627,60.4634613543749,5.32207751646638,bus,3,Vadmyra,Støbotn,Åsane terminal B,PT6M50S
3350447616,60.3449384775013,5.26043490506709,bus,4,Hesjaholtet,Flaktveit,Hesjaholtet,-PT39M8S
3350447606,60.347456317395,5.35877885296941,bus,5,Sletten,Fyllingsdalen terminal,Sletten,-PT41M21S
3350447619,60.4869425017387,5.27909528464079,bus,4,Hesjaholtet,skyss.no,Støbotn,PT2M19S
3350447618,60.3495486918837,5.28784431517124,bus,4,Hesjaholtet,Flaktveit,Løvås,PT1M58S
3350447628,60.4635281581432,5.31475248746574,bus,3,Støbotn,Vadmyra,Åsane brannstasjon,-PT1M3S
3350361483,60.6264415942132,5.47366716898978,bus,344,Nesbø kai,skyss.no,Ostereidet garasje,PT3M12S
3350361477,60.630616620183,5.47672673128545,bus,345,Norland,Knarvik,Ostereidet senter,PT1M29S
3350361487,60.6256366800517,5.4750232771039,bus,344,Ostereidet garasje,skyss.no,"Ostereidet skule, stopp 5",PT3M57S
3350324157,59.6076663583517,5.23650373332202,bus,552,Langevåg kai,Svortland,Langevåg kai,-PT14M6S
3440189694,61.7767275497317,6.2140635587275,bus,100,Byrkjelo,Sandane,Sandane rutebilstasjon,-PT48S
3350324133,59.7533818054944,5.31797893345356,bus,554,Moster skule,Håvik,Siggjarvågen kai,-PT4M
3350324136,59.7942874208093,5.17917528748512,bus,554,Gassasundet,skyss.no,Svortland terminal B,PT34M36S
3350324156,59.7951269522309,5.18212194554508,bus,552,Våge skule,Svortland,Svortland terminal D,-PT4M56S
3350447642,60.348772443831,5.28665970079601,bus,4,Hesjaholtet,skyss.no,Fyllingsdalen terminal E,-PT21S
3350447580,60.4828248079866,5.38432530127466,bus,39,Viddalen,skyss.no,Garasje Haukås,-PT6M38S
3350447641,60.4446191713214,5.32613209448755,bus,4,Flaktveit snuplass,Hesjaholtet,Eidsvåg E39 B,PT1M8S
3350324141,59.6941135358065,5.36397764459252,bus,554,Moster skule,Totland,Hestavollen kryss,-PT55S
3350447654,60.423324611038,5.30496267601848,bus,3,Støbotn,Vadmyra,Gamle Bergen,-PT1M5S
3350361469,60.6261446233839,5.47230301424861,bus,342,Myking butikk,skyss.no,Ostereidet garasje,-PT13M53S
3350447653,60.4872015025467,5.26189947500825,bus,3,Vadmyra,Støbotn,Marikollen,-PT38S
3350447636,60.3446543309838,5.26059893891215,bus,5,Fyllingsdalen terminal K,skyss.no,Hesjaholtet,-PT1M59S
3350447645,60.3647065255791,5.22523929364979,bus,4,Flaktveit snuplass,skyss.no,Vadmyra,-PT13M31S
3350447635,60.3918750397861,5.32612832263112,bus,5,Fyllingsdalen terminal E,Sletten,Nygaten,PT3M53S
3350387080,60.2618999686092,5.34372000955045,bus,22,Lagunen terminal I,skyss.no,GARASJE Fana Bussdepot,-PT14S
3350447648,60.4049130063504,5.32216862775385,bus,4,Flaktveit snuplass,Hesjaholtet,Skutevikstorget,PT1M32S
3350447638,60.3458969481289,5.28246455825865,bus,5,Fyllingsdalen terminal E,Sletten,Torgny Segerstedts vei,PT57S
3350447657,60.4257471486926,5.30418877489865,bus,3,Vadmyra,Støbotn,Eidsvåg E39 A,PT3M53S
3350447647,60.4735721927136,5.33385367132723,bus,4,Flaktveit snuplass,Hesjaholtet,IKEA,-PT9S
3350447649,60.4625246766955,5.37051192484796,bus,4,Flaktveit snuplass,Hesjaholtet,Breimyra,-PT22S
3350361442,60.7544615864754,5.36820371635258,bus,345,Norland,skyss.no,Hope parkering,PT17M51S
3350361472,60.6256574671715,5.47544279135764,bus,342,Ostereidet garasje,skyss.no,"Ostereidet skule, stopp 1",PT3M51S
3350324164,59.7061938699335,5.20300017669797,bus,552,Bremnes ungdomsskule ny,Grutle,Lykling kyrkje,-PT2M43S
3350324145,59.7364403866231,5.3455305006355,bus,554,Mosterhamn kai,Gassasundet,Gassasundet,-PT5M47S
3350361479,60.7333467341959,5.17203566618264,bus,342,Lindås skulestopp,Myking - Skauge,Fjellsenda vest,-PT4S
3350447571,60.4710116889328,5.27452169917524,bus,39,Viddalen,Bergen busstasjon,Bryggjedalen,-PT4M12S
3350324136,59.7962630353868,5.18485360778868,bus,555,Svortland terminal B,skyss.no,Garasje Bømlo,PT4M10S
3350447640,60.4828745126724,5.38428934291005,bus,4,Flaktveit snuplass,skyss.no,Garasje Haukås,-PT5M33S
3350447630,60.3490031976253,5.28728289529681,bus,5,Sletten,Fyllingsdalen terminal,Fyllingsdalen terminal K,PT5M41S
3350361487,60.6264193821698,5.47368778847158,bus,341,Høylandsmyr,skyss.no,Ostereidet garasje,PT4M52S
3350324167,59.7961865924299,5.18449058756232,bus,552,Svortland terminal D,skyss.no,Garasje Bømlo,PT44S
3350387020,60.3395999595523,5.39536996744573,bus,29,Arna terminal B,Nesttun terminal,Helldal,PT3M31S
3350447630,60.3483461402357,5.36020880565047,bus,4,Hesjaholtet,skyss.no,Sletten,-PT5M40S
3350447640,60.3603778593242,5.23165170103312,bus,3,Vadmyra,Støbotn,Lyngfaret,PT3S
3350447633,60.4625942464918,5.37052835337818,bus,4,Flaktveit snuplass,skyss.no,Garasje Haukås,-PT8S
3350447623,60.3906745836139,5.33607386983931,bus,5,Sletten,Fyllingsdalen terminal,Stadsporten,PT1M59S
3350447622,60.3475178405643,5.35893375054002,bus,5,Sletten,Fyllingsdalen terminal,Sletten,-PT1M12S
3350387023,60.2986999601126,5.32790997996926,bus,29,Nesttun terminal D,skyss.no,Lagunen terminal F,PT28S
3350447645,60.3653025627136,5.22583030164242,bus,3,Vadmyra,Støbotn,Vadmyra,-PT28M18S
3350447635,60.4828079603612,5.3843264747411,bus,4,Hesjaholtet,skyss.no,Garasje Haukås,-PT8M7S
3350447624,60.4827721696347,5.38433913141489,bus,5,Fyllingsdalen terminal K,skyss.no,Garasje Haukås,-PT7M9S
3350387021,60.2617999725044,5.34394003450871,bus,29,Nesttun terminal D,skyss.no,GARASJE Fana Bussdepot,-PT5M40S
3350447637,60.3957053180784,5.32564133405685,bus,4,Flaktveit snuplass,Hesjaholtet,Olav Kyrres gate G,PT7M53S
3350447647,60.4868543241173,5.27798149734735,bus,3,Vadmyra,Støbotn,Støbotn snuplass,PT2M19S
3350447636,60.3449058718979,5.26010189205408,bus,4,Hesjaholtet,Flaktveit,Allestadhaugen,-PT2M15S
3350447646,60.3821413870901,5.31415368430316,bus,3,Støbotn,Vadmyra,Lyngbø rv. 555 A,PT4M11S
3350387029,60.3199999686331,5.35223996266723,bus,29,Arna terminal B,Nesttun terminal,Nesttun terminal D,PT48S
3350361491,60.5470777954906,5.28893890790641,bus,341,Myking butikk,Knarvik,Knarvik terminal C,PT1M29S
3350361462,60.6263999361545,5.47364965081215,bus,344,Rødland,Ostereidet,Ostereidet senter,PT42S
3350361472,60.6262447871268,5.4724105540663,bus,343,Hindenes,skyss.no,Ostereidet garasje,-PT24S
3350324149,59.7942119836807,5.17892802134156,bus,555,Svortland terminal B,Halleråker,Svortland terminal B,-PT2M41S
3350324155,59.7922769375145,5.18977898173034,bus,554,Siggjarvågen kai,skyss.no,"Svortland skule, til Hiskjo",PT16M23S
3350324156,59.7364765964448,5.3455376252532,bus,554,Mosterhamn kai,Gassasundet,Gassasundet,-PT36S
3350324147,59.792275428772,5.18881883472204,bus,555,Svortland terminal B,skyss.no,"Bremnes ungdomsskule, ny",PT4M25S
3350324148,59.7941924538463,5.17922918312252,bus,555,Svortland terminal B,Halleråker,Svortland terminal B,-PT1M50S
3350387072,60.3203000407666,5.35238002426922,bus,29,Nesttun terminal D,skyss.no,PAUSE Nesttun,PT30M20S
3350453009,60.3756356891245,5.35908202640712,bus,6,Lyngbø D,Birkelundstoppen,Haukeland sjukehus sør F,PT1M33S
3350453008,60.3841949533671,5.30164210125804,bus,6,Birkelundstoppen A,Lyngbø,Damsgård hovedgård,PT5M59S
3350453005,60.3536740969867,5.36850202828646,bus,6,Birkelundstoppen A,Lyngbø,Wiers-Jenssens vei,PT41S
3350453007,60.3915329743177,5.32575306482613,bus,6,Lyngbø D,Birkelundstoppen,Nygaten,PT54S
3350453006,60.3803040739149,5.26900280267,bus,6,Lyngbø D,Birkelundstoppen,Lyderhornsveien,-PT1M11S
3350453001,60.3855639696121,5.31909322366118,bus,6,Birkelundstoppen A,Lyngbø,Gyldenpris nord,PT47S
3350135723,59.9312546756119,5.81047148443758,bus,760,Husnes ungdomsskule,Lia (Herøysund),Lia,PT7M6S
3350453003,60.3453381266445,5.36393892019987,bus,6,Birkelundstoppen A,Lyngbø,Kolstibotn,-PT7M3S
3350447537,60.4632189497352,5.32099985517561,bus,37,Breistein snuplass,Åsane terminal,Åsane terminal F,PT2M42S
3350447527,60.4827901069075,5.38430962711573,bus,38,Hetlebakken snuplass,skyss.no,Garasje Haukås,PT9M14S
3350447548,60.5162906460464,5.28285850770772,bus,36,Åsane terminal D,Hordvik-Klauvaneset,"Klauvaneset, Tellevikv.",-PT1M38S
3350324159,59.9124714173377,5.32988735474646,bus,680,Rydland,skyss.no,Garasje Fitjar,-PT28S
3350447524,60.4314934462309,5.45239632949233,bus,38,Hetlebakken snuplass,skyss.no,Garnesstølen,-PT1M9S
3350361472,60.6261509936303,5.4734637401998,bus,340,Knarvik terminal C,Ostereidet,Ostereidet senter,-PT24S
3350447541,60.5162592977285,5.28288901783526,bus,36,Bergen busstasjon K,Hordvik-Klauvaneset,"Klauvaneset, Tellevikv.",PT3M33S
3350447542,60.516913337633,5.31337911263108,bus,36,Klauvaneset Tellevikv.,Bergen busstasjon,Grøvlesvingen,PT39S
3350361460,60.5451808031648,5.28003808110952,bus,341,Knarvik terminal C,Myking,Knarvik terminal C,-PT2M11S
3350447550,60.4638201836497,5.32122591510415,bus,35,Åsane terminal D,Salhus - Klauvaneset,Rollandskrysset,PT33S
3350447548,60.5162913165987,5.28285716660321,bus,35,Klauvaneset Tellevikv.,Åsane terminal,Sveisdalen,-PT2M11S
3350135705,60.0541962403804,6.01918146014214,bus,760,Husnes sentrum sør,Odda,Årsnes kai,PT1M25S
3350447514,60.4221557546407,5.51562404260039,bus,38,Hetlebakken snuplass,skyss.no,Takvam ved rundkjøring,PT2M58S
3350447542,60.5159281287342,5.28383349068463,bus,35,Åsane terminal D,Salhus - Klauvaneset,"Klauvaneset, Tellevikv.",PT4M41S
3350447532,60.4628408420831,5.32128517515957,bus,36,Klauvaneset Tellevikv.,Bergen busstasjon,Åsane terminal A,PT1M52S
3350447533,60.4632347915322,5.32077371142805,bus,36,Klauvaneset Tellevikv.,Åsane terminal,Åsane terminal F,PT3M4S
3350447541,60.4630516469479,5.32101184129715,bus,35,Klauvaneset Tellevikv.,Åsane terminal,Åsane terminal F,PT56S
3350361484,60.6262545939535,5.47492948360741,bus,340,Ostereidet senter,skyss.no,"Ostereidet skule, stopp 1",PT6M21S
3350447531,60.5162761453539,5.28290200978518,bus,36,Bergen busstasjon K,Hordvik-Klauvaneset,"Klauvaneset, Tellevikv.",PT1M18S
3350361461,60.6264431867748,5.47371477819979,bus,342,Ostereidet skule stopp 1,skyss.no,Ostereidet garasje,PT2M4S
3350361487,60.5733362864703,5.37600106559694,bus,340,Ostereidet senter,skyss.no,Leknes aust,-PT1M
3350387050,60.3198999725282,5.35236996598542,bus,29,Arna terminal B,Nesttun terminal,Nesttun terminal D,PT6M23S
3350447610,60.3617473784834,5.23508769460022,bus,3,Støbotn,Vadmyra,Lyngfaret,PT4M53S
3350447611,60.4827028512955,5.3844475094229,bus,3,Støbotn snuplass,skyss.no,Garasje Haukås,-PT10M23S
3350447613,60.3649569768459,5.22535429336131,bus,3,Støbotn,Vadmyra,Vadmyra,PT1M30S
3350447605,60.4827845748514,5.38433904759586,bus,4,Flaktveit snuplass,skyss.no,Garasje Haukås,-PT1M27S
3350447608,60.3532835002989,5.29016006737947,bus,4,Flaktveit snuplass,Hesjaholtet,Løvås,PT4M53S
3350447617,60.3649206832051,5.2253669500351,bus,3,Støbotn,Vadmyra,Vadmyra,PT2M
3350447607,60.48280200921,5.38433829322457,bus,4,Hesjaholtet,skyss.no,Garasje Haukås,-PT3M30S
3350135726,60.3457739017904,6.39267437160015,bus,980,Jondal kai,Utne,Nedre Trå,-PT23S
3350447619,60.4828032664955,5.3842852357775,bus,3,Støbotn snuplass,skyss.no,Garasje Haukås,-PT3M11S
3350447609,60.4869330301881,5.27907365933061,bus,4,Flaktveit snuplass,skyss.no,Støbotn,PT7M3S
3350135617,59.9496171623468,6.5828621853143,bus,640,Odda barneskole,Skarsmo,Håbru snuplass,PT2M53S
3350135724,60.4118241369724,6.52177026495337,bus,980,Utne,Jondal,Vines,PT3M10S
3350135618,60.263257920742,6.6241445671767,bus,990,Odda busstasjon,Voss,Stor,PT5M28S
3350447552,60.4827391449362,5.38441465236247,bus,37,Åsane terminal F,skyss.no,Garasje Haukås,-PT2M10S
3350447601,60.3975755721331,5.3218933660537,bus,3,Vadmyra,Støbotn,Bontelabo,PT2M55S
3350447603,60.4869066271931,5.27849681675434,bus,3,Støbotn,Vadmyra,Toppe,-PT6M23S
3350447605,60.3649222757667,5.22535001859069,bus,3,Støbotn,Vadmyra,Vadmyra,PT5M1S
3350453166,60.3824066743255,5.31507426872849,bus,18,Barliveien,Formanns vei,Møhlenpris,-PT27S
3350447609,60.3650036640465,5.22540165111423,bus,3,Støbotn,Vadmyra,Vadmyra,-PT5S
3350447608,60.4828401468694,5.38431750610471,bus,3,Støbotn snuplass,skyss.no,Garasje Haukås,-PT4M24S
3350447558,60.4770316556096,5.35353555344045,bus,36,Bergen busstasjon K,Hordvik-Klauvaneset,Haukåsvegen,PT2M23S
3350453010,60.3811858501285,5.359470192343,bus,6,Birkelundstoppen A,Lyngbø,Årstadveien,PT1M26S
3350447546,60.4631701670587,5.32101519405842,bus,37,Breistein snuplass,Åsane terminal,Åsane terminal F,PT5M13S
3350447544,60.4808607604355,5.36793541163206,bus,37,Breistein snuplass,Åsane terminal,Vikaleitet,PT16S
3440189688,60.9313463140279,5.02573113888502,bus,361,Dalsøyra,Brandanger,Brandanger,PT3M12S
3350361462,60.5468773841858,5.28804640285671,bus,340,Knarvik terminal C,Ostereidet,Gjervik ytre,-PT2M5S
3350324182,59.8670273367316,5.33372190780938,bus,680,Rimbareid skule,Koløyholmen,Sjoarreiset,PT3M23S
3350135730,60.208794074133,6.11352086998522,bus,981,Jondal skule,Årsand,Kysnes,PT2M34S
3350361505,60.389097193256,5.34001026302576,bus,300E,Bergen busstasjon J,Knarvik terminal,Flatøy terminal  D,PT1M43S
3350135751,60.0686547718942,6.55239748768508,bus,760,Odda busstasjon,skyss.no,Garasje Odda,PT2M9S
3350387031,60.310200015083,5.29517998918891,bus,22,Lagunen terminal J,Fyllingsdalen terminal,Søvikgeilen,PT46S
3350361503,60.545199746266,5.28208552859724,bus,300E,Bergen busstasjon J,skyss.no,Knarvik garasje,-PT6M49S
3350361504,60.3887070994824,5.33295990899205,bus,300E,Knarvik terminal A,Bergen busstasjon,Bergen busstasjon J,-PT5M40S
3350135756,59.935740083456,6.00380343385041,bus,760,Åsvegen kryss,skyss.no,Årsnes kai,PT1M49S
3350135757,59.8594364337623,5.77314980328083,bus,760,Husnes sentrum sør,Odda,Onarheimselva,-PT6M49S
3350387039,60.3375000413507,5.27117002755404,bus,22,Fyllingsdalen terminal D,Lagunen terminal,Vardeveien,PT55S
3350377427,60.3617000207305,5.12664003297687,bus,460E,Bergen busstasjon U,skyss.no,GARASJE Straume,-PT25M7S
3350387080,60.1781999599189,5.4154000338167,bus,62,Lysekloster skole,skyss.no,Nore Neset ungdomsskule,PT18M56S
3350387061,60.2975000068545,5.32773999497294,bus,64,Hordnes snuplass,Lagunen terminal,Lagunen terminal I,-PT6S
3350387056,60.2975000068545,5.32773999497294,bus,65,Grimseid snuplass,Lagunen terminal,Lagunen terminal I,PT3M28S
3350135618,60.0682806875557,6.55193815939128,bus,995,Odda busstasjon,skyss.no,Garasje Odda,PT40S
3350387060,60.2618999686092,5.34371003508568,bus,65,Lagunen terminal I,skyss.no,GARASJE Fana Bussdepot,-PT1M11S
3350135757,59.8584380652755,5.7542303390801,bus,762,Husnes helsesenter,skyss.no,Husnes sentrum sør,-PT2M5S
3350135775,59.8371594306082,5.74770016595721,bus,760,Valen sjukehuset,Skulerute,Reset sør,PT1M38S
3350387016,60.3148999996483,5.27018004097044,bus,22,Fyllingsdalen terminal D,Lagunen terminal,Søreide,PT7M58S
3350387121,60.3200999647379,5.35219000652432,bus,610,Nesttun terminal C,Osøyro,Nesttun sentrum,-PT7M25S
3350387127,60.1853000186384,5.46901999041438,bus,610,Nesttun terminal C,Osøyro,Osøyro terminal B,-PT1M55S
3350377447,60.3925999905914,5.11352998204529,bus,460E,Bergen busstasjon U,skyss.no,Anglavika snuplass,PT4M26S
3350387124,60.1856000069529,5.46816998161376,bus,610,Nesttun terminal C,Osøyro,Osøyro terminal B,PT4M2S
3350324142,59.9178279563785,5.3176108840853,bus,680,Rimbareid skule,skyss.no,Fitjar terminal A,PT54S
3350387128,60.2034999802709,5.44659999199212,bus,610,Osøyro terminal B,skyss.no,GARASJE Os Garasje,PT19S
3350387129,60.1852000225335,5.46901001594961,bus,610,Nesttun terminal C,Osøyro,Osøyro terminal B,PT2M27S
3350387061,60.339800035581,5.2725500240922,bus,22,Lagunen terminal J,Fyllingsdalen terminal,Varden skole,PT50S
3350387062,60.297799995169,5.32825003378093,bus,22,Fyllingsdalen terminal D,Lagunen terminal,Lagunen terminal I,-PT1M58S
3350135735,60.0707613956183,6.54753774404526,bus,985,Eitrheim,Odda,Odda busstasjon,PT3M27S
3350135708,60.3986000083387,5.74508333578706,bus,940,Samnanger ungdomsskule,skyss.no,Garasje Samnanger,-PT1M33S
3350387112,60.1853000186384,5.46900004148483,bus,610,Nesttun terminal C,Osøyro,Osøyro terminal B,-PT3M37S
3350387115,60.3048999700695,5.36483997479081,bus,610,Nesttun terminal C,Osøyro,Lilletvedt,PT3M17S
3350387116,60.2034999802709,5.44659999199212,bus,610,Osøyro terminal B,skyss.no,GARASJE Os Garasje,-PT1M5S
3350387113,60.2247999887913,5.45656003989279,bus,610,Nesttun terminal C,Osøyro,Hetleflåttre,-PT1M10S
3440189696,61.4524957537651,5.85412200540304,bus,250,Florø terminal,Førde,Førde rutebilstasjon,PT1M50S
3350387117,60.2280000317842,5.4588199686259,bus,610,Osøyro terminal A,Nesttun terminal,Storestraumen,PT1M11S
3350377390,60.3598000109196,5.12317998334765,bus,479,Straume terminal D,Hellesøy,Bildøy rv. 555,-PT2M19S
3350447591,60.4645616468042,5.30486360192299,bus,39,Garasje Haukås,skyss.no,Viddalen,-PT12M45S
3350387071,60.2618999686092,5.3436900023371,bus,22,Lagunen terminal I,skyss.no,GARASJE Fana Bussdepot,PT3M
3350135775,59.8595826979727,5.77322230674326,bus,762,Sunde skule,Skulerute,Røyrvik,-PT2M56S
3350387076,60.2981999795884,5.32852001488209,bus,22,Lagunen terminal J,Fyllingsdalen terminal,Søråsskiftet,-PT5M26S
3350135735,60.0508460775018,6.54278160072863,bus,984,Odda busstasjon,Odda,Hovden,-PT37S
3350135724,60.0708297919482,6.54842815361917,bus,985,Eitrheim,Odda,Odda busstasjon,-PT1M16S
3350387104,60.2034999802709,5.44672002084553,bus,610,Osøyro terminal B,skyss.no,GARASJE Os Garasje,-PT1M15S
3350447589,60.4573441576213,5.2887927275151,bus,39,Viddalen,Bergen busstasjon,Bekkjarvikvegen,PT3M58S
3350447586,60.4185318388045,5.31201973557472,bus,39,Viddalen,Bergen busstasjon,Munkebotn,PT3M42S
3440189674,61.5109333768487,5.71860272437334,bus,240,Førde rutebilstasjon,Naustdal-Stavang,Kringla kryss,-PT9M29S
3350447585,60.4828308429569,5.38429797627032,bus,39,Viddalen,skyss.no,Garasje Haukås,-PT1M24S
3350447583,60.482902508229,5.38423452526331,bus,39,Viddalen,skyss.no,Garasje Haukås,PT21M21S
3350135751,60.0680747441947,6.54224398545921,bus,985,Askane,Skulerute,Odda barneskole,PT1M27S
3350135622,60.6441790424287,6.4355637319386,bus,950,Garasje Voss,skyss.no,Voss stasjon B,PT6M36S
3350135766,60.0707800034434,6.54745652340353,bus,984,Odda busstasjon,Odda,Røldalsvegen ved Odda rådhus,-PT1M6S
3350135765,60.0706567056477,6.54723281040788,bus,984,Odda busstasjon,Odda,Odda busstasjon,-PT40S
3350387048,60.297799995169,5.32825003378093,bus,22,Fyllingsdalen terminal D,Lagunen terminal,Lagunen terminal I,PT2M16S
3350387049,60.2990000322461,5.32639998011291,bus,22,Lagunen terminal J,Fyllingsdalen terminal,Rå skole,PT17S
3350135698,60.0687078293413,6.55207813717425,bus,990,Odda busstasjon,Voss,Odda busstasjon,-PT50M1S
3350387054,60.2968000341207,5.32717002555728,bus,22,Fyllingsdalen terminal D,Lagunen terminal,Lagunen terminal I,-PT8S
3350135697,60.3392543736845,6.65511385537684,bus,990,Garasje Odda,skyss.no,Kinsarvik skule,-PT30M28S
3350387052,60.2618999686092,5.34365999512374,bus,22,Lagunen terminal I,skyss.no,GARASJE Fana Bussdepot,PT2M38S
3350134008,59.861166626215,5.75425162911415,bus,760,Seldal,Husnes,Husnes sentrum sør,PT49S
3350134007,59.8024966567755,5.8187716640532,bus,760,Husnes ungdomsskule,Utåker,Sandvoll bedehus,PT3M41S
3350135718,60.4215083364397,5.63041496090591,bus,940,Hisdal,skyss.no,Garasje Samnanger,-PT12M21S
3350387056,60.2968000341207,5.32721000723541,bus,22,Fyllingsdalen terminal D,Lagunen terminal,Lagunen terminal I,PT4M15S
3440189678,61.7028083000332,5.1939876191318,bus,260,Florø terminal,Svelgen-Davik,Myklebust kryss,-PT1M20S
3350453117,60.3725690022111,5.35932158119977,bus,12,Wiers-Jenssens vei,Lønborglien,Haukeland sjukehus nord C,-PT27S
3350453116,60.3556402400136,5.36827244795859,bus,12,Mannsverk garasje,skyss.no,Mannsverk,PT7M2S
3350135766,60.070660058409,6.54720892198384,bus,985,Eitrheim,Odda,Odda busstasjon,-PT2M13S
3350453125,60.365987950936,5.37480262108147,bus,12,Wiers-Jenssens vei,Lønborglien,Lægdesvingen,PT9S
3350135765,60.0684465654194,6.55183975584805,bus,985,Odda busstasjon Eitrheimsstopp,Eitrheim,Odda busstasjon Eitrheimsstopp,PT17M39S
3350453103,60.3874970041215,5.33527239225805,bus,14,Bergen busstasjon M,Fyllingsdalen terminal,Danmarks plass E,PT5M42S
3350387102,60.387300029397,5.33541002310812,bus,67,Søråshøgda snuplass,Bergen busstasjon,Bergen busstasjon L,PT29S
3350387071,60.3109999839216,5.37550996989012,bus,70,Nesttun terminal C,Nesttun terminal,Elveneset,PT2M49S
3350387045,60.2785999886692,5.40471998043358,bus,73,Lund snuplass,Kaland,Kaland skole (rundkjøring),PT5S
3350387018,60.2926000300795,5.34834003075957,bus,76,Smørås snuplass,Nesttun terminal,Nøttveitlia,PT8S
3350453128,60.4373782966286,5.28994515538216,bus,12,Lønborglien snuplass,Lægdene - Montana,Lønborg,-PT9S
3350453148,60.3630456514657,5.34122387878597,bus,10,Mindeveien snuplass,Mulen,Løbergsveien sør,-PT2M15S
3350453146,60.3861101344228,5.3206187300384,bus,10,Mindeveien snuplass,Mulen,Møhlenpris,-PT1M2S
3350453117,60.3900268301368,5.33295278437436,bus,13,Festplassen M,skyss.no,Bergen busstasjon M,-PT35M37S
3350135736,60.068918550387,6.55282571911812,bus,725,Garasje Odda,skyss.no,Garasje Odda,-PT7M12S
3350387043,60.3197999764234,5.352389998734,bus,70,Nesttun terminal C,Nesttun terminal,Nesttun terminal D,PT12S
3350387042,60.3199999686331,5.35226996988058,bus,70,Nesttun terminal C,Nesttun terminal,Nesttun terminal D,-PT24S
3350387018,60.2617999725044,5.34394003450871,bus,73,Kaland skole (rundkjøring),skyss.no,GARASJE Fana Bussdepot,-PT1M44S
3350387046,60.3198999725282,5.35229997709394,bus,70,Nesttun terminal D,skyss.no,GARASJE Fana Bussdepot,PT2M35S
3350453114,60.3561054356396,5.36817672662437,bus,10,Mindeveien snuplass,skyss.no,Garasje Mannsverk,-PT2M24S
3350453119,60.3629366029054,5.34113972447813,bus,10,Mindeveien snuplass,Mulen,Mindeveien snuplass,-PT17M30S
3350453123,60.3561425674707,5.36824570968747,bus,10,Wergeland C,skyss.no,Garasje Mannsverk,-PT8M28S
3350387050,60.2616999763995,5.34389996901155,bus,70,Nesttun terminal D,skyss.no,GARASJE Fana Bussdepot,PT6M16S
3350387042,60.3207000251859,5.3526299726218,bus,71,Nesttun terminal D,skyss.no,PAUSE Nesttun,PT1M15S
3350387043,60.3198999725282,5.35232998430729,bus,71,Riple snuplass,Nesttun terminal,Nesttun terminal D,-PT2M45S
3350387058,60.2877999655902,5.26156998239458,bus,70,Nesttun terminal D,skyss.no,Birkelandsskiftet C,-PT3M24S
3350453127,60.3553261701018,5.36803314462304,bus,10,Garasje Mannsverk,skyss.no,Wergeland C,-PT2M4S
3350453104,60.3927002381533,5.32553538680077,bus,12,Lønborglien snuplass,Lægdene - Montana,Bergen busstasjon S,PT2M52S
3350453105,60.4198853485286,5.31048090197146,bus,12,Wiers-Jenssens vei,Lønborglien,Handelshøyskolen,PT5M52S
3350453128,60.3548660036176,5.33613153733313,bus,10,Wergeland C,skyss.no,Grønnestølen,-PT2M20S
3350453129,60.356082636863,5.36819499917328,bus,10,Wergeland C,skyss.no,Garasje Mannsverk,-PT3M41S
3350377312,60.5904999934137,4.84945996664464,bus,479,Øygarden ungdomsskule,Hellesøy,Tjeldstøstraumen,PT58S
3350135543,60.6290166825056,6.41263335943222,bus,964,Voss stasjon F,Voss stasjon,Torget,-PT6M18S
3350377316,60.5896000284702,4.83896004036069,bus,479,Hellesøy kai,Ågotnes terminal,Tjeldstøstraumen,PT47S
3350377313,60.3617000207305,5.12667004019022,bus,479,Straume terminal C,skyss.no,GARASJE Straume,-PT5M21S
3350377459,60.3617000207305,5.12662997469306,bus,465,Straume terminal C,skyss.no,GARASJE Straume,-PT1M27S
3350377457,60.3665000014007,5.11755002662539,bus,465,Straume terminal C,skyss.no,"Foldnes skule, skulestopp",PT1M23S
3350135739,60.5651183333248,6.90566168166697,bus,945,Ulvik sentrum,skyss.no,Garasje Ulvik,PT1M30S
3350324181,59.5440996810794,5.35375381819904,bus,633,Kvalvåg kryss,skyss.no,Søre Våge sør,PT7M28S
3350377317,60.3489000163972,5.08036999963224,bus,479,Bildøy skulesenter,Blomvåg terminal,Bildøy skulesenter,-PT4M19S
3350387046,60.3197999764234,5.35236996598542,bus,76,Smørås snuplass,Nesttun terminal,Nesttun terminal D,-PT39S
3350377322,60.437300009653,4.96758000925183,bus,479,Ågotnes terminal B,skyss.no,Solsvik kai,-PT35M14S
3350377376,60.5660000257194,4.8624000325799,bus,474,Øygarden ungdomsskule,Herdlevær Blomvåg,Ovågen,PT58S
3350387142,60.3027999680489,5.32150997780263,bus,67,Søråshøgda snuplass,Bergen busstasjon,Søråsgrenda,-PT9M28S
3350387143,60.2618999686092,5.34369997680187,bus,67,Bergen busstasjon L,skyss.no,GARASJE Fana Bussdepot,-PT2M15S
3350387050,60.3198999725282,5.35229997709394,bus,76,Smørås snuplass,Nesttun terminal,Nesttun terminal D,PT30S
3350387140,60.2617999725044,5.34373995848,bus,67,Bergen busstasjon L,skyss.no,GARASJE Fana Bussdepot,-PT2M42S
3350387081,60.3385999985039,5.50321999937296,bus,73,Lund snuplass,Kaland,Lund snuplass,-PT39M10S
3350387144,60.386699968949,5.3351800236851,bus,67,Bergen busstasjon L,Søråshøgda,Danmarks plass E,PT40S
3350387145,60.3874000255018,5.33551999367774,bus,67,Søråshøgda snuplass,Bergen busstasjon,Bergen busstasjon L,-PT22S
3350387058,60.3198999725282,5.35231003537774,bus,76,Smørås snuplass,Nesttun terminal,Nesttun terminal D,-PT1M36S
3350453109,60.3607116267085,5.35078243352473,bus,10,Mindeveien snuplass,skyss.no,Wergeland C,-PT3M3S
3350453106,60.3936426993459,5.32498377375305,bus,10,Mindeveien snuplass,Mulen,Torget A,PT6S
3350377308,60.3617000207305,5.12664003297687,bus,23,Bergen Lufthavn,skyss.no,GARASJE Straume,PT27M14S
3350453511,60.3671079408377,5.34176023676991,bus,14,Garasje Mannsverk,skyss.no,Bergen busstasjon M,-PT6M14S
3350377372,60.4438000079244,4.96271003969014,bus,471,Ågotnes terminal B,Turøy - Vindenes,Misje,PT8M57S
3350453510,60.3874679189175,5.33524431288242,bus,14,Fyllingsdalen terminal E,Bergen busstasjon,Bergen busstasjon L,-PT1M18S
3350387020,60.3197999764234,5.352389998734,bus,76,Smørås snuplass,Nesttun terminal,Nesttun terminal D,-PT11S
3350387113,60.387300029397,5.33509997650981,bus,67,Bergen busstasjon L,skyss.no,PARKERING Terminal Sør rpk 2.2 Bg sør,PT2M47S
3350387031,60.3197999764234,5.35241003148258,bus,75,Skiparvik snuplass,Nesttun terminal,Nesttun terminal D,-PT48S
3350387021,60.3197999764234,5.35235999152064,bus,76,Smørås snuplass,Nesttun terminal,Nesttun terminal D,PT40S
3350387022,60.3197999764234,5.35242000594735,bus,76,Smørås snuplass,Nesttun terminal,Nesttun terminal D,PT20S
3350387038,60.3198999725282,5.35232998430729,bus,75,Skiparvik snuplass,Nesttun terminal,Nesttun terminal D,-PT19S
3350387045,60.2617999725044,5.3439299762249,bus,74,Kalandseidet,skyss.no,GARASJE Fana Bussdepot,-PT5M8S
3350453505,60.3386463504285,5.32233559526503,bus,15,Bergveien,Bergen sentrum,Kråkenestoppen,PT58S
3350453513,60.3540953714401,5.367615474388,bus,14,Garasje Mannsverk,skyss.no,Bergen busstasjon M,-PT9M2S
3350453503,60.3561341017485,5.36824495531619,bus,15,Festplassen M,skyss.no,Garasje Mannsverk,-PT59S
3350453504,60.3559885080904,5.36829750984907,bus,15,Bergveien,skyss.no,Garasje Mannsverk,PT3M15S
3350453509,60.3561411425471,5.36817898973823,bus,15,Bergveien,skyss.no,Garasje Mannsverk,PT1M36S
3350135773,59.8611836414784,6.69409582391381,bus,725,Turtveit øvre,skyss.no,Håbru snuplass,-PT28S
3350453508,60.3900419175625,5.33291716128588,bus,15,Festplassen M,skyss.no,Bergen busstasjon H,-PT3M25S
3350135744,60.565293347463,6.90667664632201,bus,945,Garasje Ulvik,skyss.no,Hjeltnes snuplass,-PT9M33S
3350135543,60.6291183549911,6.41261332668364,bus,965,Voss stasjon G,Sentrumsringen,Voss stasjon G,-PT1M54S
3350453512,60.3912247717381,5.32403209246695,bus,15,Olav Kyrres gate G,Bønes,Møhlenpris,PT41S
3350135746,60.6288099847734,6.41124665737152,bus,945,Voss stasjon E,Hjeltnes,Voss stasjon E,-PT4M3S
3350453511,60.3560940362513,5.36821779794991,bus,15,Bergveien,skyss.no,Garasje Mannsverk,-PT3M15S
3350387031,60.3197999764234,5.35239997319877,bus,76,Smørås snuplass,Nesttun terminal,Nesttun terminal D,-PT12S
3350377447,60.405200002715,4.99683000147343,bus,465,Straume terminal C,Ågotnes terminal,Ågotnes terminal B,-PT3S
3350387034,60.2986999601126,5.3278199583292,bus,76,Nesttun terminal D,skyss.no,Lagunen terminal F,-PT40S
3350387038,60.3197999764234,5.35242998041213,bus,76,Smørås snuplass,Nesttun terminal,Nesttun terminal D,-PT10S
3350387056,60.2986999601126,5.32783001661301,bus,74,Kalandseidet,skyss.no,Lagunen terminal F,-PT2M56S
3350135741,60.528642386198,6.72697224654257,bus,945,Hjeltnes snuplass,Granvin,Granvin terminal,-PT4S
3350453136,60.3519142325968,5.27789826504886,bus,18,Formanns vei,Barliveien,Barliveien,PT53S
3350453174,60.34927200526,5.28754482977092,bus,14,Bergen busstasjon M,Fyllingsdalen terminal,Fyllingsdalen terminal K,-PT8S
3350447528,60.4630343802273,5.32102550379932,bus,34,Langarinden,Åsane terminal,Åsane terminal F,PT3S
3350447518,60.4631249886006,5.32100966200233,bus,35,Klauvaneset Tellevikv.,Åsane terminal,Åsane terminal F,PT29S
3350447543,60.4639565572143,5.32079391181469,bus,32,Åsane terminal C,Skinstø,Åsane brannstasjon,PT3M4S
3350447524,60.4629984218627,5.32080816105008,bus,34,Langarinden,Åsane terminal,Åsane terminal F,PT2M33S
3350447530,60.4632109869272,5.32102617435157,bus,33,Rolland snuplass,Åsane terminal,Åsane terminal F,PT30S
3350324169,59.6091419924051,5.47570103779435,bus,631,Sveio skule,Førde skule,Førde sentrum,PT6M12S
3350324165,59.6304834075272,5.3624642919749,bus,632,Sveio skule,Tjernagel -Rød,Øklandsneset,-PT2M19S
3350324162,59.6218173578382,5.33428592607379,bus,632,Sveio skule,Haugesund,Loknavegen,PT58S
3350447528,60.4630951490253,5.32100019045174,bus,33,Rolland snuplass,Åsane terminal,Åsane terminal F,-PT1M6S
3350447519,60.463305618614,5.32113530673087,bus,34,Åsane terminal C,Langarinden,Rollandskrysset,PT53S
3350447556,60.4610880184919,5.28225618414581,bus,30,Åsane terminal C,Tertnes,Morvikvegen,PT1M52S
3350453183,60.3493899386376,5.28769008815289,bus,14,Bergen busstasjon M,Fyllingsdalen terminal,Fyllingsdalen terminal K,-PT21S
3350447527,60.463202605024,5.32100069336593,bus,33,Rolland snuplass,Åsane terminal,Åsane terminal F,PT2M2S
3350447537,60.4633910302073,5.32096079550683,bus,32,Skinstø,Åsane terminal,Åsane terminal F,-PT14S
3350447524,60.4631666466594,5.32080413773656,bus,33,Rolland snuplass,Åsane terminal,Åsane terminal F,PT22S
3350447515,60.4827419109643,5.38436285220087,bus,34,Langarinden,skyss.no,Garasje Haukås,PT1M29S
3350447523,60.4631770402193,5.32101703807712,bus,33,Rolland snuplass,Åsane terminal,Åsane terminal F,PT14S
3350447520,60.4631353821605,5.3210040461272,bus,33,Rolland snuplass,Åsane terminal,Åsane terminal F,-PT33S
3350324168,59.5451861433685,5.36038801074028,bus,632,Rophus snuplass,skyss.no,Sveio skule,PT11M28S
3350324169,59.50628740713,5.34467797726393,bus,632,Sveio skule,Tveit-Lindøy,Vigdarheim kryss,PT13M20S
3350453115,60.3529489785433,5.27712562121451,bus,18,Barliveien,Formanns vei,Barliveien,-PT14M56S
3350453165,60.3872239217162,5.33572962507606,bus,13,Festplassen N,Sentrum,Nygårdsgaten / Lars Hilles gate,-PT23S
3350453175,60.32036726363,5.35233149304986,bus,12,Mannsverk garasje,skyss.no,Nesttun terminal C,-PT1M19S
3350453176,60.3635764773935,5.37503664381802,bus,12,Lønborglien snuplass,Lægdene - Montana,Kolstien,PT4M51S
3350453153,60.3872224129736,5.26194389909506,bus,14,Bergen busstasjon L,skyss.no,Gravdal snuplass,-PT2M12S
3350453173,60.3663925454021,5.37033129483461,bus,12,Lønborglien snuplass,Lægdene - Montana,Landåssvingen,PT2M35S
3350377444,60.3617000207305,5.12664003297687,bus,460,Bergen busstasjon Q,skyss.no,GARASJE Straume,-PT18S
3350377303,60.459499983117,4.95452997274697,bus,474,Øygarden ungdomsskule,Ågotnes terminal,Svelgen bru,PT1M3S
3350377302,60.4652000125498,4.9567299708724,bus,474,Stegavika,skyss.no,Straume terminal D,PT1M48S
3350453151,60.3369848895818,5.29832244850695,bus,14,Fyllingsdalen terminal E,Bergen busstasjon,Bønestoppen,PT2M7S
3350377307,60.5926999915391,4.84233995899558,bus,474,Blomvåg snuplass,skyss.no,Tjeldstø skule,PT25M37S
3350377447,60.3859000001103,5.31940000131726,bus,460,Bergen busstasjon G,Ågotnes terminal,Møhlenpris,-PT1S
3350453172,60.3553088195622,5.36824487149715,bus,12,Mannsverk garasje,skyss.no,Mannsverk,PT2M57S
3350377446,60.3861999884248,5.32049995847046,bus,460,Ågotnes terminal A,Bergen busstasjon,Festplassen M,PT4M25S
3350453150,60.3902657143772,5.32422328367829,bus,14,Bergen busstasjon L,skyss.no,Festplassen N,-PT4M11S
3350377305,60.563800027594,4.85026001930237,bus,474,Herdlevær snuplass,skyss.no,Blomvåg terminal,PT3M10S
3350447527,60.463184248656,5.32100647687912,bus,36,Klauvaneset Tellevikv.,Åsane terminal,Åsane terminal F,PT3M18S
3350447523,60.4630936402828,5.3210074827075,bus,36,Klauvaneset Tellevikv.,Åsane terminal,Åsane terminal F,PT1M44S
3350447533,60.5159344989806,5.28383793309331,bus,35,Åsane terminal D,Salhus - Klauvaneset,"Klauvaneset, Tellevikv.",PT5M5S
3350447524,60.4630219750106,5.32101888209581,bus,36,Klauvaneset Tellevikv.,Åsane terminal,Åsane terminal F,PT4M40S
3350447531,60.4634248092771,5.32080665230751,bus,35,Klauvaneset Tellevikv.,Åsane terminal,Åsane terminal F,PT59S
3350447541,60.4639279749244,5.32209084369242,bus,34,Langarinden,Åsane terminal,Åsane terminal F,PT8M
3350447522,60.3879065439105,5.33253016881645,bus,36,Bergen busstasjon K,Hordvik-Klauvaneset,Gamle Bergen,-PT4M15S
3350447532,60.5159371811897,5.28384882956743,bus,35,Åsane terminal D,Salhus - Klauvaneset,"Klauvaneset, Tellevikv.",PT3M12S
3350447520,60.4631001781672,5.3210180439055,bus,36,Klauvaneset Tellevikv.,Åsane terminal,Åsane terminal F,-PT17S
3350447510,60.4736361466348,5.33120951615274,bus,37,Åsane terminal D,Breistein,Nyborg,PT54S
3350324168,59.5111563708633,5.44576087966561,bus,633,Sveio skule,Søre Våge,Fjon,PT5M57S
3350453186,60.3795082960278,5.33469186164439,bus,12,Lønborglien snuplass,Lægdene - Montana,Strømmen,PT1M52S
3350453187,60.4069788102061,5.32220701687038,bus,12,Lønborglien snuplass,Lægdene - Montana,Skutevikstorget,-PT3S
3350377451,60.3617000207305,5.12665000744164,bus,460,Straume terminal A,skyss.no,GARASJE Straume,PT29S
3350377450,60.3617000207305,5.12665000744164,bus,460,Bergen busstasjon Q,skyss.no,GARASJE Straume,-PT5M36S
3350453188,60.3553047124296,5.36805342882872,bus,12,Mannsverk garasje,skyss.no,Garasje Mannsverk,PT29M57S
3350453169,60.3275446873158,5.29530395753682,bus,14,Bergen busstasjon M,Fyllingsdalen terminal,Bønes senter,-PT1M8S
3350377455,60.3888999670744,5.33390002325177,bus,460,Ågotnes terminal A,Bergen busstasjon,Bergen busstasjon Q,-PT7M6S
3350377453,60.3925999905914,5.1135400403291,bus,460,Bergen busstasjon Q,skyss.no,Anglavika snuplass,-PT6M30S
3350377459,60.405200002715,4.99686998315156,bus,460,Bergen busstasjon G,Ågotnes terminal,Ågotnes terminal A,-PT2M8S
3350453183,60.3850863687694,5.3323548194021,bus,12,Wiers-Jenssens vei,Lønborglien,Bergen busstasjon U,PT1M1S
3350377458,60.3721000347286,5.21279996261001,bus,460,Bergen busstasjon Q,skyss.no,Storavatnet terminal A,-PT12M40S
3350453173,60.3561086207628,5.36821067333221,bus,13,Festplassen M,skyss.no,Garasje Mannsverk,PT5M29S
3350453120,60.4069949034601,5.32659268006682,bus,18,Formanns vei,Barliveien,Kirkegaten,PT33S
3350377457,60.405200002715,4.99712001532316,bus,460,Bergen busstasjon G,Ågotnes terminal,Ågotnes terminal A,-PT1M18S
3350453181,60.3560935333371,5.36816909909248,bus,12,Lønborglien snuplass,skyss.no,Garasje Mannsverk,-PT4M46S
3350453121,60.356109123677,5.3681908082217,bus,18,Barliveien,skyss.no,Garasje Mannsverk,PT3M13S
3350447529,60.523319458589,5.30248741619289,bus,35,Hordvikneset,Åsane terminal,Hordvikneset,-PT26M10S
3350447546,60.4631328675896,5.3210196364671,bus,33,Rolland snuplass,Åsane terminal,Åsane terminal F,-PT1M17S
3350447527,60.5159443058074,5.28379971161485,bus,35,Åsane terminal D,Salhus - Klauvaneset,"Klauvaneset, Tellevikv.",PT6M21S
3350447524,60.5159287154675,5.28383566997945,bus,35,Åsane terminal D,Salhus - Klauvaneset,"Klauvaneset, Tellevikv.",PT5M41S
3350377449,60.3887999709696,5.3341799788177,bus,460,Ågotnes terminal A,Bergen busstasjon,Bergen busstasjon Q,PT3M55S
3350447542,60.4630482941866,5.32102231867611,bus,33,Rolland snuplass,Åsane terminal,Åsane terminal F,-PT13S
3350447523,60.5159328226,5.28385117650032,bus,35,Åsane terminal D,Salhus - Klauvaneset,"Klauvaneset, Tellevikv.",PT2M56S
3350447520,60.515908934176,5.28376350179315,bus,35,Åsane terminal D,Salhus - Klauvaneset,"Klauvaneset, Tellevikv.",PT5M35S
3350453151,60.3555657248944,5.36826783791184,bus,12,Mannsverk garasje,skyss.no,Mannsverk,PT6M51S
3350453137,60.3493227157742,5.2876478433609,bus,14,Bergen busstasjon M,Fyllingsdalen terminal,Fyllingsdalen terminal K,PT8M53S
3350453177,60.3729232214391,5.33679077401757,bus,10,Wergeland C,Mulen,Blekenberg,-PT14S
3350453178,60.3561237920076,5.36820338107646,bus,10,Mindeveien snuplass,skyss.no,Garasje Mannsverk,-PT4M1S
3350453145,60.390748847276,5.32500414177775,bus,13,Festplassen N,Sentrum,Festplassen M,PT1M46S
3350453156,60.4358698893338,5.28805796988308,bus,12,Wiers-Jenssens vei,Lønborglien,Lønborglien snuplass,PT4M58S
3350447529,60.4631211329252,5.32100924290717,bus,30,Viddalen,Åsane terminal,Åsane terminal F,-PT20S
3350377422,60.3839999902993,5.05508003756404,bus,460,Bergen busstasjon G,Ågotnes terminal,Ormevik,PT2M58S
3350377316,60.4049000144005,4.99729997478426,bus,471,Turøyna snuplass,skyss.no,Ågotnes terminal B,PT5M50S
3350377313,60.3605999797583,5.12369999662042,bus,471,Ågotnes terminal B,skyss.no,Straume terminal C,-PT26S
3350447524,60.4631769564003,5.32102986238897,bus,30,Viddalen,Åsane terminal,Åsane terminal F,PT4M16S
3350387021,60.3196999803185,5.35245998762548,bus,70,Nesttun terminal C,Nesttun terminal,Nesttun terminal D,-PT50S
3350377318,60.5019000079483,4.91958003491163,bus,470,Rong barneskule,Storevarden - Rong,Raudhammaren,-PT56S
3350387022,60.3197999764234,5.35241003148258,bus,70,Nesttun terminal C,Nesttun terminal,Nesttun terminal D,PT53S
3350387020,60.3197999764234,5.35235999152064,bus,70,Nesttun terminal C,Nesttun terminal,Nesttun terminal D,PT59S
3350387026,60.2710000332445,5.274269990623,bus,70,Nesttun terminal D,skyss.no,Grimseid snuplass,PT1M33S
3350453165,60.3555817343295,5.36798578687012,bus,12,Mannsverk garasje,skyss.no,Garasje Mannsverk,PT8M4S
3350324131,59.6468387637287,5.45344515703619,bus,631,Sveio skule,Tittelsnes,Lindås,-PT3M58S
3350453103,60.3561192657799,5.36825601942837,bus,18,Barliveien,skyss.no,Garasje Mannsverk,-PT2M58S
3350453168,60.3560957126319,5.36823607049882,bus,12,Lønborglien snuplass,skyss.no,Garasje Mannsverk,-PT2M14S
3350453166,60.3548608906567,5.36801562644541,bus,12,Wiers-Jenssens vei,Lønborglien,Wiers-Jenssens vei,-PT51M50S
3350453106,60.3560944553465,5.36820732057095,bus,18,Barliveien,skyss.no,Garasje Mannsverk,PT2M7S
3350453187,60.3561316709965,5.36817203275859,bus,10,Mindeveien snuplass,skyss.no,Garasje Mannsverk,-PT4M52S
3350377322,60.4074000008404,4.99777003191411,bus,471,Ågotnes terminal B,skyss.no,Tranevågen ungdomsskule,-PT4M45S
3350377320,60.3610999602824,5.12228001840413,bus,471,Vindenes snuplass,skyss.no,Straume terminal B,-PT2M5S
3350447504,60.4401012416929,5.32483826391399,bus,31,Selvik,Eidsvåg,Selvikkrysset,PT57S
3350453150,60.3561846446246,5.36822467111051,bus,13,Festplassen M,skyss.no,Garasje Mannsverk,PT33S
3350453180,60.3926169220358,5.3254337143153,bus,10,Mulen,Søndre Skogveien,Møhlenpris,-PT3S
3350377437,60.3925999905914,5.03578003495932,bus,460,Ågotnes terminal A,Bergen busstasjon,Spjeld,PT44S
3350377436,60.3529000282288,5.07823999039829,bus,460,Ågotnes terminal A,skyss.no,Storavatnet terminal A,PT4M16S
3350453181,60.4046991840005,5.33016194589436,bus,10,Mulen,Wergeland,Prahls vei,-PT3M17S
3350377435,60.3659000247717,5.13893997296691,bus,460,Bergen busstasjon G,Ågotnes terminal,Straume terminal D,-PT1M29S
3350447502,60.4609591048211,5.38289434276521,bus,31,Åsane terminal E,skyss.no,Garasje Haukås,-PT1M52S
3350377434,60.3887999709696,5.33420998603106,bus,460,Ågotnes terminal A,Bergen busstasjon,Bergen busstasjon Q,PT7M46S
3350447503,60.429749423638,5.342006245628,bus,31,Jordal snuplass,Åsane terminal,Jordalsvegen,PT12S
3350387022,60.3207000251859,5.39032003842294,bus,71,Nesttun terminal C,Totland,Dyngeland sør,PT2M55S
3350377429,60.3617000207305,5.12661002576351,bus,460,Bergen busstasjon Q,skyss.no,GARASJE Straume,-PT5M42S
3350377428,60.350900022313,5.08211997337639,bus,460,Ågotnes terminal A,Bergen busstasjon,Bildøy rv. 555,PT7M13S
3350387031,60.2986999601126,5.32793998718262,bus,70,Nesttun terminal D,skyss.no,Lagunen terminal J,PT2M42S
3350377427,60.3820999804884,5.31388998962939,bus,460,Bergen busstasjon G,Ågotnes terminal,Lyngbø rv. 555 A,-PT55S
3350387025,60.3198999725282,5.35232000984251,bus,71,Riple snuplass,Nesttun terminal,Nesttun terminal D,-PT24S
3350387038,60.3197999764234,5.352389998734,bus,70,Nesttun terminal C,Nesttun terminal,Nesttun terminal D,PT2M59S
3350387029,60.2618999686092,5.3436900023371,bus,71,Nesttun terminal D,skyss.no,GARASJE Fana Bussdepot,-PT2M56S
3440189676,61.1137007363141,5.28316277079284,bus,221,Tjørneset,Leirvik-Sørbøvåg,Tjørneset,-PT44M29S
3350453152,60.3724241629243,5.3343440964818,bus,10,Mulen,Wergeland,Sygnagaten,-PT7S
3350324132,59.7805116791278,5.4828355461359,bus,632,Vikse skule,Rophus,Vikse skule,-PT2H6M32S
3350453135,60.3973817825317,5.32220290973783,bus,12,Wiers-Jenssens vei,Lønborglien,Bontelabo,PT2M55S
3350453113,60.3560609277338,5.36819533444941,bus,14,Bergen busstasjon L,skyss.no,Garasje Mannsverk,-PT2M45S
3350453134,60.3551245015115,5.36806231364608,bus,12,Mannsverk garasje,skyss.no,Garasje Mannsverk,PT3M56S
3350447518,60.5161173082888,5.28329218737781,bus,33,Åsane terminal F,skyss.no,"Klauvaneset, Tellevikv.",-PT1M50S
3350377302,60.5165000259876,4.91014997474849,bus,470,Blomvåg terminal,skyss.no,Øygarden ungdomsskule,PT1M40S
3350447546,60.4630971606821,5.32101913355291,bus,30,Viddalen,Åsane terminal,Åsane terminal F,PT1M44S
3350447543,60.4636390507221,5.32191180624068,bus,30,Viddalen,Åsane terminal,Åsane terminal F,PT5M42S
3350447513,60.4628291912377,5.3207675088197,bus,33,Åsane terminal D,Rolland,Barkaleitet,-PT4M19S
3350447523,60.4631618689746,5.32101536169648,bus,32,Skinstø,Åsane terminal,Åsane terminal F,PT30S
3350447511,60.463141836226,5.32102265395224,bus,33,Rolland snuplass,Åsane terminal,Åsane terminal F,-PT46S
3350447521,60.4631641320884,5.32099180854857,bus,32,Skinstø,Åsane terminal,Åsane terminal F,PT1M52S
3350453159,60.4048615414649,5.33021374605596,bus,10,Mulen,Søndre Skogveien,Mulen,-PT12M59S
3350453117,60.3493481967598,5.2876237872988,bus,14,Bergen busstasjon M,Fyllingsdalen terminal,Fyllingsdalen terminal K,-PT2M2S
3350453127,60.3561061900109,5.36824495531619,bus,13,Festplassen M,skyss.no,Garasje Mannsverk,-PT49S
3350453158,60.356066711247,5.36812601611018,bus,10,Mindeveien snuplass,skyss.no,Garasje Mannsverk,-PT6M35S
3350324158,59.7408202663064,5.40578506886959,bus,678,Leirvik terminal C,skyss.no,Garasje Tittelsnes,-PT7M3S
3350453142,60.3553745336831,5.36811084486544,bus,12,Mannsverk garasje,skyss.no,Garasje Mannsverk,PT8M39S
3350324132,59.5874933805317,5.42905054986477,bus,633,Sveio sentrum,skyss.no,"Rød, Øklandsvegen",PT1M17S
3350453146,60.3549676761031,5.36810187622905,bus,12,Mannsverk garasje,skyss.no,Garasje Mannsverk,PT5M29S
3350453127,60.3903030138463,5.32444666139781,bus,14,Bergen busstasjon L,skyss.no,Festplassen N,-PT14S
3350453125,60.3560569044203,5.3682164568454,bus,14,Bergen busstasjon L,skyss.no,Garasje Mannsverk,-PT1M32S
3350447537,60.4632048681378,5.32099264673889,bus,30,Viddalen,Åsane terminal,Åsane terminal F,PT36S
3350377303,60.5083000101149,4.91518003866076,bus,471,Ågotnes terminal B,skyss.no,Øygarden ungdomsskule,-PT6M11S
3350377312,60.5165000259876,4.9101600330323,bus,470,Raudhammaren,skyss.no,Øygarden ungdomsskule,PT1M7S
3350447532,60.4631352983415,5.32103279605508,bus,30,Viddalen,Åsane terminal,Åsane terminal F,PT3M6S
3350377307,60.589700024575,4.83950997702777,bus,470,Hellesøy kai,skyss.no,GARASJE Tjeldstø,-PT8M18S
3350447533,60.4634048603475,5.32103246077895,bus,30,Viddalen,Åsane terminal,Åsane terminal F,PT2M37S
3350447530,60.4632259905338,5.32101100310683,bus,30,Viddalen,Åsane terminal,Åsane terminal F,PT2M43S
3350447531,60.4631303530186,5.32177635468543,bus,30,Åsane terminal C,Tertnes,Åsane terminal C,-PT14M22S
3350324158,59.7846857830882,5.49879049882293,bus,631,Tittelsnes snuplass,skyss.no,Garasje Stord,PT31M1S
3350447546,60.4631248209625,5.32102399505675,bus,28,Arna terminal A,Åsane terminal,Åsane terminal F,PT1M37S
3350447544,60.4632152616978,5.32101770862937,bus,28,Arna terminal A,Åsane terminal,Åsane terminal F,PT1M4S
3350361454,60.5590831115842,5.05650823004544,bus,310,Vikebø nord,Beitingen,Eikeland kryss,-PT33S
3350447543,60.4632217157632,5.32100723125041,bus,28,Arna terminal A,Åsane terminal,Åsane terminal F,PT2M54S
3350361452,60.5191106535494,5.24003846570849,bus,310,Flatøy terminal  D,skyss.no,Frekhaug terminal,PT7M8S
3350361457,60.5457877367735,5.27947045862675,bus,310,Knarvik terminal B,Frekhaug-Skjelanger,Knarvik terminal B,-PT14M58S
3350361458,60.5449516419321,5.27838433161378,bus,310,Flatøy terminal  B,Vikebø,Flatøy terminal  B,-PT2H53M29S
3350361436,60.5450871773064,5.28143920004368,bus,312,Frekhaug terminal,skyss.no,Knarvik garasje,-PT1M19S
3350447537,60.4630606155843,5.32063767313957,bus,28,Åsane terminal D,Arna terminal,Åsane terminal D,-PT10M8S
3350361520,60.6694037932903,5.25840103626251,bus,304,Seim skule,Skulerute,Grimstad sør,PT5M49S
3350361451,60.546534480527,5.2808855753392,bus,311,Frekhaug terminal,skyss.no,Knarvik garasje,-PT8M36S
3350447556,60.463049383834,5.32102550379932,bus,26,Lagunen terminal J,Åsane terminal,Åsane terminal F,-PT27S
3350361465,60.5224449746311,5.17967526800931,bus,310,Knarvik terminal B,Vikebø,Vestbygd skule,PT6M36S
3350361435,60.5484903138131,5.21100564859807,bus,313,Flatøy terminal  C,Ådland,Grasdal kryss,PT1M56S
3350361462,60.5467580258846,5.28785814531147,bus,310,Flatøy terminal  D,skyss.no,Knarvik terminal C,-PT2M27S
3350447532,60.4631094820797,5.32101402059197,bus,28,Arna terminal A,Åsane terminal,Åsane terminal F,-PT8S
3350361443,60.5572251789272,5.06205939687788,bus,312,Dalamarka,skyss.no,Vikebø nord,-PT2M54S
3350361468,60.5620484612882,5.05122201517224,bus,310,Knarvik terminal B,Frekhaug-Skjelanger,Vikebø nord,-PT7M8S
3350447530,60.4632057063282,5.32101687043905,bus,28,Arna terminal A,Åsane terminal,Åsane terminal F,PT1M25S
3350361466,60.5453627742827,5.27868918143213,bus,310,Flatøy terminal  D,skyss.no,Knarvik garasje,PT20M27S
3350361436,60.5871878005564,5.14444436877966,bus,313,Ådland snuplass,Flatøy,Ådland nedre,PT1M36S
3350361467,60.5451160948724,5.28155721724033,bus,310,Vikebø nord,skyss.no,Knarvik garasje,-PT2M14S
3350447580,60.3719412814826,5.35826621577144,bus,27,Haukeland sjukehus sør F,Åsane terminal,Haukeland ved Ibsens gt H,PT58S
3350377402,60.4474000353366,5.20720998756588,bus,480,Erdal ungdomsskole,Skolerute,"Djupamyr, Erdalsveien",PT26S
3350135703,60.6281156279147,6.41524038277566,bus,990,Voss stasjon E,Odda,Voss stasjon E,-PT1H9M34S
3350453182,60.3453047666699,5.36387898959219,bus,6,Birkelundstoppen A,Lyngbø,Kolstibotn,-PT7M40S
3350447588,60.4827819764614,5.38435447029769,bus,26,Åsane terminal F,skyss.no,Garasje Haukås,PT8M50S
3350447578,60.4828233830631,5.38431013002992,bus,27,Åsane terminal F,skyss.no,Garasje Haukås,-PT4M44S
3350447579,60.4632251523435,5.32065946608782,bus,27,Åsane terminal E,Haukeland sjukehus,Hesthaugen,-PT1M7S
3350447576,60.386028829962,5.33714910037816,bus,27,Haukeland sjukehus sør F,Åsane terminal,Gamle Bergen,PT4M31S
3350447574,60.4169810190797,5.3149291779846,bus,27,Åsane terminal E,Haukeland sjukehus,Krohnsminde K,-PT27S
3350447584,60.3286143019795,5.33770029433072,bus,26,Åsane terminal E,Lagunen terminal,"Hop, Sjølinjen",PT7S
3350447585,60.2979476843029,5.32789799384773,bus,26,Lagunen terminal J,Åsane terminal,"Hop, Sjølinjen",-PT3M11S
3350447575,60.4828238021582,5.38431901484728,bus,27,Åsane terminal F,skyss.no,Garasje Haukås,-PT2M55S
3350447572,60.4827816411853,5.38433963432908,bus,27,Åsane terminal F,skyss.no,Garasje Haukås,-PT52S
3350447582,60.4631034471095,5.32591533847153,bus,26,Åsane terminal E,Lagunen terminal,Hesthaugen,PT3M
3350447573,60.4631900321692,5.32100513577461,bus,27,Haukeland sjukehus sør F,Åsane terminal,Åsane terminal F,PT3M3S
3350447581,60.3780084382743,5.33717768266797,bus,26,Lagunen terminal J,Åsane terminal,Gamle Bergen,PT4M47S
3350447571,60.4631119966507,5.32099432311952,bus,27,Haukeland sjukehus sør F,Åsane terminal,Åsane terminal F,PT1M55S
3350447579,60.4631353821605,5.32102114520967,bus,26,Lagunen terminal J,Åsane terminal,Åsane terminal F,PT4S
3350447577,60.4632186982781,5.32171214930713,bus,26,Åsane terminal E,Lagunen terminal,Hesthaugen,-PT6M24S
3350447578,60.4630894493312,5.32098535448313,bus,26,Lagunen terminal J,Åsane terminal,Åsane terminal F,PT1M27S
3350447575,60.4632031917572,5.32100798562169,bus,26,Lagunen terminal J,Åsane terminal,Åsane terminal F,-PT1M17S
3350361443,60.5449213832617,5.27967422269285,bus,310,Knarvik terminal B,skyss.no,Knarvik garasje,-PT3M38S
3350447556,60.463400753215,5.32095970585942,bus,28,Arna terminal A,Åsane terminal,Åsane terminal F,-PT2M50S
3350447573,60.4146591480821,5.32262770459056,bus,26,Åsane terminal E,Lagunen terminal,Danmarks plass E,PT1M35S
3350447554,60.4731346573681,5.33101681619883,bus,28,Åsane terminal D,Arna terminal,IKEA,PT55S
3350447551,60.4827804677188,5.3843608405441,bus,28,Arna terminal A,skyss.no,Garasje Haukås,-PT4M53S
3350447570,60.482379142195,5.38970665074885,bus,26,Lagunen terminal J,Åsane terminal,Lagunen terminal J,-PT53M12S
3350361506,60.5461853742599,5.28044812381268,bus,300,Knarvik terminal B,skyss.no,Knarvik garasje,PT18M8S
3350361504,60.4636271484196,5.32132649794221,bus,300,Bergen busstasjon J,Knarvik terminal,Åsane terminal D,-PT12S
3350377359,60.4148999601603,5.21941001527011,bus,407,Kleppestø terminal E,skyss.no,Kleppestø US,PT28M45S
3350361505,60.3887028247118,5.33263402059674,bus,300,Knarvik terminal A,Bergen busstasjon,Bergen busstasjon J,-PT3M22S
3350377348,60.4075999930501,5.22682003676891,bus,408,Hanevik,Kleppestø terminal,Kleppestø terminal E,PT47S
3350361508,60.5421808362007,5.26515659876168,bus,300,Knarvik terminal B,skyss.no,Frekhaug terminal,PT9M47S
3350361509,60.4636463429779,5.3242798615247,bus,300,Knarvik terminal A,Bergen busstasjon,Åsane terminal E,-PT32S
3350447522,60.4827907774597,5.38435840979218,bus,26,Lagunen terminal I,skyss.no,Garasje Haukås,-PT8M10S
3350377350,60.4074999969453,5.22680997848511,bus,407,Haugland verkstedet,Kleppestø terminal,Kleppestø terminal E,PT52S
3350361514,60.5451748520136,5.28195066377521,bus,300,Bergen busstasjon J,skyss.no,Knarvik garasje,-PT5M33S
3350361511,60.5467472132295,5.28749227523804,bus,300,Bergen busstasjon J,Knarvik terminal,Knarvik terminal B,PT34S
3350361515,60.5473212059587,5.28991112485528,bus,300,Knarvik terminal A,Bergen busstasjon,Knarvik terminal A,-PT4M32S
3350453111,60.3453089576215,5.36371948197484,bus,6,Birkelundstoppen A,Lyngbø,Kolstibotn,-PT5M44S
3350135707,60.3704983368516,6.68070665560663,bus,990,Garasje Odda,skyss.no,Kinsarvik skule,-PT44M4S
3350377350,60.4074999969453,5.22677997127175,bus,408,Hanevik,Kleppestø terminal,Kleppestø terminal E,PT2M38S
3350377356,60.4649000242352,5.22535999305546,bus,408,Hanevik,Kleppestø terminal,Strømsnes,PT1M16S
3350377339,60.4148999601603,5.21944002248347,bus,407,Kleppestø terminal E,skyss.no,Kleppestø US,-PT8M27S
3350377338,60.4264000151306,5.15153998509049,bus,407,Kleppestø terminal E,skyss.no,Hetlevik snuplass,-PT20S
3350377337,60.4461999982595,5.17030002549291,bus,407,Haugland verkstedet,skyss.no,GARASJE Haugland,PT21S
3350377336,60.4455000255257,5.16910996288061,bus,407,Kleppestø terminal E,skyss.no,GARASJE Haugland,-PT2M4S
3350135731,59.6662525087595,5.93925473280251,bus,640,Kyrping bensinstasjon,skyss.no,Enge skule,PT18M28S
3350135734,59.6649698261172,5.93894803896546,bus,640,Ølen vidaregåande skule,Etne,Etne terminal,PT25S
3350135736,59.9355214834213,6.58778445795178,bus,640,Håbru snuplass,skyss.no,Garasje Odda,PT5M23S
3350135738,59.6686956658959,5.94269382767379,bus,640,Enge skule,Rullestad,Etne terminal,PT26S
3350135608,60.0295712146908,5.43418555520475,bus,653,Bruntveit kai,Uggdal,Esvær,PT3M39S
3440189715,61.5654290746897,5.65424077212811,bus,250,Florø terminal,Førde sentralsjukehus,Naustdal kryss,-PT10S
3350135737,60.3746943175793,6.7123288102448,bus,990,Kinsarvik skule,Skulerute,Salthella,PT10S
3350135727,60.06825260818,6.55185199342668,bus,991,Odda busstasjon avstiging,skyss.no,Garasje Odda,PT4M13S
3350447529,60.4631140083075,5.32100111246109,bus,28,Arna terminal A,Åsane terminal,Åsane terminal F,PT4M3S
3440189710,61.6000301577151,5.02599818632007,bus,250,Florø terminal,Førde,Florø terminal,-PT19M45S
3350377390,60.3617000207305,5.12668001465499,bus,449,Kolltveit skule,skyss.no,GARASJE Straume,-PT14M17S
3350377341,60.4455000255257,5.16912999562919,bus,406,Kleppestø terminal B,skyss.no,GARASJE Haugland,PT5M15S
3350377350,60.4455000255257,5.16909998841584,bus,405,Kleppestø terminal B,skyss.no,GARASJE Haugland,-PT2M33S
3350447520,60.4198690876365,5.46340612694621,bus,28,Arna terminal A,Åsane terminal,Arna terminal A,-PT14M36S
3350447521,60.4634258989245,5.32099423930049,bus,28,Arna terminal A,Åsane terminal,Åsane terminal F,PT3M46S
3350377392,60.3721000347286,5.21279996261001,bus,449,Knarrevik rv. 555,skyss.no,Storavatnet terminal A,-PT54S
3350377335,60.3967999946326,5.17435996793211,bus,407,Kleppestø terminal E,skyss.no,"Marikoven, Pøylo",-PT5M56S
3350377334,60.4148999601603,5.21944999694824,bus,407,Kleppestø terminal E,skyss.no,Kleppestø US,-PT1M46S
3350377333,60.4588000103831,5.15176001004875,bus,407,Haugland verkstedet,skyss.no,Ravnanger terminal B,-PT2M43S
3350377332,60.4074999969453,5.22680000402033,bus,407,Haugland verkstedet,Kleppestø terminal,Kleppestø terminal E,-PT6S
3350361519,60.6259790807962,5.47259520739317,bus,346,Ostereidet garasje,skyss.no,Ostereidet garasje,-PT14S
3350377348,60.4463999904692,5.17115003429353,bus,407,Haugland verkstedet,skyss.no,GARASJE Haugland,-PT2M10S
3350377337,60.4074999969453,5.22680000402033,bus,408,Hanevik,Kleppestø terminal,Kleppestø terminal E,PT39S
3350377347,60.4266000073403,5.18610997125506,bus,407,Kleppestø terminal E,skyss.no,Krokåsfeltet snuplass,-PT12M8S
3350135725,60.4231366887689,7.13335499167442,bus,991,Øvre Eidfjord,Odda,Øvre Eidfjord,-PT18M1S
3440189717,61.4522160496563,5.85758381523192,bus,250,Førde sentralsjukehus,Florø,Førde rutebilstasjon,PT6M5S
3350135733,60.1842950284481,6.58899455331266,bus,990,Voss stasjon E,Odda,Skjeldvik,PT10M46S
3440189714,61.7678729910403,5.28935029171407,bus,260,Svelgen,Florø,Svelgen stadion,PT52S
3440189721,61.452469015494,5.85434907115996,bus,250,Florø terminal,Førde,Førde rutebilstasjon,PT5M50S
3440189720,61.5877702832222,5.46880692243576,bus,250,Førde rutebilstasjon,Florø,Knapstadbakkane,PT43S
3350447511,60.4629690013826,5.32100186683238,bus,28,Arna terminal A,Åsane terminal,Åsane terminal F,-PT55S
3350377332,60.4098999872804,5.22801001556218,bus,408,Kleppestø terminal E,Hanevik,Solhola,PT1M49S
3350447512,60.4201618675143,5.46450231224298,bus,28,Arna terminal A,Åsane terminal,Hammaren,PT54S
3350361502,60.5066598393023,5.35233710892498,bus,300,Bergen busstasjon J,Knarvik terminal,Tuft,PT2M57S
3350377346,60.4081999696791,5.22768999449909,bus,407,Kleppestø terminal E,skyss.no,Kleppestø ungdomsskole,PT5M37S
3350361503,60.5469580180943,5.28828788548708,bus,300,Bergen busstasjon J,Knarvik terminal,Knarvik terminal B,PT1M19S
3350361501,60.3844885714352,5.33466529101133,bus,300,Knarvik terminal A,Bergen busstasjon,Bergen busstasjon J,-PT54S
3350377343,60.4588000103831,5.15175003558397,bus,407,Haugland verkstedet,skyss.no,Ravnanger terminal B,-PT8M57S
3350387090,60.1845999620855,5.46849000267684,bus,99,Osøyro terminal B,Kun avstiging,Solstrandveg,-PT4M5S
3350377356,60.4264000151306,5.15157996676862,bus,403,Stongafjellet snuplass,skyss.no,Hetlevik snuplass,-PT2M17S
3350377378,60.3605999797583,5.12366001494229,bus,449,Turøyna snuplass,skyss.no,Straume terminal C,-PT38M20S
3350377354,60.4455000255257,5.16910996288061,bus,403,Krokåsfeltet snuplass,skyss.no,GARASJE Haugland,-PT6M13S
3350361438,60.8367446344346,5.58597830124199,bus,351,Haukeland,skyss.no,Ostereidet garasje,-PT10M33S
3350135731,59.6684560272843,5.94198807142675,bus,642,Enge skule,Litladalen,Likskar,PT32S
3350377338,60.4071000125259,5.22715003229678,bus,405,Kleppestø terminal B,Øvre Florvåg,Kleppestø terminal B,-PT17M4S
257055990,60.14492833333334,5.426398333333334,ferry,1018,Halhjem,Sandvikvåg,Sandvikvåg,PT0S
3350135738,59.666983243078,5.94128994271159,bus,642,Enge skule,Litladalen,Enge skule,PT8M10S
3350387078,60.2882000338286,5.26298996061087,bus,53,Birkelandsskiftet C,Hjellestad-Milde,Blomsterdalen,-PT4M19S
3350387075,60.2864000201225,5.2458199672401,bus,53,Birkelandsskiftet D,skyss.no,Liland skole,PT11M39S
3350387035,60.2883000299335,5.26231002062559,bus,57,Flesland snuplass,Birkelandsskiftet,Birkelandsskiftet C,PT2M7S
3350361440,60.894021531567,5.46138952486217,bus,351,Matre kai,Duesundøy,Krossleitet,-PT6M5S
3350377370,60.405200002715,4.99685003422201,bus,449,Landro skule snuplass,Solsvik - Vindenes,Ågotnes terminal A,-PT4M44S
3350377353,60.4455000255257,5.16916000284255,bus,403,Krokåsfeltet snuplass,skyss.no,GARASJE Haugland,-PT5M17S
3350377331,60.415700012818,5.24836999364197,bus,405,Kleppestø terminal B,Øen,Florvågøen snuplass,PT1M26S
3350377338,60.4071000125259,5.22713997401297,bus,406,Florvågøen snuplass,Kleppestø terminal,Kleppestø terminal B,-PT50S
3350387040,60.2604000270367,5.34402997232974,bus,57,Birkelandsskiftet C,Flesland,Birkelandsskiftet C,-PT19M23S
3350135752,60.374397514388,6.71377980150282,bus,990,Kinsarvik skule,Bu,Kinsarvik kai,-PT1M32S
3350447732,60.5051506776363,5.42925632558763,bus,92,Arna terminal A,skyss.no,Valestrand kai,PT1M12S
3350447702,60.4277755692601,5.62331398017704,bus,95,Trengereid,Arna terminal,Trengereid skule,-PT9M29S
3350135605,59.8899899795651,5.55797830224037,bus,654,Hodnanes,skyss.no,Garasje Uggdal,PT15M12S
3350135734,59.667572658509,5.94261830672622,bus,641,Etne terminal,Skånevik,Enge gamle skule,PT21S
3350447703,60.4267495404929,5.5922793969512,bus,95,Garneshøgda,Trengereid,Trengereid rundkøyring,PT1M1S
3350135729,59.7329913172871,5.93387128785253,bus,642,Enge skule,skyss.no,Skånevik kai,PT27M10S
3350135729,59.6664474718273,5.9396178368479,bus,641,Skånevik skule,Etne,Enge skule,PT4M18S
3350377380,60.3528000321239,5.10830000974238,bus,449,Bildøy skulesenter,Hjelteryggen,Straume terminal A,-PT4M29S
3440189685,61.3762690499425,5.10689000599086,bus,230,Askvoll kai,Førde,Eide,PT6M41S
3350453504,60.3385151736438,5.32237641513348,bus,14,Fyllingsdalen terminal K,skyss.no,Bergveien,-PT19M26S
3350377383,60.4539000336081,4.92449996061623,bus,449,Tranevågen ungdomsskule,Turøy,Turøyna snuplass,PT1M53S
3350453502,60.3869634959847,5.33265614882112,bus,14,Bergen busstasjon M,Fyllingsdalen terminal,Danmarks plass E,-PT4M19S
3350377382,60.3473999910057,4.96951002627611,bus,449,Tranevågen ungdomsskule,Lokøy - Syltøy,Porsvika,-PT51S
3350453508,60.3385831508785,5.32237230800092,bus,14,Fyllingsdalen terminal K,skyss.no,Bergveien,PT6M35S
3350377386,60.3284999728203,5.00118004158139,bus,449,Tranevågen ungdomsskule,Åse - Fjell,Møvik,PT42S
3350377395,60.3613000363111,5.12172002345324,bus,448,Straume terminal B,Liaskjæret,Bildøy rv. 555,PT2M26S
3350377331,60.4454000294209,5.1691900100559,bus,406,Kleppestø terminal B,skyss.no,GARASJE Haugland,PT52S
3350377334,60.4588000103831,5.15176998451352,bus,403,Krokåsfeltet snuplass,skyss.no,Ravnanger terminal B,-PT4M21S
3350377343,60.4077999852598,5.2269399818033,bus,402,Kleppestø ungdomsskole,skyss.no,Kleppestø terminal E,-PT47M55S
3350377339,60.4148999601603,5.21942996419966,bus,403,Kleppestø terminal B,skyss.no,Kleppestø US,-PT11M31S
3350387071,60.3191999997944,5.35258999094367,bus,99,Kirkebirkeland,skyss.no,Nesttun terminal C,PT17S
3350387072,60.2639999706298,5.34361003898084,bus,99,Fana kirke,Skulerute,Konowskiftet,PT38S
3350377347,60.4152000322938,5.21987001411617,bus,402,Kleppestø US,Hetlevik,Kleppestø senter,-PT4M31S
3350135734,59.606438241899,5.81426236778498,bus,644,Veste,skyss.no,Ølen vidaregåande skule,PT2M53S
3350387070,60.3165000211447,5.22300995886326,bus,99,Søreide,Skulerute,Grimstad snuplass,PT1M18S
3350377336,60.4282000288367,5.18149003386497,bus,403,Krokåsfeltet snuplass,Stongafjellet,"Krokåsfeltet, Ospedalshaugen",PT1M52S
3350387075,60.2730000391603,5.37204002961516,bus,99,Espeland kai,skyss.no,Kalandseidet,-PT2M11S
3350387076,60.2172000333667,5.40808003395796,bus,99,Tøsdalskiftet A,skyss.no,Lysekloster skole,-PT1M59S
3350135777,59.9333096668124,6.58674317412078,bus,640,Skare skule,Skulerute,Jøsendal,-PT5M37S
3350387079,60.2233999595046,5.28853003866971,bus,99,Fana kirke,Skolerute,Krokeide VGS,PT4S
3350387056,60.2598999626935,5.26274001225829,bus,53,Milde snuplass,Birkelandsskiftet,Planteskogen,PT15S
3350387078,60.2883000299335,5.26235997676849,bus,51,Bergen busstasjon M,Birkelandsskiftet,Birkelandsskiftet C,PT49S
3350387058,60.2883000299335,5.2623700350523,bus,53,Milde snuplass,Birkelandsskiftet,Birkelandsskiftet D,-PT23S
3350377341,60.4154000245035,5.21914003416896,bus,402,Kleppestø US,Hetlevik,Kleppestø senter,-PT4M13S
3350377350,60.3945999965072,5.17579997889698,bus,401,Marikoven snuplass,Kleppestø terminal,"Marikoven, Pøylo",PT36S
3350377356,60.4455000255257,5.16910996288061,bus,402,Kleppestø ungdomsskole,skyss.no,GARASJE Haugland,-PT3M24S
3350377345,60.4265000112355,5.18619001843035,bus,403,Stongafjellet snuplass,Krokåsfeltet,Krokåsfeltet snuplass,-PT1M46S
3350361439,60.8333539869636,5.26378121227026,bus,350,Selvåg,skyss.no,Duesundøy ferjekai,PT2M42S
3350135731,59.6641882136464,5.93852366320789,bus,643,Etne terminal,skyss.no,Garasje Etne,PT30M43S
3350377359,60.420599989593,5.14561004005373,bus,402,Kleppestø US,Hetlevik,"Hetlevik, Standal",PT52S
3440199798,61.2310602888465,7.09705389104784,,820,Sogndal skysstasjon,Balestrand-Førde,Stedje,-PT9M6S
3350135610,60.0555199105293,6.01944800466299,bus,740,Osøyro terminal B,Gjermundshamn,Årsnes kai,-PT2M22S
3350387083,60.1846999581903,5.46964997425675,bus,99,Osøyro terminal B,Skulerute,Solstrandveg,PT37S
3350361437,60.8812709804624,5.21091235801578,bus,350,Duesundøy ferjekai,Haugsdal,Kjærdal,PT1M31S
3350387080,60.1983000151813,5.42959998361766,bus,99,Nore Neset ungdomsskule,Kun avstiging,Tøsdalskiftet A,-PT5S
3350377357,60.4411000292748,5.18055997788906,bus,402,GARASJE Haugland,skyss.no,Kleppestø US,-PT8M9S
3350377347,60.4148999601603,5.21942996419966,bus,403,Stongafjellet snuplass,skyss.no,Kleppestø US,-PT45S
3350387081,60.2800000179559,5.40510001592338,bus,99,Nordvik nord,skyss.no,Kaland skole (rundkjøring),PT5M12S
3350135613,60.2028701640666,5.8549528196454,bus,740,Osøyro terminal B,Gjermundshamn,Tombre vest,PT5M49S
3350135614,60.2131951600313,5.63884212635458,bus,740,Eikelandsosen ungdomsskule,Venjaneset,Gjerdevik vest,PT1M8S
3350387070,60.297799995169,5.32760999165475,bus,52,Lagunen terminal F,Grimstad,"Rådal, Flyplassvegen",-PT7M12S
3350387071,60.2975000068545,5.32771996222436,bus,52,Grimstad snuplass,Lagunen terminal,Lagunen terminal I,PT51S
3350135729,59.6652571577579,5.93705599196255,bus,644,Enge skule,Veste,Etne terminal,PT2S
3350387036,60.2878999616951,5.26225998066366,bus,56,Birkelandsskiftet C,Espeland,Blomsterdalen,-PT6M23S
3350387088,60.1963000092655,5.42620003223419,bus,99,Nore Neset ungdomsskule,Kun avstiging,Ulvensletta,PT14S
3350387074,60.2617999725044,5.34372000955045,bus,52,Grimstad snuplass,skyss.no,GARASJE Fana Bussdepot,PT1M54S
3350377366,60.32619997859,5.01334997825325,bus,449,Tranevågen ungdomsskule,Ulveset,Halsvarden,-PT1M15S
3350377375,60.3527000360191,5.1084200385958,bus,448,Bildøy skulesenter,Liaskjæret,Bildøy bru,-PT4M3S
3350377340,60.4455000255257,5.16913997009397,bus,403,Krokåsfeltet snuplass,skyss.no,GARASJE Haugland,-PT4M3S
3350377332,60.4075999930501,5.22682003676891,bus,401,Marikoven snuplass,Kleppestø terminal,Kleppestø terminal B,PT1M32S
3350377331,60.4153000283986,5.21882001310587,bus,401,Kleppestø US,Marikoven,Kleppestø senter,-PT4M6S
3350135765,60.0692494679242,6.54640451073647,bus,994,Odda barneskole,skyss.no,Odda busstasjon,-PT5M25S
3350377335,60.4142999835312,5.21994997747242,bus,401,Marikoven Pøylo,Kleppestø US,Kleppestø ungdomsskole,-PT3M56S
3350377334,60.4153000283986,5.21984000690281,bus,401,Kleppestø US,Marikoven,Kleppestø senter,-PT4M16S
3350387075,60.2618999686092,5.34372998401523,bus,57,Birkelandsskiftet C,skyss.no,GARASJE Fana Bussdepot,-PT3M45S
3350135766,60.0707465596497,6.54746515676379,bus,994,Odda US/VGS,Ragde,Odda busstasjon Toppensstopp,PT22S
3350447731,60.5265482515097,5.49360503442585,bus,910,Bergen busstasjon K,skyss.no,Garasje Lonevåg,PT1M13S
3350377334,60.4153000283986,5.21983003243804,bus,402,Hetlevik snuplass,Myrane,Kleppestø US,PT3M33S
3350447590,60.4828485287726,5.38427861407399,bus,27,Åsane terminal F,skyss.no,Garasje Haukås,-PT3M47S
3350377338,60.4455000255257,5.16909001395106,bus,402,Kleppestø ungdomsskole,skyss.no,GARASJE Haugland,-PT3M43S
3350377337,60.4154000245035,5.21960003301501,bus,402,Kleppestø US,Hetlevik,Kleppestø senter,-PT4M7S
3350377336,60.4078999813646,5.22697996348143,bus,402,Kleppestø US,skyss.no,Kleppestø terminal E,-PT15S
3350377345,60.4266000073403,5.18612002953887,bus,401,Kleppestø ungdomsskole,skyss.no,Krokåsfeltet snuplass,-PT16M7S
3350377339,60.4099999833852,5.22782997228205,bus,402,Kleppestø US,Hetlevik,Kleppestø terminal B,PT59S
3350447729,60.3871152922511,5.33533031120896,bus,910,Bergen busstasjon K,Osterøy,Bergen busstasjon K,-PT7M17S
3350447588,60.3766641486436,5.35940565168858,bus,27,Haukeland sjukehus sør F,Åsane terminal,Haukeland sjukehus sør F,-PT9M11S
3440189676,61.4524666685611,5.85461243055761,bus,200,Leirvik,Vadheim-Førde,Førde rutebilstasjon,-PT5M26S
3350447583,60.3730094712228,5.34916430711746,bus,27,Åsane terminal E,Haukeland sjukehus,Hunstadsvingen,PT21S
3350447581,60.4629931412637,5.32156362198293,bus,27,Åsane terminal E,Haukeland sjukehus,Åsane terminal E,-PT11M8S
3350447582,60.4827155079693,5.38441398181021,bus,27,Åsane terminal F,skyss.no,Garasje Haukås,PT5M28S
3350377315,60.3560999874026,5.10653997771442,bus,449,GARASJE Straume,skyss.no,Bildøy skulesenter,PT2M9S
3350377383,60.3510000184178,5.08056999184191,bus,442,Gavlen snuplass,skyss.no,Kolltveit skule,PT3M56S
3350377319,60.3458999656141,5.08124004118145,bus,449,Tranevågen ungdomsskule,Nesse - Ekren,Haljedalen,PT58S
3350447728,60.5232309456915,5.51044167950749,bus,92,Takvam ved rundkjøring,skyss.no,Hatland skulesenter,PT12M1S
3350377317,60.3459999617189,5.08968003094196,bus,449,Liaskjæret snuplass,skyss.no,Bildøy skulesenter,PT2M6S
3350135740,60.6290949694812,6.41203003004193,bus,950,Gudvangen kai,Voss,Voss stasjon B,PT12M49S
3350387053,60.2884000260383,5.26248000562191,bus,57,Flesland snuplass,Birkelandsskiftet,Birkelandsskiftet C,PT52S
3350447722,60.525542087853,5.49741804599762,bus,92,Arna terminal A,skyss.no,Lonevåg terminal,PT2M2S
3440189691,61.4523671753705,5.85363987833261,bus,230,Førde rutebilstasjon,Askvoll,Halbrendsøyra,-PT4M30S
3350377391,60.3617000207305,5.12662997469306,bus,441,Bergen busstasjon Q,skyss.no,GARASJE Straume,-PT11M2S
3350377311,60.3554000146687,5.10600998997688,bus,449,GARASJE Straume,skyss.no,Bildøy skulesenter,PT1M46S
3350377396,60.3617000207305,5.12661002576351,bus,442,Bergen busstasjon Q,skyss.no,GARASJE Straume,-PT10M23S
3350377395,60.3597000148147,5.12307998724282,bus,442,Straume idrettspark,Straume terminal,Straume terminal C,PT3M15S
3350377394,60.3609999641776,5.12146999128163,bus,442,Bildøy skulesenter,Brattholmen,Bildøy skulesenter,-PT4M19S
3350377393,60.3272000234574,5.03651001490653,bus,442,Straume terminal C,skyss.no,Ulveset skule,-PT14M38S
3350377323,60.3617000207305,5.12664003297687,bus,449,Bildøy skulesenter,skyss.no,GARASJE Straume,PT4M31S
3350135766,60.0680284760892,6.54268973506987,bus,995,Odda busstasjon,skyss.no,Odda barneskole,PT8M5S
3350135765,60.0700317509472,6.54657935723662,bus,995,Odda busstasjon,Odda,Odda busstasjon,PT3M27S
3350387075,60.2883000299335,5.26235000230372,bus,56,Espeland kai,Birkelandsskiftet,Birkelandsskiftet C,PT32S
3350387078,60.2883000299335,5.26235000230372,bus,56,Espeland kai,Birkelandsskiftet,Birkelandsskiftet C,PT55S
3350377392,60.3617000207305,5.12662000022829,bus,442,Brattholmen kai,skyss.no,GARASJE Straume,-PT2M43S
3350377322,60.3377000335604,5.08013002574444,bus,449,Tranevågen ungdomsskule,Ulveset,Fjell,-PT1M15S
3350377391,60.3599000070244,5.12362003326416,bus,442,Straume idrettspark,Straume terminal,Straume terminal C,-PT1M52S
3350377320,60.3599000070244,5.1216699834913,bus,449,Knarrevik rv. 555,skyss.no,Straume terminal A,PT2M9S
3350135694,60.0609383080155,5.92009169049561,bus,654,Gjermundshamn kai,skyss.no,Garasje Gjermundshavn,PT19M44S
3350135761,60.6290026009083,6.41188074834645,bus,950,Voss stasjon B,Gudvangen,Voss stasjon B,-PT3H22M44S
3350453153,60.3560655377805,5.36812853068113,bus,44,Gravdal snuplass,skyss.no,Garasje Mannsverk,-PT4M32S
3350453133,60.3872281964868,5.2618779335171,bus,46,Fyllingsdalen terminal K,skyss.no,Gravdal snuplass,-PT2M6S
3350453113,60.3493020962924,5.28760752640665,bus,48,Sælenveien,Fyllingsdalen terminal,Fyllingsdalen terminal K,-PT2M21S
3350453141,60.3617403376848,5.2354066260159,bus,45,Loddefjord terminal B,Loddefjord terminal,Loddefjord terminal A,-PT1M45S
257055910,60.009654999999995,5.33587,ferry,1018,Sandvikvåg,Halhjem,Halhjem,PT0S
3350377306,60.3617000207305,5.12668998911977,bus,448,Straume terminal C,skyss.no,GARASJE Straume,PT4M56S
3350377366,60.3617000207305,5.12665000744164,bus,442,Brattholmen skule,skyss.no,GARASJE Straume,-PT2M1S
3350453117,60.3560631070286,5.36820279434323,bus,48,Sælenveien,skyss.no,Garasje Mannsverk,-PT2M11S
3350453105,60.3564319945872,5.36830564029515,bus,49,Mannsverk garasje,skyss.no,Wiers-Jenssens vei,PT15M52S
3350453185,60.3931176569313,5.3275887016207,bus,16E,Nesttun terminal C,Øyjorden,Torget B,PT1M55S
3350387041,60.2603000309318,5.34329999238253,bus,60,Fana bussdepot,Lagunen terminal,Fana bussdepot,-PT4H54M37S
3350387044,60.2618999686092,5.34369997680187,bus,60,Fana bussdepot,skyss.no,GARASJE Fana Bussdepot,PT9S
3350387043,60.2973000146449,5.32760001718998,bus,60,Fanahammeren snuplass,Lagunen terminal,Lagunen terminal I,-PT1M19S
3350387048,60.2975000068545,5.32773999497294,bus,60,Fanahammeren snuplass,Lagunen terminal,Lagunen terminal I,PT54S
3350387046,60.2975000068545,5.32770998775959,bus,60,Fana bussdepot,Lagunen terminal,Lagunen terminal I,PT19S
3350453188,60.3619704209268,5.2347453776747,bus,41,Hetlevikåsen snuplass,Loddefjord terminal,Loddefjord terminal B,-PT57S
3350377374,60.3597000148147,5.1231000199914,bus,442,Straume idrettspark,Straume terminal,Straume terminal C,-PT1M43S
3350453154,60.3561228699982,5.36824956536293,bus,45,Loddefjord terminal A,skyss.no,Garasje Mannsverk,PT8M7S
3350453144,60.3493234701455,5.28769386000931,bus,46,Løvstakkskiftet,Fyllingsdalen terminal,Fyllingsdalen terminal K,PT1M23S
3350377381,60.3911999613047,5.32544997520745,bus,441,Hjelteryggen snuplass,Bergen busstasjon,Bergen busstasjon Q,-PT1M15S
3350377301,60.3905999846756,5.1241999771446,bus,449,Våge snuplass,skyss.no,Bildøy skulesenter,PT30S
3350377308,60.3574000205845,5.1108099706471,bus,449,Bildøy skulesenter,Anglevik - Våge,Bildøy skulesenter,-PT4M13S
3350135743,60.6282049790025,6.41752663068473,bus,951,Voss Tinghus,Bjørgamarki,Uttrågata,PT48S
3350135785,60.1162483077496,6.55930333770812,bus,995,Odda US/VGS,Odda,Tyssedal rutebilstasjon,PT1M56S
3350453171,60.3454760927707,5.36433689296246,bus,16E,Øyjorden,Nesttun terminal,Birkelundstoppen B,-PT2M3S
3350377389,60.3672999702394,5.14752002432942,bus,441,Hjelteryggen snuplass,skyss.no,GARASJE Straume,PT2M31S
3350377319,60.3659000247717,5.18252000212669,bus,448,Straume terminal C,skyss.no,Ramsvik snuplass,PT8M45S
3350453175,60.3517852351069,5.36883529275656,bus,16E,Nesttun terminal C,Øyjorden,Wiers-Jenssens vei,-PT47S
3350387142,60.3862999845296,5.3343699965626,bus,51,Birkelandsskiftet D,Bergen busstasjon,Bergen busstasjon M,PT7M55S
3350387145,60.3875000216067,5.33538001589477,bus,51,Birkelandsskiftet D,Bergen busstasjon,Bergen busstasjon M,PT5M25S
3350387059,60.2976999990642,5.32770001329482,bus,60,Lagunen terminal E,Fanahammeren,"Rådal, Fanavegen",-PT4M30S
3350387037,60.2981999795884,5.3279600199312,bus,62,Lagunen terminal E,Lysekloster skule,"Rådal, Fanavegen",-PT2M6S
3350387148,60.2618999686092,5.34363996237516,bus,51,Birkelandsskiftet C,skyss.no,GARASJE Fana Bussdepot,PT8M30S
3440189694,61.734035583213,6.50482775643468,bus,100,Nordfjordeid rutebilstasjon,Sandane-Førde,Byrkjelo,-PT37S
3350453421,60.3818344417959,5.31444436870515,bus,15,Bergveien,Bergen sentrum,Møhlenpris,PT58S
3350453135,60.3561409749091,5.36821528337896,bus,44,Gravdal snuplass,skyss.no,Garasje Mannsverk,-PT2M6S
3350453133,60.3560500312597,5.36820841021836,bus,44,Gravdal snuplass,skyss.no,Garasje Mannsverk,PT1M13S
3350135784,60.6291283294559,6.41240830533206,bus,950,Gudvangen kai,Voss,Voss stasjon B,PT13M17S
3350453113,60.3496993985027,5.28772621415555,bus,46,Fyllingsdalen terminal F,Løvstakkskiftet,Fyllingsdalen terminal F,-PT14M30S
3350453160,60.3196995612234,5.35243107005954,bus,16E,Øyjorden,Nesttun terminal,Nesttun terminal D,-PT1M7S
3350453162,60.372439334169,5.35941369831562,bus,16E,Nesttun terminal C,Øyjorden,Haukeland sjukehus nord C,PT2M58S
3350453161,60.3196621779352,5.35248605534434,bus,16E,Øyjorden,Nesttun terminal,Nesttun terminal D,PT1M29S
3350453501,60.3847543615848,5.30513341538608,bus,6,Lyngbø D,Birkelundstoppen,Carl Konows gate,-PT1M16S
3350453164,60.3303720708936,5.37949564866722,bus,16E,Nesttun terminal C,Øyjorden,Kjenndalsåsen,PT2M44S
3350453163,60.3198885731399,5.35234364680946,bus,16E,Øyjorden,Nesttun terminal,Nesttun terminal D,PT35S
257055930,59.984831666666665,5.333463333333333,ferry,1018,Halhjem,Sandvikvåg,Sandvikvåg,PT0S
3350387111,60.2034999802709,5.44660996645689,bus,99,Nore Neset ungdomsskule,skyss.no,GARASJE Os Garasje,PT1M13S
3350387023,60.2605000231415,5.34539999440312,bus,60,Fana bussdepot,skyss.no,GARASJE Fana Bussdepot,PT58S
3350387115,60.1853000186384,5.4691400192678,bus,99,Holo,skyss.no,Osøyro terminal A,PT23S
3350387016,60.2974000107497,5.32760999165475,bus,61,Krokeide VGS,Lagunen terminal,Lagunen terminal I,PT2M18S
3350387017,60.2618999686092,5.34369997680187,bus,61,Lagunen terminal I,skyss.no,GARASJE Fana Bussdepot,PT1M54S
3350387118,60.2998000010848,5.31106000766158,bus,99,Bergveien,BKG,Storheia,-PT23S
3350453139,60.3560856543481,5.36819726228714,bus,44,Gravdal snuplass,skyss.no,Garasje Mannsverk,PT50S
3350453169,60.3866941854358,5.33262547105551,bus,41,Loddefjord terminal B,skyss.no,Garasje Mannsverk,-PT51S
3350135610,60.1633488200605,5.9065275080502,bus,749,Norheimsund terminal,Mundheim,Mundheim terminal,PT2M38S
3350135611,60.3661033697426,6.14507982507348,bus,749,Strandebarm skule,skyss.no,Garasje Norheimsund,PT1M45S
3350135761,60.6289868429303,6.41201787628233,bus,951,Voss stasjon E,Voss,Voss stasjon E,-PT4M46S
3350135760,60.6288349628448,6.41334665939212,bus,951,Palmafossen vest,skyss.no,Voss stasjon F,-PT8M30S
3350135759,60.6288767047226,6.41338664107025,bus,952,Voss Tinghus,skyss.no,Voss stasjon F,PT19S
3350453155,60.3442433662713,5.39440076798201,bus,16E,Øyjorden,Nesttun terminal,Helldalssåta,PT1M53S
3350387023,60.2975000068545,5.32773999497294,bus,61,Krokeide VGS,Lagunen terminal,Lagunen terminal I,PT30S
3350387127,60.1815999951214,5.46330001205206,bus,99,Osøyro terminal B,Skulerute,Mobergsbakken,-PT37S
3350387129,60.1443000230938,5.43829998001456,bus,99,Osøyro terminal B,Skulerute,Halhjemsmarka snuplass,PT0S
3350387015,60.2618999686092,5.35074002109468,bus,62,Eidsvik snuplass,Lagunen terminal,Hamreskiftet,-PT1M5S
3350453179,60.3619556687772,5.23473565466702,bus,41,Hetlevikåsen snuplass,Loddefjord terminal,Loddefjord terminal B,PT13S
3350453149,60.3795871697366,5.2665769122541,bus,44,Nipedalen,Gravdal,Lyngbø E,PT1M8S
3350135762,60.6284643989056,6.42267127521336,bus,954,Voss stasjon G,Lemme,Bøndenes Hus,PT1M58S
3350135739,60.6289316900074,6.41192668117583,bus,957,Voss Tinghus,Bulken,Voss stasjon D,-PT8M11S
3350377320,60.3508000262082,5.15372003428638,bus,442,Knarrevik rv. 555,skyss.no,Brattholmen skule,-PT1M40S
3350453401,60.3551198914647,5.30552057549357,bus,15,Olav Kyrres gate G,Bønes,Benshaugen øvre,PT1M59S
3350453141,60.3618480451405,5.2353289257735,bus,41,Loddefjord terminal B,Hetlevikåsen,Hetlevikskiftet,-PT3M5S
3350387039,60.2973000146449,5.32758995890617,bus,65,Liland skole,Lagunen terminal,Lagunen terminal I,PT2M8S
3350387049,60.2973000146449,5.32760001718998,bus,64,Hordnes snuplass,Lagunen terminal,Lagunen terminal I,PT54S
3350387079,60.2569999918342,5.33716997131705,bus,61,Lagunen terminal E,Krokeide,Sageneset nord,PT59S
3350453404,60.3518554754555,5.2773470710963,bus,15,Festplassen M,skyss.no,Garasje Spelhaugen,-PT44S
3350135761,60.6614233832806,6.43653494305909,bus,954,Voss stasjon G,skyss.no,Garasje Voss,PT16M24S
3350453154,60.3619746118784,5.234709167853,bus,41,Hetlevikåsen snuplass,Loddefjord terminal,Loddefjord terminal B,-PT15S
3350453411,60.3518677968532,5.27733894065022,bus,15,Festplassen M,skyss.no,Garasje Spelhaugen,-PT49S
3350135796,60.4565429314971,5.6774085201323,bus,950,Voss stasjon B,Bergen,Rødberg,PT9M6S
3350387076,60.2975000068545,5.32773999497294,bus,62,Lysekloster skole,Lagunen terminal,Lagunen terminal I,-PT51S
3350387056,60.286100031808,5.26974996551871,bus,64,Lagunen terminal I,skyss.no,Ytrebygda skole,PT27M17S
3350453415,60.3525301348418,5.27604653500021,bus,15,Garasje Spelhaugen,skyss.no,Olav Kyrres gate G,-PT6M13S
3350453116,60.3619171120226,5.23458226583898,bus,45,Loddefjord terminal B,Loddefjord terminal,Loddefjord terminal B,-PT14M14S
3350453129,60.3782751504332,5.2655126620084,bus,44,Gravdal snuplass,Nipedalen,Kvernhusveien,-PT1S
3350453119,60.3631738945842,5.36596516147256,bus,45,Loddefjord terminal A,skyss.no,Garasje Mannsverk,PT2M23S
3350447646,60.486951218918,5.27910341508687,bus,96,Åsane terminal A,skyss.no,Støbotn,-PT11M16S
3350377319,60.3599000070244,5.12166000902653,bus,441,Hjelteryggen snuplass,skyss.no,Straume terminal B,-PT20S
3350387152,60.3867999650538,5.33324003219604,bus,51,Bergen busstasjon M,skyss.no,PARKERING Terminal Sør rpk 2.2 Bg sør,PT29M56S
3350387013,60.2834999654442,5.30166003853083,bus,65,Lagunen terminal F,Grimseid,Skeie,-PT5S
3350387061,60.2975000068545,5.32770998775959,bus,60,Fanahammeren snuplass,Lagunen terminal,Lagunen terminal I,-PT1M32S
3350377306,60.386699968949,5.15062996186316,bus,442,Knarrevik rv. 555,skyss.no,Hjelteryggen snuplass,-PT1M59S
3350387057,60.2611999958754,5.34598999656737,bus,61,Lagunen terminal E,Krokeide,Lagunen terminal E,-PT14M14S
3350387154,60.2880000416189,5.26251998730004,bus,51,Birkelandsskiftet D,Bergen busstasjon,Kokstadskiftet,-PT3M23S
3350361493,60.5446901265532,5.2788857370615,bus,304,Skodvin skule,Træland-Ones,Skodvin skule,-PT5H26M10S
3350387155,60.2883000299335,5.26310998946428,bus,51,Birkelandsskiftet D,Bergen busstasjon,Kokstadskiftet,-PT3M10S
3350135753,60.6593133229762,6.43573170527816,bus,957,Voss Tinghus,Eimstad,Voss Tinghus,-PT4M10S
3350135745,60.6611962337047,6.43709988333285,bus,957,Garasje Voss,skyss.no,Voss Tinghus,PT1M54S
3350135759,60.7202299777418,6.49751496501267,bus,956,Voss Tinghus,Nedkvitne,Leidal,PT2M47S
3350377314,60.358299985528,5.14339000917971,bus,442,Knarrevik rv. 555,Brattholmen,Arefjord grustak,PT2M45S
3350387023,60.2975000068545,5.32770001329482,bus,65,Grimseid snuplass,Lagunen terminal,Lagunen terminal I,-PT1M41S
3350377319,60.3721000347286,5.21278001368046,bus,442,Knarrevik rv. 555,skyss.no,Storavatnet terminal A,-PT4M42S
3350387054,60.2183999866247,5.3848500084132,bus,62,Lagunen terminal E,Lysekloster skule,Søvik nord,PT56S
3350387027,60.2975000068545,5.32771996222436,bus,65,Grimseid snuplass,Lagunen terminal,Lagunen terminal I,PT22S
3350453107,60.3561501111835,5.36818292923272,bus,44,Nipedalen,skyss.no,Garasje Mannsverk,-PT4M45S
3350324156,59.7922627720982,5.18982214853168,bus,559,Rolvsnes snuplass,skyss.no,"Svortland skule, til Nese",PT5M6S
3350453102,60.3797870781273,5.36009036935866,bus,16E,Øyjorden,Nesttun terminal,Haukeland sjukehus nord D,PT53S
3350453101,60.3877045400441,5.33847679384053,bus,16E,Garasje Mannsverk,skyss.no,Øyjorden,-PT1M56S
3350135612,60.3869189042598,5.33374235965312,bus,925,Bergen busstasjon O,Voss,Bergen busstasjon O,-PT52M46S
3350324153,59.8166528530419,5.27548176236451,bus,559,Rubbestadneset kai,Svortland,Rubbestadneset kai,-PT30M
3350453105,60.3560900129378,5.36823615431786,bus,16E,Øyjorden,skyss.no,Garasje Mannsverk,PT5M7S
3350453108,60.3197791893035,5.35240743309259,bus,16E,Øyjorden,Nesttun terminal,Nesttun terminal D,-PT25S
3350453107,60.3967427462339,5.32348483800888,bus,16E,Øyjorden,Nesttun terminal,Torget D,-PT1M19S
3350453182,60.382926100865,5.21978409960866,bus,49,Olsvikåsen,Ramsvik,Olsvikstallen,-PT9M3S
3350324150,59.7967475093901,5.235097669065,bus,559,Bremnes ungdomsskule ny,Rolvsnes,Innvær sør,PT31S
3350324151,59.7922507859766,5.18980479799211,bus,559,Svortland terminal A,skyss.no,"Svortland skule, til Brandasund",PT5M15S
3350453186,60.356397209689,5.36830094642937,bus,49,Mannsverk garasje,skyss.no,Wiers-Jenssens vei,PT5M47S
3350361480,60.5609281361103,5.27014441788197,bus,303,Nesse snuplass,skyss.no,Flatøy terminal  B,-PT1M2S
3350453109,60.4293552227318,5.3021930437535,bus,16E,Øyjorden,Nesttun terminal,Øyjordsveien,-PT5M
3350361479,60.7351763360202,5.16449430026114,bus,304,Lindås skulestopp,Hundvin boligfelt,Haugatun,PT6M49S
3350135611,60.4768366087228,5.33626799471676,bus,925,Bergen busstasjon O,Ålvik,Birkeland kryss,PT2M33S
3350377306,60.3597000148147,5.12307998724282,bus,441,Hjelteryggen snuplass,Straume terminal,Straume terminal C,PT25S
3350377305,60.3617000207305,5.12664003297687,bus,441,Storavatnet terminal B,skyss.no,GARASJE Straume,PT3M21S
3350361482,60.5448902025819,5.27962242253125,bus,304,Lindås skulestopp,skyss.no,Knarvik garasje,-PT7M46S
3440189664,61.6028213314712,5.13767221011221,bus,251,Florø terminal,Florø lufthamn,Slettevollen,PT5M48S
3350362377,60.5152313411236,5.30832926742733,bus,300,Knarvik terminal A,Bergen busstasjon,Langamyrane,PT26S
3350361494,60.5449021887034,5.27967732399702,bus,300,Knarvik terminal B,skyss.no,Knarvik garasje,-PT7M42S
3350361495,60.5468206387013,5.28776904568076,bus,300,Bergen busstasjon J,Knarvik terminal,Knarvik terminal B,-PT36S
3350361498,60.3879454359412,5.33273661509156,bus,300,Bergen busstasjon J,Knarvik terminal,Bergen busstasjon J,-PT19M54S
3350135694,60.3469617012888,6.18341663852334,bus,749,Mundheim terminal,Norheimsund,Vikøy kyrkje,PT51S
3350361499,60.5449474509805,5.27970666065812,bus,300,Knarvik terminal B,skyss.no,Knarvik garasje,-PT7M32S
3350361496,60.5464925710112,5.28644721955061,bus,300,Knarvik terminal A,Bergen busstasjon,Knarvik terminal A,-PT19M39S
3350361476,60.5456371139735,5.28018216602504,bus,302,Knarvik terminal B,skyss.no,Knarvik garasje,PT10M55S
3350361497,60.3889707941562,5.33143809065223,bus,300,Bergen busstasjon J,Knarvik - Alver,Gamle Bergen,PT27S
3350453179,60.3679804131389,5.1486505754292,bus,49,Alvøen kai,skyss.no,Bildøy skulesenter,PT32M31S
3350453184,60.3493361268193,5.28762169182301,bus,48,Sælenveien,Fyllingsdalen terminal,Fyllingsdalen terminal K,-PT1M7S
3350361499,60.5453669652343,5.2800668310374,bus,301,Knarvik terminal B,Knarvik kai,Knarvik terminal B,-PT12M55S
3350361467,60.7329595740885,5.17246984876692,bus,304,Lindås skulestopp,Hundvin boligfelt,Haugatun,PT14S
3350324163,59.7334814909846,5.35198951140046,bus,554,Mosterhamn kai,Kværner Stord,Spissøy,PT3M15S
3350453144,60.3384414967149,5.32212085090578,bus,49,Fantoft,Skolerute Bønes,Kråkenestoppen,PT1M51S
3350324154,59.794210055843,5.17891217954457,bus,555,Svortland terminal B,Halleråker,Svortland terminal B,PT1M9S
3350453148,60.3560622688383,5.36817890591919,bus,16E,Øyjorden,skyss.no,Garasje Mannsverk,-PT4M55S
3350453145,60.3560809604824,5.36821167916059,bus,49,Lyderhornsveien,skyss.no,Garasje Mannsverk,PT3M8S
3350324155,59.7382603492588,5.1409797091037,bus,555,Svortland skule til Hiskjo,Hiskjo,Hiskjo,PT2M25S
3350447655,60.4634266532958,5.32207315787673,bus,5,Fyllingsdalen terminal K,skyss.no,Åsane terminal A,-PT39M53S
3350447658,60.3818911872804,5.31367432326078,bus,5,Sletten,Fyllingsdalen terminal,Løvstakktunnelen,PT10M26S
3350453188,60.3835436794907,5.22929169237614,bus,45,Loddefjord terminal B,Loddefjord terminal,Nybø gård,-PT3S
3350447659,60.4828062001616,5.38431817665696,bus,5,Fyllingsdalen terminal K,skyss.no,Garasje Haukås,-PT4M30S
3350377343,60.5253000184894,5.02840002067387,bus,480,Åsebø,skyss.no,Fauskanger skule,PT4M28S
3350453142,60.3388568200171,5.3228572010994,bus,49,Fantoft,Skolerute Bønes,Bergveien,PT2M5S
3350377437,60.4049000144005,4.99731003306806,bus,471,Solsvik kai,skyss.no,Ågotnes terminal A,PT1M6S
3350453141,60.3559561539441,5.36831427365541,bus,16E,Nesttun terminal D,skyss.no,Garasje Mannsverk,-PT1M44S
3440189724,61.4535309188068,5.85187674500048,bus,FB59,Førde lufthamn Bringeland,Flybuss Retur frå Førde lufthamn etter flyankomst,Førde utstillingsplassen,PT15M53S
3350361450,60.6869380641729,5.12099415063858,bus,302,Seim skule,Lygra,Lygra kyrkje,-PT43S
3350324156,59.7879012487829,5.12619595974684,bus,555,Nese,Svortland,Økland,PT35S
3350324167,59.7974245157093,5.20545138046145,bus,554,Garasje Bømlo,skyss.no,Moster skule,PT4M27S
3350324147,59.7963984869421,5.25295615196228,bus,556,Stokkabekken terminal,skyss.no,Stokkabekken terminal,PT0S
3350447652,60.4828150849789,5.38430141285062,bus,5,Sletten snuplass,skyss.no,Garasje Haukås,-PT57S
3350324163,59.7973405290395,5.20548742264509,bus,555,Svortland terminal B,skyss.no,Garasje Bømlo,PT15M33S
3350447642,60.3795401472598,5.36027912981808,bus,5,Fyllingsdalen terminal E,Sletten,Haukeland sjukehus nord D,PT6M55S
3350453158,60.3531530778855,5.10785191319883,bus,49,Garasje Mannsverk,skyss.no,Bildøy skulesenter,PT59S
3350447652,60.4696477018297,5.34977970644832,bus,4,Garasje Haukås,skyss.no,Flaktveit snuplass,-PT5M6S
3350453137,60.4246913641691,5.30585937201977,bus,16E,Øyjorden,Nesttun terminal,Handelshøyskolen,PT1M
3350447656,60.4447197541595,5.32644532620907,bus,4,Hesjaholtet,Flaktveit,Åsane terminal B,PT6M24S
3350453138,60.31983057037,5.35234875977039,bus,16E,Øyjorden,Nesttun terminal,Nesttun terminal D,PT2M45S
3350447649,60.3446517325938,5.26063296943903,bus,5,Fyllingsdalen terminal K,skyss.no,Hesjaholtet,PT11M9S
3350377354,60.4479000158608,5.20655997097492,bus,480,Erdal ungdomsskole,Åsebø o/Hanevik,"Djupamyr, Erdalsveien",PT31S
3350453131,60.3162726201117,5.3547006379813,bus,16E,Øyjorden,Nesttun terminal,Nesttun terminal D,-PT2M14S
3350453183,60.3492661379278,5.28765957802534,bus,46,Løvstakkskiftet,Fyllingsdalen terminal,Fyllingsdalen terminal K,PT1M25S
3350453184,60.3583842236549,5.30620428733528,bus,46,Løvstakkskiftet,Fyllingsdalen terminal,Krohnegården,PT27S
3350377355,60.4473000392318,5.20714997313917,bus,480,Erdal ungdomsskole,Åsebø o/Hanevik,"Djupamyr, Erdalsveien",PT22S
3350387103,60.1682000141591,5.43091996572912,bus,99,Nore Neset ungdomsskule,Skulerute,Tuen aust,PT1M45S
3350377348,60.4070000164211,5.22302999161184,bus,480,Kleppestø ungdomsskole,Haugland,Kleppestø ungdomsskole,-PT4M13S
3350387104,60.1684000063688,5.42870001867414,bus,99,Nore Neset ungdomsskule,Skulerute,Tuen,PT1M52S
3350387010,60.278100008145,5.32731997780502,bus,60,Fanahammeren snuplass,Lagunen terminal,Steinknuseverket,PT2M24S
3350387109,60.3112999722362,5.26907999999821,bus,99,Søreide,skyss.no,Bergen busstasjon L,-PT6M30S
3350387016,60.2975000068545,5.32773999497294,bus,60,Fanahammeren snuplass,Lagunen terminal,Lagunen terminal I,PT2M58S
3350361441,60.6798701081425,5.22455063648522,bus,304,Knarvik garasje,skyss.no,Skodvin skule,-PT10M21S
3350387108,60.2356999833137,5.45326000079513,bus,99,Osøyro terminal A,Søfteland Skule,Søfteland skule,-PT2M16S
3350361466,60.6645700335503,5.13436445966363,bus,302,Knarvik terminal B,Feste,Feste bussgarasje,PT1M21S
3350324157,59.794260347262,5.1792352180928,bus,556,Stokkabekken terminal,skyss.no,Svortland terminal D,PT10M39S
3350447650,60.4827723372728,5.38431205786765,bus,4,Flaktveit snuplass,skyss.no,Garasje Haukås,-PT2M3S
3350324144,59.7971276286989,5.20545339211822,bus,558,Brandasund snuplass,skyss.no,Garasje Bømlo,PT18M58S
3350453123,60.3606723155826,5.35079701803625,bus,16E,Øyjorden,skyss.no,Wergeland C,PT15M31S
3350453126,60.319690676406,5.3524415474385,bus,16E,Øyjorden,Nesttun terminal,Nesttun terminal D,PT1M26S
3350453123,60.3567835316062,5.29541568830609,bus,49,Garasje Mannsverk,skyss.no,Lynghaug skole,PT9M55S
3350453178,60.3669470921159,5.26478880085051,bus,44,Nipedalen,Gravdal,Lyngbøkollen,-PT4M51S
3350453139,60.3487614635378,5.28666422702372,bus,48,Sælenveien,skyss.no,Fyllingsdalen terminal D,PT49S
3350453169,60.3618076443672,5.23540109395981,bus,45,Loddefjord terminal B,Loddefjord terminal,Loddefjord terminal A,-PT33S
3350453121,60.3198076039553,5.35236661322415,bus,16E,Øyjorden,Nesttun terminal,Nesttun terminal D,-PT36S
3350324146,59.8700770083815,5.16321974806488,bus,559,Rolvsnes snuplass,Rubbestadneset,Rolvsnes,PT48S
3350453134,60.3384254872799,5.32214012928307,bus,49,Fantoft,Skolerute Bønes,Kråkenestoppen,PT1M48S
3350453114,60.3195269778371,5.35287698730826,bus,16E,Nesttun terminal C,Øyjorden,Nesttun sentrum,PT58S
3350324151,59.8782085441053,5.09678687900305,bus,558,Svortland skule til Brandasund,Brandasund,Kvernanesvegen kryss,PT6M53S
3350453138,60.3210213873535,5.35351334139705,bus,49,Nattland skole,skyss.no,Nesttun terminal C,PT35M52S
3350453118,60.3561430703849,5.36820539273322,bus,16E,Øyjorden,skyss.no,Garasje Mannsverk,-PT1M29S
3350324144,59.7942116484046,5.17928768880665,bus,559,Rubbestadneset kai,Svortland,Svortland terminal A,-PT2M10S
3350377332,60.4449999611825,5.16952998004854,bus,480,Erdal ungdomsskole,skyss.no,Haugland verkstedet,-PT17M38S
3350453111,60.3560251370072,5.3683044668287,bus,16E,Øyjorden,skyss.no,Garasje Mannsverk,PT37S
3350453110,60.3197538759559,5.35239762626588,bus,16E,Øyjorden,Nesttun terminal,Nesttun terminal D,-PT20S
3350361435,60.5482747312635,5.29385321773589,bus,303,Knarvik terminal B,skyss.no,Knarvik garasje,-PT6M35S
3350361459,60.6409991998225,5.04277339205146,bus,321,Marås nord,skyss.no,Manger senter,-PT32S
3350387084,60.1852000225335,5.46904999762774,bus,601,Lysekloster skole,Osøyro,Osøyro terminal B,PT1M2S
3440189708,61.3464472442865,5.06309456191957,bus,230,Førde rutebilstasjon,Askvoll,Askvoll kai,PT7M14S
3350447724,60.5265328288078,5.49361039884388,bus,903,Valestrand kai,skyss.no,Garasje Lonevåg,-PT2M38S
3350447734,60.5256211291999,5.49718293361366,bus,902,Kvisti terminal,Lonevåg,Lonevåg terminal,PT0S
3350447725,60.5073713790625,5.43565465137362,bus,903,Lonevåg terminal,Valestrand,Valestrand skule,PT3M9S
3350387086,60.195399960503,5.46252996660769,bus,601,Eidsvik snuplass,skyss.no,Osøyro terminal A,PT1M25S
3350447727,60.5254590231925,5.49823243170977,bus,903,Valestrand kai,Lonevåg,Lonevåg terminal,PT3S
3350447737,60.525248972699,5.49824927933514,bus,902,Lonevåg terminal,Haus,Kårvik kryss,-PT7M25S
3350447519,60.4827533941716,5.3843491896987,bus,19,Åsane terminal F,skyss.no,Garasje Haukås,-PT6M31S
3350387089,60.2208999730647,5.41000996716321,bus,601,Osøyro terminal A,Drange,Langedalen,PT19S
3350447739,60.5253851786256,5.49806957133114,bus,902,Kvisti terminal,Lonevåg,Lonevåg terminal,PT39S
3350447729,60.5265144724399,5.49366789869964,bus,903,Valestrand kai,skyss.no,Garasje Lonevåg,-PT3M21S
3350447518,60.4561808332801,5.31194597482681,bus,19,Åsane terminal F,skyss.no,Myrane,PT0S
3350361471,60.5191098153591,5.24008959531784,bus,320,Knarvik terminal B,skyss.no,Frekhaug terminal,PT24M43S
3350447515,60.4409828502685,5.28330149129033,bus,19,Løvstakkskiftet,Åsane terminal,Eidsvågneset,PT1M58S
3350135609,59.8594349250197,5.77346613630652,bus,791,Husnes sentrum nord,skyss.no,Garasje Husnes,PT1M42S
3350447513,60.482778204605,5.38434952497482,bus,19,Åsane terminal F,skyss.no,Garasje Haukås,-PT3M53S
3350135695,60.4004933126271,5.73755999095738,bus,925,Arna terminal C,skyss.no,Garasje Samnanger,PT3M12S
3350361475,60.5468366481364,5.28770064935088,bus,320,Knarvik terminal B,Manger,Litlevika,-PT7M7S
3350447511,60.4827633686364,5.3843798674643,bus,19,Åsane terminal F,skyss.no,Garasje Haukås,-PT8M36S
3350361473,60.6269411556423,5.09975826367736,bus,320,Manger senter,Knarvik terminal,Kartveit aust,-PT7S
3350447512,60.4829143267125,5.3842244669795,bus,19,Åsane terminal F,skyss.no,Garasje Haukås,-PT1M25S
3350447510,60.46311551705,5.32100547105074,bus,19,Løvstakkskiftet,Åsane terminal,Åsane terminal F,-PT1M
3350453513,60.3560920245945,5.36819466389716,bus,40,Bergen busstasjon Q,skyss.no,Garasje Mannsverk,PT20S
3350453510,60.3560786973685,5.36816775798798,bus,40,Bergen busstasjon Q,skyss.no,Garasje Mannsverk,-PT58S
3350361447,60.7833154499531,4.93308646604419,bus,323,Straume nord,skyss.no,Årås skule,-PT7M25S
3440189708,61.3465635851026,5.09318852797151,bus,220,Askvoll kai,Dale,Straumen,PT2M58S
3440189707,61.3665523286909,5.26488066650927,bus,220,Dale,Askvoll,Rivedal,PT49S
3350377391,60.3606999758631,5.12379001826048,bus,23E,Straume terminal A,Straume terminal,Knarrevik rv. 555,PT37S
3350447725,60.5252195522189,5.49825556576252,bus,902,Kvisti terminal,Lonevåg,Lonevåg terminal,-PT20S
3350447726,60.5262687150389,5.49410141073167,bus,902,Lonevåg terminal,skyss.no,Garasje Lonevåg,PT5S
3350447727,60.4552854783833,5.49256685189903,bus,902,Lonevåg terminal,Haus,Haus terminal,-PT40S
3350453116,60.3203637432307,5.35237206146121,bus,81,Mannsverk garasje,skyss.no,Nesttun terminal D,PT5M36S
3350453109,60.3561106324196,5.36822659894824,bus,82,Grønnestølen,skyss.no,Garasje Mannsverk,-PT1M1S
3350361455,60.7838637102395,4.93185776285827,bus,323,Straume sør,skyss.no,Mastrevik torg,-PT4M13S
3350361485,60.6410427019,5.05550248548388,bus,320,Manger senter,skyss.no,Manger garasje,-PT19S
3350447602,60.4827853292227,5.38432924076915,bus,4E,Bergen busstasjon Q,skyss.no,Garasje Haukås,-PT3M31S
3350361448,60.5465711932629,5.28681945987046,bus,320,Austmarka,Knarvik terminal,Knarvik terminal B,PT1M48S
3350447601,60.4827243927866,5.3844044264406,bus,4E,Bergen busstasjon Q,skyss.no,Garasje Haukås,-PT7M2S
3350447730,60.5262985546142,5.49398314207792,bus,900,Hatland skulesenter,skyss.no,Garasje Lonevåg,-PT1M40S
3350447735,60.4212609026581,5.46154215931892,bus,900,Arna terminal A,Lonevåg,Øyrane torg E16,PT16S
3350135626,59.7894764598459,5.79361455515027,bus,791,Halsnøy industribase,Valen,Halsnøy industribase,-PT22M45S
3350447738,60.5253371503204,5.4984899237752,bus,900,Hatland skulesenter,Arna terminal,Lonevåg vognstasjon,PT50S
3350447533,60.3762484900653,5.30400278046727,bus,19,Åsane terminal E,Løvstakkskiftet,Melkeplassen,PT3M52S
3350447532,60.4631838295609,5.32101033255458,bus,19,Løvstakkskiftet,Åsane terminal,Åsane terminal F,-PT25S
3350447530,60.395828364417,5.32550152391195,bus,19,Åsane terminal E,Løvstakkskiftet,Olav Kyrres gate E,-PT1M6S
3350361455,60.6408375129104,5.05574782378972,bus,320,Manger senter,skyss.no,Manger garasje,PT20S
3350361459,60.640989728272,5.05499454215169,bus,320,Manger senter,skyss.no,Manger garasje,-PT50S
3350447710,60.4704060964286,5.47359600663185,bus,901,Olsnesskiftet,Øvre Rivenes,Øvre Verkane nord,PT5M31S
3350447720,60.5262877419591,5.494070565328,bus,900,Hatland skulesenter,skyss.no,Garasje Lonevåg,-PT3M50S
3350135625,59.7991449013352,5.82846022211015,bus,791,Valen sjukehuset,skyss.no,Garasje Husnes,PT15M37S
3350447711,60.4698699899018,5.64824896864593,bus,901,Haus terminal,skyss.no,Garasje Bruvik,PT42M22S
3350447712,60.5265321582556,5.49364618957043,bus,901,Haus terminal,skyss.no,Garasje Lonevåg,-PT5M14S
3350447722,60.4219961632043,5.4605869576335,bus,900,Hatland skulesenter,skyss.no,Arna terminal A,-PT2M49S
3350135623,59.8287148308009,5.79283637925982,bus,791,Valen sjukehuset,Høylandsbygd,Valen skule,-PT9M28S
3350453505,60.3561310842633,5.36821519955993,bus,40,Bergen busstasjon Q,skyss.no,Garasje Mannsverk,PT50S
3350135626,59.7894694190472,5.79360349103808,bus,790,Øyatun skule,Høylandsbygd,Halsnøy industribase,-PT15S
3350447528,60.4637537151575,5.32118828035891,bus,19,Åsane terminal E,Løvstakkskiftet,Hesthaugen,PT51S
3350447529,60.4630896169692,5.3210125118494,bus,19,Løvstakkskiftet,Åsane terminal,Åsane terminal F,PT3M31S
3350361460,60.5466812476516,5.28708818368614,bus,320,Manger senter,Knarvik terminal,Knarvik terminal B,PT12S
3350447526,60.4823919665068,5.38961185142398,bus,19,Garasje Haukås,skyss.no,Åsane terminal E,-PT4M9S
3350453507,60.3560663759708,5.36827873438597,bus,40,Bergen busstasjon Q,skyss.no,Garasje Mannsverk,PT3M46S
3350453508,60.3719598893076,5.21429663524032,bus,40,Storavatnet terminal B,Bergen busstasjon,Godviksvingane,-PT4M18S
3350447523,60.4295368585736,5.29048620723188,bus,19,Åsane terminal E,Løvstakkskiftet,Eikeviken,PT1M27S
3350361462,60.5469641368836,5.28834178112447,bus,320,Alversund skule,Knarvik terminal,Knarvik terminal B,-PT1M46S
3350447520,60.4631935525686,5.3209971729666,bus,19,Løvstakkskiftet,Åsane terminal,Åsane terminal F,-PT40S
3350447521,60.4360884055495,5.31781557016075,bus,19,Åsane terminal E,Løvstakkskiftet,Fabrikkvegen,PT2M56S
3350447701,60.5738300643861,5.47930089756846,bus,909,Hosanger montessoriskule,Hatland skulesenter,Hoshovde,PT3M19S
3350132664,60.0138164218515,5.51340929232538,bus,654,Våge kai,skyss.no,Garasje Uggdal,PT2M22S
3350447703,60.4416456911713,5.46267321333289,bus,909,Lonevåg terminal,skyss.no,Garneshøgda,PT6M12S
3350447704,60.5263050924987,5.49405313096941,bus,909,Lonevåg terminal,skyss.no,Garasje Lonevåg,-PT1M32S
3350447734,60.5262926034629,5.49409495666623,bus,906,Lonevåg terminal,skyss.no,Garasje Lonevåg,-PT1M31S
